{"2026":[{"name":"Donivan Dixon","year":2026,"position":"QB","stars":3,"rating_247":84.0,"committed_to":"Northern Arizona","lat":33.8333333,"lng":-111.9508333,"hometown_city":"Cave Creek","hometown_state":"AZ"},{"name":"Case Vanden Bosch","year":2026,"position":"QB","stars":3,"rating_247":83.0,"committed_to":"Air Force","lat":33.4484367,"lng":-112.0741417,"hometown_city":"Phoenix","hometown_state":"AZ"},{"name":"Tanner Vibabul","year":2026,"position":"QB","stars":3,"rating_247":82.0,"committed_to":"James Madison","lat":36.1672559,"lng":-115.1485163,"hometown_city":"Las Vegas","hometown_state":"NV"},{"name":"Liam Meeker","year":2026,"position":"QB","stars":3,"rating_247":82.0,"committed_to":"Sacramento State","lat":33.8915985,"lng":-118.3951241,"hometown_city":"Manhattan Beach","hometown_state":"CA"},{"name":"Deuce Jefferson","year":2026,"position":"QB","stars":3,"rating_247":81.0,"committed_to":"Navy","lat":33.7690164,"lng":-118.1916048,"hometown_city":"Long Beach","hometown_state":"CA"},{"name":"Brogan McNab","year":2026,"position":"QB","stars":3,"rating_247":81.0,"committed_to":"UAB","lat":28.0836269,"lng":-80.6081089,"hometown_city":"Melbourne","hometown_state":"FL"},{"name":"La\u00e2\u20ac\u2122Darius Simmons","year":2026,"position":"QB","stars":null,"rating_247":null,"committed_to":null,"lat":28.6305,"lng":-82.4497,"hometown_city":"Palm Coast","hometown_state":"FL"},{"name":"Jack McKee","year":2026,"position":"QB","stars":null,"rating_247":null,"committed_to":null,"lat":40.2862,"lng":-82.7937,"hometown_city":"Dublin","hometown_state":"OH"},{"name":"Andrew Richardson","year":2026,"position":"QB","stars":null,"rating_247":null,"committed_to":"Army","lat":32.6415,"lng":-83.4426,"hometown_city":"Commerce","hometown_state":"GA"},{"name":"Jaxyn Faldyn","year":2026,"position":"QB","stars":null,"rating_247":null,"committed_to":null,"lat":31.4757,"lng":-99.3312,"hometown_city":"Tomball","hometown_state":"TX"},{"name":"Jett Taylor","year":2026,"position":"QB","stars":null,"rating_247":null,"committed_to":"Navy","lat":31.4757,"lng":-99.3312,"hometown_city":"Grand Saline","hometown_state":"TX"},{"name":"John Hebert","year":2026,"position":"RB","stars":4,"rating_247":94.0,"committed_to":"Houston","lat":29.7589382,"lng":-95.3676974,"hometown_city":"Houston","hometown_state":"TX"},{"name":"Kaegan Ash","year":2026,"position":"RB","stars":3,"rating_247":92.0,"committed_to":"Texas Tech","lat":31.9179473,"lng":-94.6810439,"hometown_city":"Mount Enterprise","hometown_state":"TX"},{"name":"Jamarcea Plater","year":2026,"position":"RB","stars":3,"rating_247":89.0,"committed_to":"Tulsa","lat":32.5221828,"lng":-93.7651944,"hometown_city":"Shreveport","hometown_state":"LA"},{"name":"Jonathan Brown","year":2026,"position":"RB","stars":3,"rating_247":87.0,"committed_to":"Michigan","lat":39.9622601,"lng":-83.0007065,"hometown_city":"Columbus","hometown_state":"OH"},{"name":"Noah Moss","year":2026,"position":"RB","stars":3,"rating_247":86.0,"committed_to":"NC State","lat":30.507956,"lng":-87.89742922432941,"hometown_city":"Fairhope","hometown_state":"AL"},{"name":"Nelsyn Wheeler","year":2026,"position":"RB","stars":3,"rating_247":85.0,"committed_to":"Illinois","lat":41.2587459,"lng":-95.9383758,"hometown_city":"Omaha","hometown_state":"NE"},{"name":"Zamarcus Lindley","year":2026,"position":"RB","stars":3,"rating_247":85.0,"committed_to":"Samford","lat":33.7514966,"lng":-84.7477136,"hometown_city":"Douglasville","hometown_state":"GA"},{"name":"Cam Newton","year":2026,"position":"RB","stars":null,"rating_247":85.0,"committed_to":"Colorado","lat":31.4757,"lng":-99.3312,"hometown_city":"Prosper","hometown_state":"TX"},{"name":"HD Davis","year":2026,"position":"RB","stars":null,"rating_247":84.0,"committed_to":"Baylor","lat":31.4757,"lng":-99.3312,"hometown_city":"Wolfe City","hometown_state":"TX"},{"name":"Caleb Crenshaw","year":2026,"position":"RB","stars":3,"rating_247":84.0,"committed_to":"Stephen F. Austin","lat":30.2711286,"lng":-97.7436995,"hometown_city":"Austin","hometown_state":"TX"},{"name":"Justin Lewis","year":2026,"position":"RB","stars":3,"rating_247":84.0,"committed_to":"UMass","lat":33.7494951,"lng":-117.8732213,"hometown_city":"Santa Ana","hometown_state":"CA"},{"name":"Hudson Higgins","year":2026,"position":"RB","stars":3,"rating_247":82.0,"committed_to":"UAB","lat":34.79981,"lng":-87.677251,"hometown_city":"Florence","hometown_state":"AL"},{"name":"Davonte Curtis","year":2026,"position":"RB","stars":3,"rating_247":81.0,"committed_to":null,"lat":33.5965685,"lng":-117.659405,"hometown_city":"Mission Viejo","hometown_state":"CA"},{"name":"Brody Gish","year":2026,"position":"RB","stars":null,"rating_247":null,"committed_to":"Navy","lat":40.0417,"lng":-89.1965,"hometown_city":"Frankfort","hometown_state":"IL"},{"name":"Courtney Rivers","year":2026,"position":"RB","stars":null,"rating_247":null,"committed_to":"South Dakota","lat":38.3566,"lng":-92.458,"hometown_city":"St. Louis","hometown_state":"MO"},{"name":"Jahan Abubakar","year":2026,"position":"RB","stars":null,"rating_247":null,"committed_to":"South Dakota","lat":40.0417,"lng":-89.1965,"hometown_city":"New Lenox","hometown_state":"IL"},{"name":"Grady Kinsey","year":2026,"position":"RB","stars":null,"rating_247":null,"committed_to":"Air Force","lat":40.2862,"lng":-82.7937,"hometown_city":"Gnadenhutten","hometown_state":"OH"},{"name":"Lazaro Faraj-Washington","year":2026,"position":"RB","stars":null,"rating_247":null,"committed_to":null,"lat":37.1841,"lng":-119.4696,"hometown_city":"San Jose","hometown_state":"CA"},{"name":"Trae Hill","year":2026,"position":"RB","stars":null,"rating_247":null,"committed_to":null,"lat":31.4757,"lng":-99.3312,"hometown_city":"Cedar Park","hometown_state":"TX"},{"name":"Ben Bucher","year":2026,"position":"RB","stars":null,"rating_247":null,"committed_to":"Air Force","lat":40.0417,"lng":-89.1965,"hometown_city":"Belvidere","hometown_state":"IL"},{"name":"Farad Green","year":2026,"position":"RB","stars":null,"rating_247":null,"committed_to":"Army","lat":40.1907,"lng":-74.6728,"hometown_city":"West Orange","hometown_state":"NJ"},{"name":"Yoshua McBryde","year":2026,"position":"RB","stars":null,"rating_247":null,"committed_to":null,"lat":35.5557,"lng":-79.3877,"hometown_city":"St. Pauls","hometown_state":"NC"},{"name":"Tyreek Copper","year":2026,"position":"WR","stars":3,"rating_247":90.0,"committed_to":"NC State","lat":35.2626635,"lng":-77.5816353,"hometown_city":"Kinston","hometown_state":"NC"},{"name":"Kamauri Austin","year":2026,"position":"WR","stars":3,"rating_247":88.0,"committed_to":"Appalachian State","lat":34.5959265,"lng":-92.4890469,"hometown_city":"Bryant","hometown_state":"AR"},{"name":"William Pressley","year":2026,"position":"WR","stars":null,"rating_247":87.0,"committed_to":"Miami (OH)","lat":35.858,"lng":-86.3505,"hometown_city":"Oak Ridge","hometown_state":"TN"},{"name":"Lathon Latiolais","year":2026,"position":"WR","stars":3,"rating_247":86.0,"committed_to":"North Texas","lat":33.2385763,"lng":-96.7866058,"hometown_city":"Prosper","hometown_state":"TX"},{"name":"Kaden Page","year":2026,"position":"WR","stars":3,"rating_247":86.0,"committed_to":"Ohio","lat":40.5678265,"lng":-84.1935594,"hometown_city":"Wapakoneta","hometown_state":"OH"},{"name":"Zion Hudson","year":2026,"position":"WR","stars":3,"rating_247":86.0,"committed_to":"James Madison","lat":32.5537585,"lng":-83.8874084,"hometown_city":"Fort Valley","hometown_state":"GA"},{"name":"Merrik Bloomgren","year":2026,"position":"WR","stars":3,"rating_247":85.0,"committed_to":"Air Force","lat":30.1902067,"lng":-98.0866781,"hometown_city":"Dripping Springs","hometown_state":"TX"},{"name":"Jack Rhodes","year":2026,"position":"WR","stars":3,"rating_247":85.0,"committed_to":"Virginia","lat":33.4709714,"lng":-81.9748429,"hometown_city":"Augusta","hometown_state":"GA"},{"name":"Jordan Styles","year":2026,"position":"WR","stars":3,"rating_247":85.0,"committed_to":"Wyoming","lat":30.1734194,"lng":-95.504686,"hometown_city":"The Woodlands","hometown_state":"TX"},{"name":"Wyatt Villarreal","year":2026,"position":"WR","stars":3,"rating_247":85.0,"committed_to":"Pittsburgh","lat":33.3238976,"lng":-96.785342,"hometown_city":"Celina","hometown_state":"TX"},{"name":"Mouhamadou Mane","year":2026,"position":"WR","stars":3,"rating_247":85.0,"committed_to":"Western Carolina","lat":32.495294,"lng":-83.6099696,"hometown_city":"Kathleen","hometown_state":"GA"},{"name":"Harper Hughes","year":2026,"position":"WR","stars":3,"rating_247":85.0,"committed_to":"Western Michigan","lat":43.105008,"lng":-88.3420398,"hometown_city":"Hartland","hometown_state":"WI"},{"name":"DJ Darling","year":2026,"position":"WR","stars":3,"rating_247":85.0,"committed_to":"New Mexico","lat":29.6185669,"lng":-95.5377215,"hometown_city":"Missouri City","hometown_state":"TX"},{"name":"Dallas Boozer","year":2026,"position":"WR","stars":3,"rating_247":85.0,"committed_to":"Arkansas State","lat":33.2385763,"lng":-96.7866058,"hometown_city":"Prosper","hometown_state":"TX"},{"name":"Myles Ellis","year":2026,"position":"WR","stars":null,"rating_247":85.0,"committed_to":"North Dakota State","lat":40.0417,"lng":-89.1965,"hometown_city":"Flossmoor","hometown_state":"IL"},{"name":"Kash Brock","year":2026,"position":"WR","stars":3,"rating_247":84.0,"committed_to":"Wisconsin","lat":33.3062223,"lng":-111.8413317,"hometown_city":"Chandler","hometown_state":"AZ"},{"name":"Blake Hamilton","year":2026,"position":"WR","stars":3,"rating_247":84.0,"committed_to":null,"lat":29.7857853,"lng":-95.8243956,"hometown_city":"Katy","hometown_state":"TX"},{"name":"Isaiah Williams","year":2026,"position":"WR","stars":3,"rating_247":83.0,"committed_to":"Nevada","lat":38.6779591,"lng":-121.1760583,"hometown_city":"Folsom","hometown_state":"CA"},{"name":"Prince Hall","year":2026,"position":"WR","stars":3,"rating_247":83.0,"committed_to":"UTSA","lat":31.1171441,"lng":-97.727796,"hometown_city":"Killeen","hometown_state":"TX"},{"name":"Jarod Sersansie","year":2026,"position":"WR","stars":3,"rating_247":83.0,"committed_to":"Columbia","lat":33.5016932,"lng":-117.6625509,"hometown_city":"San Juan Capistrano","hometown_state":"CA"},{"name":"Andrew Esposito","year":2026,"position":"WR","stars":null,"rating_247":83.0,"committed_to":"Villanova","lat":41.6219,"lng":-72.7273,"hometown_city":"New Canaan","hometown_state":"CT"},{"name":"Josiah Andrews","year":2026,"position":"WR","stars":3,"rating_247":82.0,"committed_to":"Northern Arizona","lat":38.7907339,"lng":-121.2357828,"hometown_city":"Rocklin","hometown_state":"CA"},{"name":"Kobe Dooley","year":2026,"position":"WR","stars":3,"rating_247":82.0,"committed_to":"Air Force","lat":38.8339578,"lng":-104.8253485,"hometown_city":"Colorado Springs","hometown_state":"CO"},{"name":"Greyson Stevens","year":2026,"position":"WR","stars":3,"rating_247":82.0,"committed_to":"Montana State","lat":46.601557,"lng":-120.5108421,"hometown_city":"Yakima","hometown_state":"WA"},{"name":"Eli Rich","year":2026,"position":"WR","stars":null,"rating_247":81.0,"committed_to":"Colorado State","lat":44.3509,"lng":-114.613,"hometown_city":"Boise","hometown_state":"ID"},{"name":"Tyler George","year":2026,"position":"WR","stars":3,"rating_247":80.0,"committed_to":null,"lat":33.8752945,"lng":-117.5664449,"hometown_city":"Corona","hometown_state":"CA"},{"name":"Hudson Reasor","year":2026,"position":"WR","stars":null,"rating_247":null,"committed_to":"Colgate","lat":31.4757,"lng":-99.3312,"hometown_city":"Fort Worth","hometown_state":"TX"},{"name":"Rakim Finch","year":2026,"position":"WR","stars":null,"rating_247":null,"committed_to":"Air Force","lat":35.5557,"lng":-79.3877,"hometown_city":"Charlotte","hometown_state":"NC"},{"name":"Koen Parnell","year":2026,"position":"WR","stars":null,"rating_247":null,"committed_to":"UC Davis","lat":37.1841,"lng":-119.4696,"hometown_city":"Santa Ana","hometown_state":"CA"},{"name":"Timothy Ural","year":2026,"position":"WR","stars":null,"rating_247":null,"committed_to":null,"lat":37.1841,"lng":-119.4696,"hometown_city":"Mill Valley","hometown_state":"CA"},{"name":"Zui Shelton","year":2026,"position":"WR","stars":null,"rating_247":null,"committed_to":"Portland State","lat":37.1841,"lng":-119.4696,"hometown_city":"San Francisco","hometown_state":"CA"},{"name":"Alex Uchtman","year":2026,"position":"WR","stars":null,"rating_247":null,"committed_to":"South Dakota State","lat":41.5378,"lng":-99.7951,"hometown_city":"Omaha","hometown_state":"NE"},{"name":"Henry Rohan","year":2026,"position":"WR","stars":null,"rating_247":null,"committed_to":null,"lat":38.3566,"lng":-92.458,"hometown_city":"St. Louis","hometown_state":"MO"},{"name":"Isaiah Docken","year":2026,"position":"WR","stars":null,"rating_247":null,"committed_to":null,"lat":47.3826,"lng":-120.4472,"hometown_city":"Spokane","hometown_state":"WA"},{"name":"Braeden Stuart","year":2026,"position":"WR","stars":null,"rating_247":null,"committed_to":"Navy","lat":40.8781,"lng":-77.7996,"hometown_city":"Coraopolis","hometown_state":"PA"},{"name":"Aidan Stewart","year":2026,"position":"WR","stars":null,"rating_247":null,"committed_to":"Air Force","lat":40.2862,"lng":-82.7937,"hometown_city":"Avon Lake","hometown_state":"OH"},{"name":"Tyson Davis","year":2026,"position":"WR","stars":null,"rating_247":null,"committed_to":"Air Force","lat":31.4757,"lng":-99.3312,"hometown_city":"Plano","hometown_state":"TX"},{"name":"Joelle Arnett","year":2026,"position":"WR","stars":null,"rating_247":null,"committed_to":"Army","lat":31.4757,"lng":-99.3312,"hometown_city":"Cypress","hometown_state":"TX"},{"name":"Daniel Zabora","year":2026,"position":"WR","stars":null,"rating_247":null,"committed_to":"Air Force","lat":40.1907,"lng":-74.6728,"hometown_city":"Red Bank","hometown_state":"NJ"},{"name":"Jayden Futrell","year":2026,"position":"WR","stars":null,"rating_247":null,"committed_to":"West Georgia","lat":32.6415,"lng":-83.4426,"hometown_city":"Harlem","hometown_state":"GA"},{"name":"Evan Morton","year":2026,"position":"WR","stars":null,"rating_247":null,"committed_to":"Yale","lat":39.321,"lng":-111.0937,"hometown_city":"Sandy","hometown_state":"UT"},{"name":"Tyler Caldwell","year":2026,"position":"WR","stars":null,"rating_247":null,"committed_to":"Cal Poly","lat":37.1841,"lng":-119.4696,"hometown_city":"Murrieta","hometown_state":"CA"},{"name":"CJ Willingham","year":2026,"position":"WR","stars":null,"rating_247":null,"committed_to":"Columbia","lat":32.6415,"lng":-83.4426,"hometown_city":"Rabun Gap","hometown_state":"GA"},{"name":"Tyler Ruxer","year":2026,"position":"TE","stars":4,"rating_247":89.0,"committed_to":"Oklahoma","lat":38.1211634,"lng":-86.9986077,"hometown_city":"Lincoln City","hometown_state":"IN"},{"name":"Jack Sievers","year":2026,"position":"TE","stars":3,"rating_247":88.0,"committed_to":"Wisconsin","lat":47.9673056,"lng":-122.2013998,"hometown_city":"Everett","hometown_state":"WA"},{"name":"Gabe Weaver","year":2026,"position":"TE","stars":3,"rating_247":88.0,"committed_to":"Minnesota","lat":38.6268039,"lng":-90.1994097,"hometown_city":"St. Louis","hometown_state":"MO"},{"name":"Benjamin Moseley","year":2026,"position":"TE","stars":null,"rating_247":87.0,"committed_to":"Duke","lat":32.7794,"lng":-86.8287,"hometown_city":"Centre","hometown_state":"AL"},{"name":"Max Roche","year":2026,"position":"TE","stars":3,"rating_247":86.0,"committed_to":"James Madison","lat":30.5168639,"lng":-86.482172,"hometown_city":"Niceville","hometown_state":"FL"},{"name":"Brady Shust","year":2026,"position":"TE","stars":3,"rating_247":86.0,"committed_to":"Wake Forest","lat":41.0467635,"lng":-74.0229173,"hometown_city":"Montvale","hometown_state":"NJ"},{"name":"Will Vala","year":2026,"position":"TE","stars":3,"rating_247":86.0,"committed_to":"Illinois","lat":41.7938195,"lng":-88.010376,"hometown_city":"Downers Grove","hometown_state":"IL"},{"name":"Brayden Marko","year":2026,"position":"TE","stars":3,"rating_247":85.0,"committed_to":"Maryland","lat":38.8949855,"lng":-77.0365708,"hometown_city":"Washington","hometown_state":"DC"},{"name":"Garrett Essner","year":2026,"position":"TE","stars":3,"rating_247":85.0,"committed_to":"Memphis","lat":38.951883,"lng":-92.3337366,"hometown_city":"Columbia","hometown_state":"MO"},{"name":"Preston McDaniel","year":2026,"position":"TE","stars":3,"rating_247":85.0,"committed_to":"Utah State","lat":43.4935245,"lng":-112.0400919,"hometown_city":"Idaho Falls","hometown_state":"ID"},{"name":"Braden Bach","year":2026,"position":"TE","stars":3,"rating_247":85.0,"committed_to":"TCU","lat":33.110156,"lng":-97.17940980147037,"hometown_city":"Argyle","hometown_state":"TX"},{"name":"Andreas Diaz-Nicolaidis","year":2026,"position":"TE","stars":3,"rating_247":85.0,"committed_to":"UNLV","lat":36.1672559,"lng":-115.1485163,"hometown_city":"Las Vegas","hometown_state":"NV"},{"name":"Eli Wilt","year":2026,"position":"TE","stars":3,"rating_247":85.0,"committed_to":"Western Kentucky","lat":36.1622296,"lng":-86.7743531,"hometown_city":"Nashville","hometown_state":"TN"},{"name":"Kaden Glover","year":2026,"position":"TE","stars":3,"rating_247":84.0,"committed_to":"Navy","lat":34.17142715,"lng":-118.91058772974445,"hometown_city":"Thousand Oaks","hometown_state":"CA"},{"name":"Max Leeper","year":2026,"position":"TE","stars":3,"rating_247":84.0,"committed_to":"New Mexico","lat":34.0966764,"lng":-117.7197785,"hometown_city":"Claremont","hometown_state":"CA"},{"name":"Landon Cook","year":2026,"position":"TE","stars":3,"rating_247":83.0,"committed_to":"Oregon State","lat":37.9768525,"lng":-122.0335624,"hometown_city":"Concord","hometown_state":"CA"},{"name":"Caden Ward","year":2026,"position":"TE","stars":3,"rating_247":83.0,"committed_to":"North Dakota State","lat":29.3685674,"lng":-94.9713134,"hometown_city":"La Marque","hometown_state":"TX"},{"name":"Mason Mixon","year":2026,"position":"TE","stars":null,"rating_247":null,"committed_to":"Army","lat":31.4757,"lng":-99.3312,"hometown_city":"Richmond","hometown_state":"TX"},{"name":"Michael Dersa","year":2026,"position":"TE","stars":null,"rating_247":null,"committed_to":null,"lat":44.3467,"lng":-85.4102,"hometown_city":"Novi","hometown_state":"MI"},{"name":"Finn Bretag","year":2026,"position":"TE","stars":null,"rating_247":null,"committed_to":"Illinois State","lat":40.0417,"lng":-89.1965,"hometown_city":"Naperville","hometown_state":"IL"},{"name":"Owen Dodson","year":2026,"position":"TE","stars":null,"rating_247":null,"committed_to":"Grand Valley State","lat":39.8942,"lng":-86.2816,"hometown_city":"Fort Wayne","hometown_state":"IN"},{"name":"Luke Pastis","year":2026,"position":"TE","stars":null,"rating_247":null,"committed_to":"Air Force","lat":28.6305,"lng":-82.4497,"hometown_city":"Orlando","hometown_state":"FL"},{"name":"Hunter Ogdan","year":2026,"position":"TE","stars":null,"rating_247":null,"committed_to":"Army","lat":40.2862,"lng":-82.7937,"hometown_city":"Cincinnati","hometown_state":"OH"},{"name":"Andrew Gillman","year":2026,"position":"TE","stars":null,"rating_247":null,"committed_to":"Pennsylvania","lat":40.1907,"lng":-74.6728,"hometown_city":"Linwood","hometown_state":"NJ"},{"name":"Henry Hauge","year":2026,"position":"TE","stars":null,"rating_247":null,"committed_to":"Air Force","lat":46.2807,"lng":-94.3053,"hometown_city":"Lakeville","hometown_state":"MN"},{"name":"Mason Riddle","year":2026,"position":"TE","stars":null,"rating_247":null,"committed_to":"Air Force","lat":28.6305,"lng":-82.4497,"hometown_city":"New Smyrna Beach","hometown_state":"FL"},{"name":"Hunter Stepanich","year":2026,"position":"TE","stars":null,"rating_247":null,"committed_to":"Princeton","lat":40.0417,"lng":-89.1965,"hometown_city":"Elmhurst","hometown_state":"IL"},{"name":"Sylas Austin","year":2026,"position":"TE","stars":null,"rating_247":null,"committed_to":"Fresno State","lat":37.1841,"lng":-119.4696,"hometown_city":"Atwater","hometown_state":"CA"},{"name":"Caleb Dunn","year":2026,"position":"TE","stars":null,"rating_247":null,"committed_to":null,"lat":38.9972,"lng":-105.5478,"hometown_city":"Broomfield","hometown_state":"CO"},{"name":"Nicholas Howard","year":2026,"position":"OT","stars":4,"rating_247":90.0,"committed_to":"Pittsburgh","lat":29.5639758,"lng":-95.2864299,"hometown_city":"Pearland","hometown_state":"TX"},{"name":"Nick Fiumara","year":2026,"position":"OT","stars":3,"rating_247":87.0,"committed_to":"North Carolina","lat":42.3959296,"lng":-71.1786655,"hometown_city":"Belmont","hometown_state":"MA"},{"name":"Jacob Crow","year":2026,"position":"OT","stars":3,"rating_247":87.0,"committed_to":"Texas Tech","lat":35.7895271,"lng":-83.9737935,"hometown_city":"Alcoa","hometown_state":"TN"},{"name":"Kenton Mondeau","year":2026,"position":"OT","stars":3,"rating_247":86.0,"committed_to":"Indiana","lat":44.811349,"lng":-91.4984941,"hometown_city":"Eau Claire","hometown_state":"WI"},{"name":"Mason Mathis","year":2026,"position":"OT","stars":3,"rating_247":86.0,"committed_to":"Auburn","lat":30.6324149,"lng":-87.0396881,"hometown_city":"Milton","hometown_state":"FL"},{"name":"Chase Deniz","year":2026,"position":"OT","stars":3,"rating_247":86.0,"committed_to":"USC","lat":32.7174209,"lng":-117.1627714,"hometown_city":"San Diego","hometown_state":"CA"},{"name":"Connor LaGrow","year":2026,"position":"OT","stars":3,"rating_247":86.0,"committed_to":"Boise State","lat":45.3838546,"lng":-122.7663518,"hometown_city":"Tualatin","hometown_state":"OR"},{"name":"Zach Hultgren","year":2026,"position":"OT","stars":3,"rating_247":85.0,"committed_to":"Miami (OH)","lat":42.0978028,"lng":-88.5303643,"hometown_city":"Hampshire","hometown_state":"IL"},{"name":"Owen Cheatham","year":2026,"position":"OT","stars":3,"rating_247":85.0,"committed_to":"Florida Atlantic","lat":37.2713951,"lng":-107.8815978,"hometown_city":"Durango","hometown_state":"CO"},{"name":"Leyonte Chandler","year":2026,"position":"OT","stars":3,"rating_247":84.0,"committed_to":"Rice","lat":32.8457865,"lng":-97.0667142473263,"hometown_city":"Euless","hometown_state":"TX"},{"name":"Elliott Chaney","year":2026,"position":"OT","stars":3,"rating_247":84.0,"committed_to":"South Alabama","lat":34.3664127,"lng":-89.5187664,"hometown_city":"Oxford","hometown_state":"MS"},{"name":"Pete Pendergest","year":2026,"position":"OT","stars":3,"rating_247":84.0,"committed_to":"Bowling Green","lat":39.3995067,"lng":-84.5613428,"hometown_city":"Hamilton","hometown_state":"OH"},{"name":"Nick Anciaux","year":2026,"position":"OT","stars":3,"rating_247":84.0,"committed_to":"Tulsa","lat":37.6922361,"lng":-97.3375448,"hometown_city":"Wichita","hometown_state":"KS"},{"name":"Dawson Matthews","year":2026,"position":"OT","stars":3,"rating_247":83.0,"committed_to":"Tulsa","lat":34.7743383,"lng":-96.6783651,"hometown_city":"Ada","hometown_state":"OK"},{"name":"Foard Polley","year":2026,"position":"OT","stars":null,"rating_247":83.0,"committed_to":"Pennsylvania","lat":31.4757,"lng":-99.3312,"hometown_city":"Houston","hometown_state":"TX"},{"name":"Josiah West","year":2026,"position":"OT","stars":3,"rating_247":83.0,"committed_to":"Montana","lat":46.2067583,"lng":-119.7691601,"hometown_city":"Prosser","hometown_state":"WA"},{"name":"Jaden Maxey","year":2026,"position":"OT","stars":3,"rating_247":82.0,"committed_to":"Buffalo","lat":33.5386858,"lng":-112.1859941,"hometown_city":"Glendale","hometown_state":"AZ"},{"name":"Pierce Decker","year":2026,"position":"OT","stars":3,"rating_247":82.0,"committed_to":"Wyoming","lat":40.5508527,"lng":-105.0668085,"hometown_city":"Fort Collins","hometown_state":"CO"},{"name":"Sebastian Cugini","year":2026,"position":"OT","stars":3,"rating_247":82.0,"committed_to":"Lehigh","lat":47.6859573,"lng":-122.1920249,"hometown_city":"Kirkland","hometown_state":"WA"},{"name":"Duncan Broughton","year":2026,"position":"OT","stars":3,"rating_247":82.0,"committed_to":null,"lat":38.62709845,"lng":-121.32224222755409,"hometown_city":"Carmichael","hometown_state":"CA"},{"name":"Robert Beverly","year":2026,"position":"OT","stars":3,"rating_247":81.0,"committed_to":"UC Davis","lat":38.75511285,"lng":-121.35330894827251,"hometown_city":"Carmel","hometown_state":"CA"},{"name":"Angelo De Sensi","year":2026,"position":"OT","stars":null,"rating_247":null,"committed_to":"Northwestern","lat":40.0417,"lng":-89.1965,"hometown_city":"Lombard","hometown_state":"IL"},{"name":"Michael Vandermyde","year":2026,"position":"OT","stars":null,"rating_247":null,"committed_to":null,"lat":39.321,"lng":-111.0937,"hometown_city":"St. George","hometown_state":"UT"},{"name":"Joe Weiler","year":2026,"position":"OT","stars":null,"rating_247":null,"committed_to":"Pennsylvania","lat":43.9336,"lng":-120.5583,"hometown_city":"Lake Oswego","hometown_state":"OR"},{"name":"Weston Rowe","year":2026,"position":"OT","stars":null,"rating_247":null,"committed_to":"South Dakota State","lat":46.2807,"lng":-94.3053,"hometown_city":"Jackson","hometown_state":"MN"},{"name":"Adam Berns","year":2026,"position":"OT","stars":null,"rating_247":null,"committed_to":"Navy","lat":31.4757,"lng":-99.3312,"hometown_city":"North Richland Hills","hometown_state":"TX"},{"name":"Brady Wyatt","year":2026,"position":"OT","stars":null,"rating_247":null,"committed_to":"Air Force","lat":31.4757,"lng":-99.3312,"hometown_city":"Dallas","hometown_state":"TX"},{"name":"Sebastian Wagner","year":2026,"position":"OT","stars":null,"rating_247":null,"committed_to":"Air Force","lat":28.6305,"lng":-82.4497,"hometown_city":"Boca Raton","hometown_state":"FL"},{"name":"Ryan Miret","year":2026,"position":"IOL","stars":3,"rating_247":88.0,"committed_to":"LSU","lat":25.7742658,"lng":-80.1936589,"hometown_city":"Miami","hometown_state":"FL"},{"name":"Cooper Javorsky","year":2026,"position":"IOL","stars":3,"rating_247":87.0,"committed_to":"UCLA","lat":33.5016932,"lng":-117.6625509,"hometown_city":"San Juan Capistrano","hometown_state":"CA"},{"name":"Luke Hatfield","year":2026,"position":"IOL","stars":3,"rating_247":86.0,"committed_to":"Virginia","lat":38.8121398,"lng":-77.6368038,"hometown_city":"Haymarket","hometown_state":"VA"},{"name":"Josh Haney","year":2026,"position":"IOL","stars":3,"rating_247":86.0,"committed_to":"UNLV","lat":33.5016932,"lng":-117.6625509,"hometown_city":"San Juan Capistrano","hometown_state":"CA"},{"name":"Michael Price","year":2026,"position":"IOL","stars":3,"rating_247":85.0,"committed_to":"UCLA","lat":34.729847,"lng":-86.5859011,"hometown_city":"Huntsville","hometown_state":"AL"},{"name":"Jacob Rathbone","year":2026,"position":"IOL","stars":3,"rating_247":85.0,"committed_to":"Central Arkansas","lat":35.925193,"lng":-86.8689365,"hometown_city":"Franklin","hometown_state":"TN"},{"name":"Carey Clayton","year":2026,"position":"IOL","stars":3,"rating_247":85.0,"committed_to":"Arkansas","lat":32.9412363,"lng":-97.1341783,"hometown_city":"Southlake","hometown_state":"TX"},{"name":"Ben Jones","year":2026,"position":"IOL","stars":3,"rating_247":84.0,"committed_to":"Appalachian State","lat":28.5421109,"lng":-81.3790304,"hometown_city":"Orlando","hometown_state":"FL"},{"name":"Ryley Kester","year":2026,"position":"IOL","stars":3,"rating_247":84.0,"committed_to":"Tulsa","lat":36.0228734,"lng":-95.9683278,"hometown_city":"Jenks","hometown_state":"OK"},{"name":"Gunnar Goodwin","year":2026,"position":"IOL","stars":3,"rating_247":84.0,"committed_to":"Louisiana","lat":34.9343599,"lng":-88.5223353,"hometown_city":"Corinth","hometown_state":"MS"},{"name":"Clay Mitchell","year":2026,"position":"IOL","stars":3,"rating_247":84.0,"committed_to":"Rice","lat":28.034685,"lng":-97.5085762,"hometown_city":"Sinton","hometown_state":"TX"},{"name":"Myles Batesky","year":2026,"position":"IOL","stars":3,"rating_247":84.0,"committed_to":"Harvard","lat":42.2830786,"lng":-87.9531303,"hometown_city":"Libertyville","hometown_state":"IL"},{"name":"Easton Hammond","year":2026,"position":"IOL","stars":3,"rating_247":84.0,"committed_to":"Utah State","lat":41.6815987,"lng":-111.8229982,"hometown_city":"Millville","hometown_state":"UT"},{"name":"Nasir Jones","year":2026,"position":"IOL","stars":3,"rating_247":83.0,"committed_to":"Coastal Carolina","lat":34.257038,"lng":-85.1646726,"hometown_city":"Rome","hometown_state":"GA"},{"name":"Cristian Alvarez","year":2026,"position":"IOL","stars":3,"rating_247":83.0,"committed_to":"North Carolina","lat":41.0467635,"lng":-74.0229173,"hometown_city":"Montvale","hometown_state":"NJ"},{"name":"Matthew Perusse","year":2026,"position":"IOL","stars":null,"rating_247":83.0,"committed_to":"Montana State","lat":46.2807,"lng":-94.3053,"hometown_city":"Osseo","hometown_state":"MN"},{"name":"Wes Wiggins","year":2026,"position":"IOL","stars":null,"rating_247":82.0,"committed_to":"UAB","lat":32.7364,"lng":-89.6678,"hometown_city":"Smithville","hometown_state":"MS"},{"name":"Will Cooper","year":2026,"position":"IOL","stars":3,"rating_247":82.0,"committed_to":"Jacksonville State","lat":30.507956,"lng":-87.89742922432941,"hometown_city":"Fairhope","hometown_state":"AL"},{"name":"Flynn Collins","year":2026,"position":"IOL","stars":null,"rating_247":null,"committed_to":null,"lat":43.9336,"lng":-120.5583,"hometown_city":"Portland","hometown_state":"OR"},{"name":"Carter Glab","year":2026,"position":"IOL","stars":null,"rating_247":null,"committed_to":"Army","lat":41.5378,"lng":-99.7951,"hometown_city":"Omaha","hometown_state":"NE"},{"name":"Jaden Rasic","year":2026,"position":"IOL","stars":null,"rating_247":null,"committed_to":null,"lat":37.1841,"lng":-119.4696,"hometown_city":"Anaheim","hometown_state":"CA"},{"name":"Cael Gago","year":2026,"position":"IOL","stars":null,"rating_247":null,"committed_to":"Air Force","lat":44.6243,"lng":-89.9941,"hometown_city":"Rice Lake","hometown_state":"WI"},{"name":"Andrew Hine","year":2026,"position":"IOL","stars":null,"rating_247":null,"committed_to":"Army","lat":42.0751,"lng":-93.496,"hometown_city":"Waukee","hometown_state":"IA"},{"name":"Brock Schlef","year":2026,"position":"IOL","stars":null,"rating_247":null,"committed_to":"Air Force","lat":31.4757,"lng":-99.3312,"hometown_city":"Plano","hometown_state":"TX"},{"name":"Caleb Rye","year":2026,"position":"IOL","stars":null,"rating_247":null,"committed_to":"Air Force","lat":37.1841,"lng":-119.4696,"hometown_city":"Corona","hometown_state":"CA"},{"name":"Lucas Hillsten","year":2026,"position":"IOL","stars":null,"rating_247":null,"committed_to":"Air Force","lat":37.1841,"lng":-119.4696,"hometown_city":"Westlake Village","hometown_state":"CA"},{"name":"Owen Neill","year":2026,"position":"IOL","stars":null,"rating_247":null,"committed_to":"Cal Poly","lat":37.1841,"lng":-119.4696,"hometown_city":"Santa Ana","hometown_state":"CA"},{"name":"Kingston Jackson","year":2026,"position":"IOL","stars":null,"rating_247":null,"committed_to":"Army","lat":34.8938,"lng":-92.4426,"hometown_city":"Conway","hometown_state":"AR"},{"name":"Spencer Parham","year":2026,"position":"IOL","stars":null,"rating_247":null,"committed_to":null,"lat":37.1841,"lng":-119.4696,"hometown_city":"Chatsworth","hometown_state":"CA"},{"name":"Jacob Beatty","year":2026,"position":"IOL","stars":null,"rating_247":null,"committed_to":"Air Force","lat":40.2862,"lng":-82.7937,"hometown_city":"Columbus","hometown_state":"OH"},{"name":"Matthew Heckman","year":2026,"position":"IOL","stars":null,"rating_247":null,"committed_to":"Army","lat":34.8938,"lng":-92.4426,"hometown_city":"Fayetteville","hometown_state":"AR"},{"name":"Gage Turnbull","year":2026,"position":"IOL","stars":null,"rating_247":null,"committed_to":null,"lat":38.9972,"lng":-105.5478,"hometown_city":"Parker","hometown_state":"CO"},{"name":"Calan Peters","year":2026,"position":"IOL","stars":null,"rating_247":null,"committed_to":null,"lat":42.0751,"lng":-93.496,"hometown_city":"Milford","hometown_state":"IA"},{"name":"Anthony Rametta","year":2026,"position":"IOL","stars":null,"rating_247":null,"committed_to":"Navy","lat":28.6305,"lng":-82.4497,"hometown_city":"Tampa","hometown_state":"FL"},{"name":"Lucas Tselentis","year":2026,"position":"IOL","stars":null,"rating_247":null,"committed_to":"Mercer","lat":35.5557,"lng":-79.3877,"hometown_city":"Charlotte","hometown_state":"NC"},{"name":"Matthew Nelson","year":2026,"position":"Edge","stars":4,"rating_247":89.0,"committed_to":"Oklahoma","lat":34.5959265,"lng":-92.4890469,"hometown_city":"Bryant","hometown_state":"AR"},{"name":"Manny Lewis","year":2026,"position":"Edge","stars":3,"rating_247":88.0,"committed_to":"Appalachian State","lat":34.9362535,"lng":-80.75079198523316,"hometown_city":"Waxhaw","hometown_state":"NC"},{"name":"James Tilus","year":2026,"position":"Edge","stars":3,"rating_247":87.0,"committed_to":"UConn","lat":28.10708845,"lng":-81.80358011667643,"hometown_city":"Auburndale","hometown_state":"FL"},{"name":"Viliami Tapa'atoutai","year":2026,"position":"Edge","stars":3,"rating_247":86.0,"committed_to":"Utah State","lat":40.8716964,"lng":-111.8925775,"hometown_city":"Woods Cross","hometown_state":"UT"},{"name":"Mikhal Johnson","year":2026,"position":"Edge","stars":3,"rating_247":86.0,"committed_to":"Harvard","lat":34.2595715,"lng":-118.6023247,"hometown_city":"Chatsworth","hometown_state":"CA"},{"name":"Adel Dorr","year":2026,"position":"Edge","stars":3,"rating_247":86.0,"committed_to":"Oregon State","lat":47.5348778,"lng":-122.0432974,"hometown_city":"Issaquah","hometown_state":"WA"},{"name":"JR Hardrick","year":2026,"position":"Edge","stars":3,"rating_247":86.0,"committed_to":"Clemson","lat":35.0122635,"lng":-85.7058445,"hometown_city":"South Pittsburg","hometown_state":"TN"},{"name":"Sager Quinn","year":2026,"position":"Edge","stars":null,"rating_247":85.0,"committed_to":"South Florida","lat":32.6415,"lng":-83.4426,"hometown_city":"Calhoun","hometown_state":"GA"},{"name":"CJ Amobi","year":2026,"position":"Edge","stars":null,"rating_247":85.0,"committed_to":"UMass","lat":40.8781,"lng":-77.7996,"hometown_city":"Drexel Hill","hometown_state":"PA"},{"name":"Ocean Taufa","year":2026,"position":"Edge","stars":3,"rating_247":84.0,"committed_to":"Idaho","lat":36.1672559,"lng":-115.1485163,"hometown_city":"Las Vegas","hometown_state":"NV"},{"name":"Benjamin Honebein","year":2026,"position":"Edge","stars":3,"rating_247":84.0,"committed_to":"UC Davis","lat":21.394833,"lng":-157.72989134661873,"hometown_city":"Kailua","hometown_state":"HI"},{"name":"Harvie Moeai","year":2026,"position":"Edge","stars":3,"rating_247":84.0,"committed_to":"Arizona","lat":40.3880902,"lng":-111.8491619,"hometown_city":"Lehi","hometown_state":"UT"},{"name":"Dominic Basrawala","year":2026,"position":"Edge","stars":3,"rating_247":84.0,"committed_to":"Army","lat":35.2272,"lng":-80.843083,"hometown_city":"Charlotte","hometown_state":"NC"},{"name":"Mac Olsen","year":2026,"position":"Edge","stars":3,"rating_247":84.0,"committed_to":"Montana","lat":39.2682951,"lng":-111.6368627,"hometown_city":"Manti","hometown_state":"UT"},{"name":"Quincy Tchikou","year":2026,"position":"Edge","stars":3,"rating_247":83.0,"committed_to":"Rice","lat":29.9691116,"lng":-95.6971686,"hometown_city":"Cypress","hometown_state":"TX"},{"name":"Jordan Ervin","year":2026,"position":"Edge","stars":3,"rating_247":83.0,"committed_to":"Stephen F. Austin","lat":32.1532157,"lng":-94.7993802,"hometown_city":"Henderson","hometown_state":"TX"},{"name":"Cooper Willoughby","year":2026,"position":"Edge","stars":3,"rating_247":83.0,"committed_to":"Fresno State","lat":40.8894611,"lng":-111.8804817,"hometown_city":"Bountiful","hometown_state":"UT"},{"name":"Blaze Jones","year":2026,"position":"Edge","stars":3,"rating_247":83.0,"committed_to":"Air Force","lat":28.5421109,"lng":-81.3790304,"hometown_city":"Orlando","hometown_state":"FL"},{"name":"Darian Hawkins","year":2026,"position":"Edge","stars":null,"rating_247":83.0,"committed_to":"Bowling Green","lat":37.1841,"lng":-119.4696,"hometown_city":"West Hills","hometown_state":"CA"},{"name":"Ian Campbell","year":2026,"position":"Edge","stars":3,"rating_247":82.0,"committed_to":"Navy","lat":41.5263603,"lng":-88.0840212,"hometown_city":"Joliet","hometown_state":"IL"},{"name":"Brody Sieck","year":2026,"position":"Edge","stars":3,"rating_247":82.0,"committed_to":"Air Force","lat":39.613321,"lng":-105.0166498,"hometown_city":"Littleton","hometown_state":"CO"},{"name":"Xander Shaw","year":2026,"position":"Edge","stars":3,"rating_247":82.0,"committed_to":"Air Force","lat":47.1703692,"lng":-122.5962874,"hometown_city":"Steilacoom","hometown_state":"WA"},{"name":"Khalid Feliz","year":2026,"position":"Edge","stars":3,"rating_247":82.0,"committed_to":"Georgia State","lat":28.5421109,"lng":-81.3790304,"hometown_city":"Orlando","hometown_state":"FL"},{"name":"Evan Walker","year":2026,"position":"Edge","stars":3,"rating_247":82.0,"committed_to":"Central Michigan","lat":29.6519684,"lng":-82.3249846,"hometown_city":"Gainesville","hometown_state":"FL"},{"name":"Will Monroe","year":2026,"position":"Edge","stars":3,"rating_247":81.0,"committed_to":"Weber State","lat":39.613321,"lng":-105.0166498,"hometown_city":"Littleton","hometown_state":"CO"},{"name":"Max Mankins","year":2026,"position":"Edge","stars":3,"rating_247":81.0,"committed_to":null,"lat":40.300987649999996,"lng":-74.73737283395636,"hometown_city":"Lawrenceville","hometown_state":"NJ"},{"name":"Aiden Monigold","year":2026,"position":"Edge","stars":null,"rating_247":null,"committed_to":"Air Force","lat":35.5557,"lng":-79.3877,"hometown_city":"Kernersville","hometown_state":"NC"},{"name":"Adrian Morales Jr.","year":2026,"position":"Edge","stars":null,"rating_247":null,"committed_to":"Air Force","lat":28.6305,"lng":-82.4497,"hometown_city":"Hialeah","hometown_state":"FL"},{"name":"AJ Snyder","year":2026,"position":"Edge","stars":null,"rating_247":null,"committed_to":"Youngstown State","lat":40.2862,"lng":-82.7937,"hometown_city":"Youngstown","hometown_state":"OH"},{"name":"Cole Rose","year":2026,"position":"Edge","stars":null,"rating_247":null,"committed_to":"Eastern Kentucky","lat":37.5347,"lng":-85.3021,"hometown_city":"Winchester","hometown_state":"KY"},{"name":"Ryder Garcia","year":2026,"position":"Edge","stars":null,"rating_247":null,"committed_to":"Air Force","lat":31.4757,"lng":-99.3312,"hometown_city":"Denton","hometown_state":"TX"},{"name":"Jae'Lin Battle","year":2026,"position":"DL","stars":4,"rating_247":93.0,"committed_to":"Baylor","lat":35.6571367,"lng":-97.4649038,"hometown_city":"Edmond","hometown_state":"OK"},{"name":"Jayden Curtis","year":2026,"position":"DL","stars":3,"rating_247":88.0,"committed_to":"Ole Miss","lat":30.4112904,"lng":-88.8279165,"hometown_city":"Ocean Springs","hometown_state":"MS"},{"name":"Tre Hoskins","year":2026,"position":"DL","stars":3,"rating_247":88.0,"committed_to":"Northwestern","lat":39.7082498,"lng":-91.3587413,"hometown_city":"Hannibal","hometown_state":"MO"},{"name":"Ben Duncum","year":2026,"position":"DL","stars":3,"rating_247":87.0,"committed_to":"Kentucky","lat":30.2711286,"lng":-97.7436995,"hometown_city":"Austin","hometown_state":"TX"},{"name":"Jack Ziarko","year":2026,"position":"DL","stars":3,"rating_247":87.0,"committed_to":"Michigan State","lat":40.7989522,"lng":-81.3784445,"hometown_city":"Canton","hometown_state":"OH"},{"name":"AJ Westfield","year":2026,"position":"DL","stars":3,"rating_247":87.0,"committed_to":"Tulane","lat":35.1595182,"lng":-84.8766115,"hometown_city":"Cleveland","hometown_state":"TN"},{"name":"Ronald Derrick III","year":2026,"position":"DL","stars":null,"rating_247":86.0,"committed_to":"Northwestern","lat":31.4757,"lng":-99.3312,"hometown_city":"Waco","hometown_state":"TX"},{"name":"Kaden Scherer","year":2026,"position":"DL","stars":3,"rating_247":86.0,"committed_to":"Texas","lat":30.671598,"lng":-97.65500660120435,"hometown_city":"Georgetown","hometown_state":"TX"},{"name":"Nate Fleming","year":2026,"position":"DL","stars":3,"rating_247":86.0,"committed_to":"Vanderbilt","lat":35.925193,"lng":-86.8689365,"hometown_city":"Franklin","hometown_state":"TN"},{"name":"Gavin Neil","year":2026,"position":"DL","stars":3,"rating_247":86.0,"committed_to":"Boston College","lat":41.5062834,"lng":-87.6357079,"hometown_city":"Chicago Heights","hometown_state":"IL"},{"name":"Calvin Lorek","year":2026,"position":"DL","stars":3,"rating_247":85.0,"committed_to":"Northwestern","lat":39.2689562,"lng":-84.2638406,"hometown_city":"Loveland","hometown_state":"OH"},{"name":"Rowan Rupp","year":2026,"position":"DL","stars":3,"rating_247":85.0,"committed_to":"Boise State","lat":43.6086295,"lng":-116.392326,"hometown_city":"Meridian","hometown_state":"ID"},{"name":"Ta'a Malu","year":2026,"position":"DL","stars":3,"rating_247":85.0,"committed_to":"Washington","lat":47.2495798,"lng":-122.4398746,"hometown_city":"Tacoma","hometown_state":"WA"},{"name":"Nick Costa","year":2026,"position":"DL","stars":3,"rating_247":85.0,"committed_to":"Northwestern","lat":39.4917828,"lng":-74.8707243,"hometown_city":"Richland","hometown_state":"NJ"},{"name":"Ryan Westrich","year":2026,"position":"DL","stars":null,"rating_247":84.0,"committed_to":"Western Michigan","lat":44.6243,"lng":-89.9941,"hometown_city":"Bonduel","hometown_state":"WI"},{"name":"Collin Stare","year":2026,"position":"DL","stars":3,"rating_247":84.0,"committed_to":"Central Michigan","lat":40.2101972,"lng":-77.0047276,"hometown_city":"Mechanicsburg","hometown_state":"PA"},{"name":"Jackson Silacci-Jensen","year":2026,"position":"DL","stars":3,"rating_247":83.0,"committed_to":null,"lat":36.6744117,"lng":-121.6550372,"hometown_city":"Salinas","hometown_state":"CA"},{"name":"Federico Cobarubio","year":2026,"position":"DL","stars":null,"rating_247":83.0,"committed_to":"Sacramento State","lat":37.1841,"lng":-119.4696,"hometown_city":"San Jose","hometown_state":"CA"},{"name":"Jeremiah Nonu","year":2026,"position":"DL","stars":3,"rating_247":83.0,"committed_to":"Nevada","lat":47.6038321,"lng":-122.3300624,"hometown_city":"Seattle","hometown_state":"WA"},{"name":"Jesse King","year":2026,"position":"DL","stars":3,"rating_247":83.0,"committed_to":"Utah State","lat":40.2971825,"lng":-111.694943,"hometown_city":"Orem","hometown_state":"UT"},{"name":"Gavin Walden","year":2026,"position":"DL","stars":null,"rating_247":83.0,"committed_to":"Montana State","lat":46.2807,"lng":-94.3053,"hometown_city":"Eden Prairie","hometown_state":"MN"},{"name":"MacGregor Byers","year":2026,"position":"DL","stars":3,"rating_247":82.0,"committed_to":"Wyoming","lat":29.7589382,"lng":-95.3676974,"hometown_city":"Houston","hometown_state":"TX"},{"name":"Noah Frazier","year":2026,"position":"DL","stars":3,"rating_247":82.0,"committed_to":"Delaware","lat":41.4989861,"lng":-72.900658,"hometown_city":"Cheshire","hometown_state":"CT"},{"name":"Eli Richards","year":2026,"position":"DL","stars":null,"rating_247":82.0,"committed_to":"Georgia State","lat":32.6415,"lng":-83.4426,"hometown_city":"Hoschton","hometown_state":"GA"},{"name":"Tanielu Maafala-Barbasa","year":2026,"position":"DL","stars":null,"rating_247":80.0,"committed_to":"Wyoming","lat":39.3289,"lng":-116.6312,"hometown_city":"Las Vegas","hometown_state":"NV"},{"name":"Gavin Blum","year":2026,"position":"DL","stars":null,"rating_247":80.0,"committed_to":"UCLA","lat":37.1841,"lng":-119.4696,"hometown_city":"Mission Viejo","hometown_state":"CA"},{"name":"Jarron Taylor","year":2026,"position":"DL","stars":null,"rating_247":null,"committed_to":null,"lat":39.8942,"lng":-86.2816,"hometown_city":"Fort Wayne","hometown_state":"IN"},{"name":"Jackson Pahl","year":2026,"position":"DL","stars":null,"rating_247":null,"committed_to":"Air Force","lat":44.3467,"lng":-85.4102,"hometown_city":"Howell","hometown_state":"MI"},{"name":"Sione Fanaika","year":2026,"position":"DL","stars":null,"rating_247":null,"committed_to":null,"lat":37.1841,"lng":-119.4696,"hometown_city":"San Francisco","hometown_state":"CA"},{"name":"Jazear Carter","year":2026,"position":"DL","stars":null,"rating_247":null,"committed_to":"Navy","lat":32.7364,"lng":-89.6678,"hometown_city":"Gulfport","hometown_state":"MS"},{"name":"Thor Myklebust","year":2026,"position":"DL","stars":null,"rating_247":null,"committed_to":"Air Force","lat":31.4757,"lng":-99.3312,"hometown_city":"San Antonio","hometown_state":"TX"},{"name":"Kolton Dearth","year":2026,"position":"DL","stars":null,"rating_247":null,"committed_to":"Army","lat":31.4757,"lng":-99.3312,"hometown_city":"Stephenville","hometown_state":"TX"},{"name":"Jackson Lang","year":2026,"position":"DL","stars":null,"rating_247":null,"committed_to":null,"lat":31.4757,"lng":-99.3312,"hometown_city":"Austin","hometown_state":"TX"},{"name":"Trenton Marshall","year":2026,"position":"DL","stars":null,"rating_247":null,"committed_to":null,"lat":31.4757,"lng":-99.3312,"hometown_city":"Spring","hometown_state":"TX"},{"name":"Ryan Gately","year":2026,"position":"DL","stars":null,"rating_247":null,"committed_to":"Air Force","lat":41.6219,"lng":-72.7273,"hometown_city":"Darien","hometown_state":"CT"},{"name":"Bruce Roberts","year":2026,"position":"DL","stars":null,"rating_247":null,"committed_to":"Army","lat":35.5889,"lng":-97.4943,"hometown_city":"Edmond","hometown_state":"OK"},{"name":"Braxton Rembert","year":2026,"position":"LB","stars":4,"rating_247":91.0,"committed_to":"Ohio State","lat":34.096496,"lng":-83.7612839,"hometown_city":"Hoschton","hometown_state":"GA"},{"name":"Monroe Partin","year":2026,"position":"LB","stars":3,"rating_247":89.0,"committed_to":"Wake Forest","lat":30.6035255,"lng":-87.9036047,"hometown_city":"Daphne","hometown_state":"AL"},{"name":"Barry Fries","year":2026,"position":"LB","stars":3,"rating_247":87.0,"committed_to":"South Dakota State","lat":41.2587459,"lng":-95.9383758,"hometown_city":"Omaha","hometown_state":"NE"},{"name":"Jase Reynolds","year":2026,"position":"LB","stars":3,"rating_247":86.0,"committed_to":"Nebraska","lat":41.2587459,"lng":-95.9383758,"hometown_city":"Omaha","hometown_state":"NE"},{"name":"Brady Ballart","year":2026,"position":"LB","stars":null,"rating_247":86.0,"committed_to":"Louisville","lat":39.8942,"lng":-86.2816,"hometown_city":"Aurora","hometown_state":"IN"},{"name":"Matthew Occhipinti","year":2026,"position":"LB","stars":3,"rating_247":86.0,"committed_to":"UCF","lat":41.0573188,"lng":-74.1409771,"hometown_city":"Ramsey","hometown_state":"NJ"},{"name":"Amare Jordan","year":2026,"position":"LB","stars":3,"rating_247":86.0,"committed_to":"Northwestern","lat":30.5217116,"lng":-97.827833,"hometown_city":"Cedar Park","hometown_state":"TX"},{"name":"Tyler Covar","year":2026,"position":"LB","stars":3,"rating_247":86.0,"committed_to":"Houston","lat":30.2093794,"lng":-95.7507815,"hometown_city":"Magnolia","hometown_state":"TX"},{"name":"Josiah Perry","year":2026,"position":"LB","stars":3,"rating_247":84.0,"committed_to":"James Madison","lat":38.7890522,"lng":-77.1870368,"hometown_city":"Springfield","hometown_state":"VA"},{"name":"Bryson Flynn","year":2026,"position":"LB","stars":3,"rating_247":84.0,"committed_to":"Washington State","lat":29.5639758,"lng":-95.2864299,"hometown_city":"Pearland","hometown_state":"TX"},{"name":"Harrison Kidder","year":2026,"position":"LB","stars":null,"rating_247":84.0,"committed_to":"Louisiana","lat":31.0689,"lng":-91.9968,"hometown_city":"Baton Rouge","hometown_state":"LA"},{"name":"Josh Faraimo","year":2026,"position":"LB","stars":3,"rating_247":84.0,"committed_to":"Colgate","lat":32.7174209,"lng":-117.1627714,"hometown_city":"San Diego","hometown_state":"CA"},{"name":"Ayden Combs","year":2026,"position":"LB","stars":3,"rating_247":84.0,"committed_to":"Louisiana Tech","lat":29.9691116,"lng":-95.6971686,"hometown_city":"Cypress","hometown_state":"TX"},{"name":"Donnie Vercher III","year":2026,"position":"LB","stars":3,"rating_247":83.0,"committed_to":"UC Davis","lat":45.5202471,"lng":-122.6741949,"hometown_city":"Portland","hometown_state":"OR"},{"name":"Xavious Anderson Jr.","year":2026,"position":"LB","stars":null,"rating_247":83.0,"committed_to":"South Alabama","lat":32.6415,"lng":-83.4426,"hometown_city":"Hogansville","hometown_state":"GA"},{"name":"CJ Mooring","year":2026,"position":"LB","stars":3,"rating_247":82.0,"committed_to":"Nevada","lat":30.2711286,"lng":-97.7436995,"hometown_city":"Austin","hometown_state":"TX"},{"name":"Talan Babin","year":2026,"position":"LB","stars":3,"rating_247":81.0,"committed_to":"Old Dominion","lat":30.2396865,"lng":-81.3856384,"hometown_city":"Ponte Vedra Beach","hometown_state":"FL"},{"name":"Nate Appleget","year":2026,"position":"LB","stars":null,"rating_247":null,"committed_to":"North Dakota","lat":41.5378,"lng":-99.7951,"hometown_city":"Lincoln","hometown_state":"NE"},{"name":"Brendan Foley","year":2026,"position":"LB","stars":null,"rating_247":null,"committed_to":"Army","lat":44.6243,"lng":-89.9941,"hometown_city":"Hartland","hometown_state":"WI"},{"name":"Kene Obi","year":2026,"position":"LB","stars":null,"rating_247":null,"committed_to":"Vanderbilt","lat":40.2862,"lng":-82.7937,"hometown_city":"Gates Mills","hometown_state":"OH"},{"name":"Cal Purvis","year":2026,"position":"LB","stars":null,"rating_247":null,"committed_to":null,"lat":38.4937,"lng":-98.3804,"hometown_city":"Wichita","hometown_state":"KS"},{"name":"Clint Stover","year":2026,"position":"LB","stars":null,"rating_247":null,"committed_to":"Navy","lat":40.2862,"lng":-82.7937,"hometown_city":"Sunbury","hometown_state":"OH"},{"name":"Henry Newton","year":2026,"position":"LB","stars":null,"rating_247":null,"committed_to":"Air Force","lat":40.0417,"lng":-89.1965,"hometown_city":"Wilmette","hometown_state":"IL"},{"name":"Parker Maiers","year":2026,"position":"LB","stars":null,"rating_247":null,"committed_to":"Dartmouth","lat":39.8942,"lng":-86.2816,"hometown_city":"Indianapolis","hometown_state":"IN"},{"name":"Ryder Skanson","year":2026,"position":"LB","stars":null,"rating_247":null,"committed_to":"Air Force","lat":46.2807,"lng":-94.3053,"hometown_city":"Osseo","hometown_state":"MN"},{"name":"Luke Karras","year":2026,"position":"LB","stars":null,"rating_247":null,"committed_to":"Indiana State","lat":40.0417,"lng":-89.1965,"hometown_city":"Casey","hometown_state":"IL"},{"name":"Mason Claus","year":2026,"position":"LB","stars":null,"rating_247":null,"committed_to":"South Dakota","lat":42.0751,"lng":-93.496,"hometown_city":"Keokuk","hometown_state":"IA"},{"name":"Reed Ezell","year":2026,"position":"LB","stars":null,"rating_247":null,"committed_to":"Air Force","lat":32.6415,"lng":-83.4426,"hometown_city":"Cartersville","hometown_state":"GA"},{"name":"Cole Higby","year":2026,"position":"LB","stars":null,"rating_247":null,"committed_to":"Army","lat":31.4757,"lng":-99.3312,"hometown_city":"Austin","hometown_state":"TX"},{"name":"Deion Miller","year":2026,"position":"LB","stars":null,"rating_247":null,"committed_to":"Army","lat":32.6415,"lng":-83.4426,"hometown_city":"Buford","hometown_state":"GA"},{"name":"Cohen Grissom","year":2026,"position":"LB","stars":null,"rating_247":null,"committed_to":"Air Force","lat":35.858,"lng":-86.3505,"hometown_city":"Franklin","hometown_state":"TN"},{"name":"Logan Kendall","year":2026,"position":"LB","stars":null,"rating_247":null,"committed_to":null,"lat":31.4757,"lng":-99.3312,"hometown_city":"Austin","hometown_state":"TX"},{"name":"Chance Strown","year":2026,"position":"LB","stars":null,"rating_247":null,"committed_to":"Air Force","lat":32.7794,"lng":-86.8287,"hometown_city":"Alabaster","hometown_state":"AL"},{"name":"Zion Lee","year":2026,"position":"LB","stars":null,"rating_247":null,"committed_to":"Navy","lat":31.0689,"lng":-91.9968,"hometown_city":"Bunkie","hometown_state":"LA"},{"name":"Nick Rivera","year":2026,"position":"LB","stars":null,"rating_247":null,"committed_to":"Air Force","lat":40.2862,"lng":-82.7937,"hometown_city":"Cleveland","hometown_state":"OH"},{"name":"Isaac Shumate","year":2026,"position":"LB","stars":null,"rating_247":null,"committed_to":"Army","lat":31.4757,"lng":-99.3312,"hometown_city":"Splendora","hometown_state":"TX"},{"name":"Brady Kuhn","year":2026,"position":"LB","stars":null,"rating_247":null,"committed_to":"Air Force","lat":40.2862,"lng":-82.7937,"hometown_city":"Cincinnati","hometown_state":"OH"},{"name":"Miles Sanderson","year":2026,"position":"LB","stars":null,"rating_247":null,"committed_to":"BYU","lat":37.5215,"lng":-78.8537,"hometown_city":"Saint Paul","hometown_state":"VA"},{"name":"Azel Banag","year":2026,"position":"CB","stars":3,"rating_247":92.0,"committed_to":"Oregon","lat":34.0007493,"lng":-81.0343313,"hometown_city":"Columbia","hometown_state":"SC"},{"name":"Zach Taylor","year":2026,"position":"CB","stars":null,"rating_247":89.0,"committed_to":"TCU","lat":31.4757,"lng":-99.3312,"hometown_city":"Fulshear","hometown_state":"TX"},{"name":"Paul Risper","year":2026,"position":"CB","stars":null,"rating_247":88.0,"committed_to":"Arkansas State","lat":32.6415,"lng":-83.4426,"hometown_city":"Macon","hometown_state":"GA"},{"name":"Ahmod Billins","year":2026,"position":"CB","stars":3,"rating_247":87.0,"committed_to":"Missouri","lat":31.5718352,"lng":-85.2504893,"hometown_city":"Abbeville","hometown_state":"AL"},{"name":"Jaden Vaughn","year":2026,"position":"CB","stars":3,"rating_247":86.0,"committed_to":"Northwestern","lat":29.9691116,"lng":-95.6971686,"hometown_city":"Cypress","hometown_state":"TX"},{"name":"Garrick Dixon","year":2026,"position":"CB","stars":3,"rating_247":86.0,"committed_to":"Kansas State","lat":38.7910374,"lng":-90.7039107,"hometown_city":"O'Fallon","hometown_state":"MO"},{"name":"Jaxon Penn","year":2026,"position":"CB","stars":3,"rating_247":85.0,"committed_to":"Troy","lat":34.79981,"lng":-87.677251,"hometown_city":"Florence","hometown_state":"AL"},{"name":"Xavier Rivera-Rogers","year":2026,"position":"CB","stars":null,"rating_247":84.0,"committed_to":"New Mexico","lat":34.2744,"lng":-111.6602,"hometown_city":"Chandler","hometown_state":"AZ"},{"name":"Christian Davis","year":2026,"position":"CB","stars":3,"rating_247":83.0,"committed_to":"North Dakota","lat":33.8358492,"lng":-118.3406288,"hometown_city":"Torrance","hometown_state":"CA"},{"name":"Amare Mack","year":2026,"position":"CB","stars":3,"rating_247":83.0,"committed_to":"East Carolina","lat":30.3321838,"lng":-81.655651,"hometown_city":"Jacksonville","hometown_state":"FL"},{"name":"Zay West","year":2026,"position":"CB","stars":null,"rating_247":83.0,"committed_to":"FIU","lat":28.6305,"lng":-82.4497,"hometown_city":"Madison","hometown_state":"FL"},{"name":"Rukevwe Eruvwetaghware","year":2026,"position":"CB","stars":3,"rating_247":83.0,"committed_to":"Arkansas State","lat":33.0151201,"lng":-96.5388789,"hometown_city":"Wylie","hometown_state":"TX"},{"name":"Malachi Igharo","year":2026,"position":"CB","stars":3,"rating_247":82.0,"committed_to":"Columbia","lat":30.1902067,"lng":-98.0866781,"hometown_city":"Dripping Springs","hometown_state":"TX"},{"name":"Xzavier Webber","year":2026,"position":"CB","stars":3,"rating_247":80.0,"committed_to":"Austin Peay","lat":33.4956744,"lng":-88.4272627,"hometown_city":"Columbus","hometown_state":"MS"},{"name":"Darren Jackson","year":2026,"position":"CB","stars":null,"rating_247":null,"committed_to":"Navy","lat":40.8781,"lng":-77.7996,"hometown_city":"Lansdale","hometown_state":"PA"},{"name":"Travon Chardonet","year":2026,"position":"CB","stars":null,"rating_247":null,"committed_to":"Holy Cross","lat":40.1907,"lng":-74.6728,"hometown_city":"Montvale","hometown_state":"NJ"},{"name":"Jordan Davis","year":2026,"position":"S","stars":3,"rating_247":88.0,"committed_to":"Baylor","lat":26.0112014,"lng":-80.1494901,"hometown_city":"Hollywood","hometown_state":"FL"},{"name":"Christian Askew","year":2026,"position":"S","stars":null,"rating_247":87.0,"committed_to":"Penn State","lat":32.6415,"lng":-83.4426,"hometown_city":"Kathleen","hometown_state":"GA"},{"name":"Matthew Mason","year":2026,"position":"S","stars":3,"rating_247":87.0,"committed_to":"BYU","lat":36.1672559,"lng":-115.1485163,"hometown_city":"Las Vegas","hometown_state":"NV"},{"name":"Tyson Sanford","year":2026,"position":"S","stars":3,"rating_247":87.0,"committed_to":"Duke","lat":34.0514898,"lng":-84.0712997,"hometown_city":"Suwanee","hometown_state":"GA"},{"name":"Jayden Ballard","year":2026,"position":"S","stars":3,"rating_247":87.0,"committed_to":"West Virginia","lat":37.5062673,"lng":-77.649268,"hometown_city":"Midlothian","hometown_state":"VA"},{"name":"Brady Hummel","year":2026,"position":"S","stars":3,"rating_247":87.0,"committed_to":"Iowa State","lat":39.5404679,"lng":-119.7487235,"hometown_city":"Sparks","hometown_state":"NV"},{"name":"Kolby Barrett","year":2026,"position":"S","stars":3,"rating_247":86.0,"committed_to":"Mississippi State","lat":35.0457219,"lng":-85.3094883,"hometown_city":"Chattanooga","hometown_state":"TN"},{"name":"Carter Langenderfer","year":2026,"position":"S","stars":3,"rating_247":86.0,"committed_to":"Tulsa","lat":36.2661536,"lng":-95.8549456,"hometown_city":"Owasso","hometown_state":"OK"},{"name":"Kane White-Tinsley","year":2026,"position":"S","stars":3,"rating_247":86.0,"committed_to":"UTEP","lat":34.9798392,"lng":-101.9193395,"hometown_city":"Canyon","hometown_state":"TX"},{"name":"Knight Wilson","year":2026,"position":"S","stars":3,"rating_247":86.0,"committed_to":"Air Force","lat":35.925193,"lng":-86.8689365,"hometown_city":"Franklin","hometown_state":"TN"},{"name":"Lawrence Moton","year":2026,"position":"S","stars":null,"rating_247":86.0,"committed_to":"Tulane","lat":32.6415,"lng":-83.4426,"hometown_city":"Perry","hometown_state":"GA"},{"name":"Rocky Dunn","year":2026,"position":"S","stars":3,"rating_247":85.0,"committed_to":"Boise State","lat":33.2860549,"lng":-96.5725952,"hometown_city":"Melissa","hometown_state":"TX"},{"name":"Caleb Carson","year":2026,"position":"S","stars":3,"rating_247":85.0,"committed_to":"Stanford","lat":33.3870578,"lng":-84.2829784,"hometown_city":"Hampton","hometown_state":"GA"},{"name":"Justus Donahoo","year":2026,"position":"S","stars":3,"rating_247":84.0,"committed_to":"Northern Illinois","lat":30.5168639,"lng":-86.482172,"hometown_city":"Niceville","hometown_state":"FL"},{"name":"Seth Brown","year":2026,"position":"S","stars":null,"rating_247":84.0,"committed_to":"Rice","lat":32.6415,"lng":-83.4426,"hometown_city":"Valdosta","hometown_state":"GA"},{"name":"Chaz Katoanga","year":2026,"position":"S","stars":3,"rating_247":83.0,"committed_to":"Portland State","lat":45.428679,"lng":-122.4971747,"hometown_city":"Happy Valley","hometown_state":"OR"},{"name":"Marco Beltran Jr.","year":2026,"position":"S","stars":null,"rating_247":83.0,"committed_to":"New Mexico","lat":31.4757,"lng":-99.3312,"hometown_city":"The Woodlands","hometown_state":"TX"},{"name":"Max Haertel","year":2026,"position":"S","stars":null,"rating_247":82.0,"committed_to":"Georgia Southern","lat":32.6415,"lng":-83.4426,"hometown_city":"Cumming","hometown_state":"GA"},{"name":"Levi Grigson","year":2026,"position":"S","stars":null,"rating_247":null,"committed_to":"Air Force","lat":46.2807,"lng":-94.3053,"hometown_city":"Maplewood","hometown_state":"MN"},{"name":"Rishon Postell","year":2026,"position":"S","stars":null,"rating_247":null,"committed_to":"Elon","lat":32.6415,"lng":-83.4426,"hometown_city":"Hampton","hometown_state":"GA"},{"name":"Andruw Gist","year":2026,"position":"S","stars":null,"rating_247":null,"committed_to":null,"lat":32.6415,"lng":-83.4426,"hometown_city":"Suwanee","hometown_state":"GA"},{"name":"Jalaal Abdullah","year":2026,"position":"S","stars":null,"rating_247":null,"committed_to":"Yale","lat":31.4757,"lng":-99.3312,"hometown_city":"Frisco","hometown_state":"TX"},{"name":"Ethan Washington","year":2026,"position":"S","stars":null,"rating_247":null,"committed_to":"Yale","lat":31.4757,"lng":-99.3312,"hometown_city":"Missouri City","hometown_state":"TX"},{"name":"Christopher Martin","year":2026,"position":"S","stars":null,"rating_247":null,"committed_to":"Navy","lat":38.9101,"lng":-77.0147,"hometown_city":"Washington","hometown_state":"DC"},{"name":"Tanner Covar","year":2026,"position":"S","stars":null,"rating_247":null,"committed_to":"Houston","lat":31.4757,"lng":-99.3312,"hometown_city":"Magnolia","hometown_state":"TX"},{"name":"Austin Olivas","year":2026,"position":"S","stars":null,"rating_247":null,"committed_to":"Harvard","lat":31.4757,"lng":-99.3312,"hometown_city":"Seminole","hometown_state":"TX"},{"name":"Jamine Solomon","year":2026,"position":"S","stars":null,"rating_247":null,"committed_to":"Air Force","lat":32.6415,"lng":-83.4426,"hometown_city":"Marietta","hometown_state":"GA"},{"name":"Colton Lauffer","year":2026,"position":"S","stars":null,"rating_247":null,"committed_to":"Southern Utah","lat":34.2744,"lng":-111.6602,"hometown_city":"Glendale","hometown_state":"AZ"},{"name":"Bryson Hughley","year":2026,"position":"S","stars":null,"rating_247":null,"committed_to":"Air Force","lat":32.6415,"lng":-83.4426,"hometown_city":"Fort Valley","hometown_state":"GA"},{"name":"Jaden McDuffie","year":2026,"position":"ATH","stars":4,"rating_247":90.0,"committed_to":"Northwestern","lat":38.9358105,"lng":-76.55301414304145,"hometown_city":"Edgewater","hometown_state":"MD"},{"name":"Tom McGlinchey","year":2026,"position":"ATH","stars":3,"rating_247":89.0,"committed_to":"Northwestern","lat":39.9527237,"lng":-75.1635262,"hometown_city":"Philadelphia","hometown_state":"PA"},{"name":"Luke Thompson","year":2026,"position":"ATH","stars":3,"rating_247":88.0,"committed_to":"Tennessee","lat":35.925193,"lng":-86.8689365,"hometown_city":"Franklin","hometown_state":"TN"},{"name":"Jett Goldsberry","year":2026,"position":"ATH","stars":3,"rating_247":88.0,"committed_to":"Purdue","lat":38.1211634,"lng":-86.9986077,"hometown_city":"Lincoln City","hometown_state":"IN"},{"name":"Isaac Nelson","year":2026,"position":"ATH","stars":3,"rating_247":87.0,"committed_to":"Wake Forest","lat":39.7683331,"lng":-86.1583502,"hometown_city":"Indianapolis","hometown_state":"IN"},{"name":"Sam Vyhlidal","year":2026,"position":"ATH","stars":3,"rating_247":87.0,"committed_to":"Washington","lat":45.4206749,"lng":-122.6706498,"hometown_city":"Lake Oswego","hometown_state":"OR"},{"name":"Matthew McClain","year":2026,"position":"ATH","stars":3,"rating_247":86.0,"committed_to":"Iowa State","lat":33.1506744,"lng":-96.8236116,"hometown_city":"Frisco","hometown_state":"TX"},{"name":"Jaydon Sutko","year":2026,"position":"ATH","stars":3,"rating_247":86.0,"committed_to":"Fresno State","lat":41.2587459,"lng":-95.9383758,"hometown_city":"Omaha","hometown_state":"NE"},{"name":"Tim Sims","year":2026,"position":"ATH","stars":3,"rating_247":86.0,"committed_to":"Memphis","lat":33.3870578,"lng":-84.2829784,"hometown_city":"Hampton","hometown_state":"GA"},{"name":"Keaton Reinke","year":2026,"position":"ATH","stars":3,"rating_247":86.0,"committed_to":"Northwestern","lat":41.9139509,"lng":-88.31253,"hometown_city":"St. Charles","hometown_state":"IL"},{"name":"Graham Faust","year":2026,"position":"ATH","stars":null,"rating_247":85.0,"committed_to":"Missouri","lat":38.3566,"lng":-92.458,"hometown_city":"St. Louis","hometown_state":"MO"},{"name":"Tanner West","year":2026,"position":"ATH","stars":3,"rating_247":85.0,"committed_to":"Kansas State","lat":29.690292,"lng":-95.8996261,"hometown_city":"Fulshear","hometown_state":"TX"},{"name":"Wes Burford","year":2026,"position":"ATH","stars":3,"rating_247":85.0,"committed_to":"Air Force","lat":37.787351349999994,"lng":-120.81972543130206,"hometown_city":"Oakdale","hometown_state":"CA"},{"name":"Ronald Wilder","year":2026,"position":"ATH","stars":3,"rating_247":85.0,"committed_to":"Troy","lat":32.8406848,"lng":-87.8875144,"hometown_city":"Eutaw","hometown_state":"AL"},{"name":"Jacob Swain","year":2026,"position":"ATH","stars":null,"rating_247":84.0,"committed_to":"Colorado","lat":31.4757,"lng":-99.3312,"hometown_city":"Melissa","hometown_state":"TX"},{"name":"Cedric Ross","year":2026,"position":"ATH","stars":3,"rating_247":84.0,"committed_to":"Colorado State","lat":33.5635206,"lng":-101.879336,"hometown_city":"Lubbock","hometown_state":"TX"},{"name":"Caton Cramer","year":2026,"position":"ATH","stars":3,"rating_247":84.0,"committed_to":"Air Force","lat":32.7189926,"lng":-102.6449101,"hometown_city":"Seminole","hometown_state":"TX"},{"name":"Paul Holland","year":2026,"position":"ATH","stars":3,"rating_247":84.0,"committed_to":"Cal Poly","lat":36.7295295,"lng":-119.70886126075588,"hometown_city":"Fresno","hometown_state":"CA"},{"name":"Godson Rufus-Okomhanru","year":2026,"position":"ATH","stars":null,"rating_247":84.0,"committed_to":"North Dakota State","lat":46.2807,"lng":-94.3053,"hometown_city":"Saint Paul","hometown_state":"MN"},{"name":"Brayden Dozier","year":2026,"position":"ATH","stars":3,"rating_247":84.0,"committed_to":"North Dakota State","lat":45.11715785,"lng":-93.39877096552499,"hometown_city":"Osseo","hometown_state":"MN"},{"name":"Michael Farr","year":2026,"position":"ATH","stars":3,"rating_247":84.0,"committed_to":"South Dakota State","lat":42.7260523,"lng":-87.7825242,"hometown_city":"Racine","hometown_state":"WI"},{"name":"Lucas Hoffmeyer","year":2026,"position":"ATH","stars":3,"rating_247":84.0,"committed_to":"Central Michigan","lat":42.537811,"lng":-83.4810481,"hometown_city":"Walled Lake","hometown_state":"MI"},{"name":"Jhadis Luckey","year":2026,"position":"ATH","stars":3,"rating_247":83.0,"committed_to":"Fresno State","lat":37.7799273,"lng":-121.9780153,"hometown_city":"San Ramon","hometown_state":"CA"},{"name":"Braylon Toliver","year":2026,"position":"ATH","stars":3,"rating_247":83.0,"committed_to":"North Dakota State","lat":40.0146297,"lng":-105.10395109684542,"hometown_city":"Erie","hometown_state":"CO"},{"name":"Ryken Banks","year":2026,"position":"ATH","stars":3,"rating_247":83.0,"committed_to":"Wyoming","lat":39.5184514,"lng":-104.7612638,"hometown_city":"Parker","hometown_state":"CO"},{"name":"Jack Tuenge","year":2026,"position":"ATH","stars":3,"rating_247":83.0,"committed_to":"Harvard","lat":45.5202471,"lng":-122.6741949,"hometown_city":"Portland","hometown_state":"OR"},{"name":"Jamarcus Harrison","year":2026,"position":"ATH","stars":3,"rating_247":83.0,"committed_to":"Kennesaw State","lat":34.2978794,"lng":-83.8240663,"hometown_city":"Gainesville","hometown_state":"GA"},{"name":"Damian Horace","year":2026,"position":"ATH","stars":3,"rating_247":82.0,"committed_to":"Air Force","lat":30.3118769,"lng":-95.4560512,"hometown_city":"Conroe","hometown_state":"TX"},{"name":"Brycen Landry","year":2026,"position":"ATH","stars":3,"rating_247":82.0,"committed_to":null,"lat":37.9357576,"lng":-122.3477486,"hometown_city":"Richmond","hometown_state":"CA"},{"name":"Carter Dahlke","year":2026,"position":"ATH","stars":3,"rating_247":82.0,"committed_to":"Montana State","lat":45.6794293,"lng":-111.0440474,"hometown_city":"Bozeman","hometown_state":"MT"},{"name":"Landon Kalsbeck","year":2026,"position":"ATH","stars":3,"rating_247":82.0,"committed_to":"Iowa State","lat":39.613321,"lng":-105.0166498,"hometown_city":"Littleton","hometown_state":"CO"},{"name":"David Chiavegato","year":2026,"position":"ATH","stars":3,"rating_247":82.0,"committed_to":"UMass","lat":42.2139873,"lng":-71.2244987,"hometown_city":"Westwood","hometown_state":"MA"},{"name":"Mason Manning","year":2026,"position":"ATH","stars":null,"rating_247":82.0,"committed_to":"Lamar","lat":31.4757,"lng":-99.3312,"hometown_city":"Orange","hometown_state":"TX"},{"name":"Elias Bonner","year":2026,"position":"ATH","stars":3,"rating_247":81.0,"committed_to":"Montana State","lat":45.7874957,"lng":-108.49607,"hometown_city":"Billings","hometown_state":"MT"},{"name":"Bo Ausmus","year":2026,"position":"ATH","stars":3,"rating_247":81.0,"committed_to":"Fresno State","lat":33.8455911,"lng":-118.3886766,"hometown_city":"Redondo Beach","hometown_state":"CA"},{"name":"Grant Barr","year":2026,"position":"ATH","stars":null,"rating_247":null,"committed_to":"Albany","lat":40.2862,"lng":-82.7937,"hometown_city":"Avon","hometown_state":"OH"},{"name":"Levi Harris","year":2026,"position":"ATH","stars":null,"rating_247":null,"committed_to":"South Dakota","lat":46.2807,"lng":-94.3053,"hometown_city":"Elk River","hometown_state":"MN"},{"name":"Rocco De La Rosa","year":2026,"position":"ATH","stars":null,"rating_247":null,"committed_to":"Oregon State","lat":43.9336,"lng":-120.5583,"hometown_city":"Philomath","hometown_state":"OR"},{"name":"Braylon Johnson","year":2026,"position":"ATH","stars":null,"rating_247":null,"committed_to":"Air Force","lat":31.4757,"lng":-99.3312,"hometown_city":"Falls City","hometown_state":"TX"},{"name":"Thompson Bennett","year":2026,"position":"ATH","stars":null,"rating_247":null,"committed_to":null,"lat":31.4757,"lng":-99.3312,"hometown_city":"Austin","hometown_state":"TX"},{"name":"Jaxon Paulsrud","year":2026,"position":"ATH","stars":null,"rating_247":null,"committed_to":null,"lat":42.0751,"lng":-93.496,"hometown_city":"Cherokee","hometown_state":"IA"},{"name":"Mickell Smith","year":2026,"position":"ATH","stars":null,"rating_247":null,"committed_to":null,"lat":32.7364,"lng":-89.6678,"hometown_city":"Flowood","hometown_state":"MS"},{"name":"Lukas Boman","year":2026,"position":"ATH","stars":null,"rating_247":null,"committed_to":"Ferris State","lat":44.3467,"lng":-85.4102,"hometown_city":"Clarkston","hometown_state":"MI"},{"name":"Clinton Lee","year":2026,"position":"ATH","stars":null,"rating_247":null,"committed_to":"Navy","lat":39.055,"lng":-76.7909,"hometown_city":"Middletown","hometown_state":"MD"},{"name":"Dayton Gaius-Anyaegbu","year":2026,"position":"ATH","stars":null,"rating_247":null,"committed_to":"Army","lat":41.5378,"lng":-99.7951,"hometown_city":"Omaha","hometown_state":"NE"},{"name":"Ethan Headings","year":2026,"position":"ATH","stars":null,"rating_247":null,"committed_to":"North Dakota","lat":42.0751,"lng":-93.496,"hometown_city":"Iowa City","hometown_state":"IA"},{"name":"Finn Grimstad","year":2026,"position":"ATH","stars":null,"rating_247":null,"committed_to":null,"lat":37.1841,"lng":-119.4696,"hometown_city":"Newport Beach","hometown_state":"CA"},{"name":"Quinn Street","year":2026,"position":"ATH","stars":null,"rating_247":null,"committed_to":"Northern Iowa","lat":42.0751,"lng":-93.496,"hometown_city":"Osage","hometown_state":"IA"},{"name":"Brayden DeVito","year":2026,"position":"ATH","stars":null,"rating_247":null,"committed_to":"Air Force","lat":40.2862,"lng":-82.7937,"hometown_city":"Shelby","hometown_state":"OH"},{"name":"Calix Lemp","year":2026,"position":"ATH","stars":null,"rating_247":null,"committed_to":"Air Force","lat":40.2862,"lng":-82.7937,"hometown_city":"Wadsworth","hometown_state":"OH"},{"name":"Kole Fager","year":2026,"position":"ATH","stars":null,"rating_247":null,"committed_to":"Princeton","lat":40.0417,"lng":-89.1965,"hometown_city":"Palatine","hometown_state":"IL"},{"name":"Jeremiah Peterson-Gordon","year":2026,"position":"ATH","stars":null,"rating_247":null,"committed_to":"St. Thomas","lat":46.2807,"lng":-94.3053,"hometown_city":"Kasson","hometown_state":"MN"},{"name":"Brenden Logan","year":2026,"position":"ATH","stars":null,"rating_247":null,"committed_to":"Air Force","lat":31.4757,"lng":-99.3312,"hometown_city":"Killeen","hometown_state":"TX"},{"name":"Garrison Edwards","year":2026,"position":"ATH","stars":null,"rating_247":null,"committed_to":"Navy","lat":32.6415,"lng":-83.4426,"hometown_city":"LaGrange","hometown_state":"GA"},{"name":"Caleb Wiggins","year":2026,"position":"ATH","stars":null,"rating_247":null,"committed_to":"Air Force","lat":32.6415,"lng":-83.4426,"hometown_city":"McDonough","hometown_state":"GA"},{"name":"Isaiah Watson","year":2026,"position":"ATH","stars":null,"rating_247":null,"committed_to":null,"lat":38.9972,"lng":-105.5478,"hometown_city":"Aurora","hometown_state":"CO"},{"name":"Cordell Jones","year":2026,"position":"ATH","stars":null,"rating_247":null,"committed_to":"Maine","lat":45.3695,"lng":-69.2428,"hometown_city":"Portland","hometown_state":"ME"},{"name":"Chase Markowicz","year":2026,"position":"ATH","stars":null,"rating_247":null,"committed_to":"Illinois State","lat":40.0417,"lng":-89.1965,"hometown_city":"New Lenox","hometown_state":"IL"},{"name":"JP Abrew","year":2026,"position":"ATH","stars":null,"rating_247":null,"committed_to":null,"lat":37.1841,"lng":-119.4696,"hometown_city":"Manteca","hometown_state":"CA"},{"name":"Cayden Alula","year":2026,"position":"ATH","stars":null,"rating_247":null,"committed_to":"Navy","lat":28.6305,"lng":-82.4497,"hometown_city":"Jupiter","hometown_state":"FL"},{"name":"Stryker Reed","year":2026,"position":"ATH","stars":null,"rating_247":null,"committed_to":"Air Force","lat":31.4757,"lng":-99.3312,"hometown_city":"Gordon","hometown_state":"TX"},{"name":"Brock Chilton","year":2026,"position":"ATH","stars":null,"rating_247":null,"committed_to":"Air Force","lat":31.4757,"lng":-99.3312,"hometown_city":"Austin","hometown_state":"TX"},{"name":"Jeremy Seidi","year":2026,"position":"ATH","stars":null,"rating_247":null,"committed_to":"Army","lat":41.6762,"lng":-71.5562,"hometown_city":"Warwick","hometown_state":"RI"},{"name":"Ry Reed","year":2026,"position":"ATH","stars":null,"rating_247":null,"committed_to":"Army","lat":31.4757,"lng":-99.3312,"hometown_city":"Gordon","hometown_state":"TX"},{"name":"Micah Drescher","year":2026,"position":"K","stars":3,"rating_247":80.0,"committed_to":"Notre Dame","lat":41.794528,"lng":-87.92761808245767,"hometown_city":"Hinsdale","hometown_state":"IL"},{"name":"Cole Bowers","year":2026,"position":"K","stars":null,"rating_247":null,"committed_to":"Army","lat":40.2862,"lng":-82.7937,"hometown_city":"Steubenville","hometown_state":"OH"},{"name":"Wade Register","year":2026,"position":"P","stars":3,"rating_247":83.0,"committed_to":"Georgia","lat":32.5404447,"lng":-82.903754,"hometown_city":"Dublin","hometown_state":"GA"},{"name":"Carter Lewis","year":2026,"position":"P","stars":null,"rating_247":null,"committed_to":"Jacksonville State","lat":32.7794,"lng":-86.8287,"hometown_city":"Mobile","hometown_state":"AL"},{"name":"Aditya Kaul","year":2026,"position":"P","stars":null,"rating_247":null,"committed_to":null,"lat":32.6415,"lng":-83.4426,"hometown_city":"Atlanta","hometown_state":"GA"},{"name":"Trott O'Neal","year":2026,"position":"LS","stars":3,"rating_247":80.0,"committed_to":"Texas","lat":33.0136764,"lng":-96.6925096,"hometown_city":"Plano","hometown_state":"TX"},{"name":"Matthew Oh","year":2026,"position":"LS","stars":null,"rating_247":80.0,"committed_to":"South Carolina","lat":32.6415,"lng":-83.4426,"hometown_city":"Buford","hometown_state":"GA"},{"name":"Kyle Rushing","year":2026,"position":"LS","stars":3,"rating_247":80.0,"committed_to":"Mississippi State","lat":31.2437872,"lng":-90.4531536,"hometown_city":"McComb","hometown_state":"MS"},{"name":"Lance Alderton","year":2026,"position":"LS","stars":null,"rating_247":null,"committed_to":null,"lat":38.3566,"lng":-92.458,"hometown_city":"O'Fallon","hometown_state":"MO"},{"name":"Brody Jenkins","year":2026,"position":"LS","stars":null,"rating_247":null,"committed_to":null,"lat":32.6415,"lng":-83.4426,"hometown_city":"Madison","hometown_state":"GA"}],"2027":[{"name":"Andre Phillip II","year":2027,"position":"QB","stars":null,"rating_247":86.0,"committed_to":"West Virginia","lat":31.4757,"lng":-99.3312,"hometown_city":"Spring","hometown_state":"TX"},{"name":"Ethan Royal","year":2027,"position":"QB","stars":null,"rating_247":86.0,"committed_to":null,"lat":35.5557,"lng":-79.3877,"hometown_city":"Cornelius","hometown_state":"NC"},{"name":"Jace German","year":2027,"position":"QB","stars":null,"rating_247":84.0,"committed_to":null,"lat":32.6415,"lng":-83.4426,"hometown_city":"Tucker","hometown_state":"GA"},{"name":"Zeke Zuberbuhler","year":2027,"position":"QB","stars":null,"rating_247":null,"committed_to":"Air Force","lat":44.6243,"lng":-89.9941,"hometown_city":"Darlington","hometown_state":"WI"},{"name":"Delijah Matthews","year":2027,"position":"RB","stars":null,"rating_247":87.0,"committed_to":null,"lat":35.5889,"lng":-97.4943,"hometown_city":"Oklahoma City","hometown_state":"OK"},{"name":"Justice Hardy","year":2027,"position":"RB","stars":null,"rating_247":87.0,"committed_to":"Louisville","lat":40.8781,"lng":-77.7996,"hometown_city":"Reading","hometown_state":"PA"},{"name":"Trevor Schneider","year":2027,"position":"RB","stars":null,"rating_247":85.0,"committed_to":null,"lat":37.1841,"lng":-119.4696,"hometown_city":"Temecula","hometown_state":"CA"},{"name":"Carter Wallace","year":2027,"position":"RB","stars":null,"rating_247":85.0,"committed_to":"Arkansas State","lat":34.8938,"lng":-92.4426,"hometown_city":"Jonesboro","hometown_state":"AR"},{"name":"Marquez Mellor","year":2027,"position":"RB","stars":null,"rating_247":null,"committed_to":null,"lat":20.2927,"lng":-156.3737,"hometown_city":"Kailua","hometown_state":"HI"},{"name":"JoJo Accelus","year":2027,"position":"RB","stars":null,"rating_247":null,"committed_to":"Appalachian State","lat":34.8938,"lng":-92.4426,"hometown_city":"Monticello","hometown_state":"AR"},{"name":"Duke Stephens","year":2027,"position":"RB","stars":null,"rating_247":null,"committed_to":null,"lat":31.4757,"lng":-99.3312,"hometown_city":"The Woodlands","hometown_state":"TX"},{"name":"Abram Hilton","year":2027,"position":"RB","stars":null,"rating_247":null,"committed_to":"South Florida","lat":32.6415,"lng":-83.4426,"hometown_city":"Sylvania","hometown_state":"GA"},{"name":"Yogi Martin Jr.","year":2027,"position":"RB","stars":null,"rating_247":null,"committed_to":null,"lat":31.4757,"lng":-99.3312,"hometown_city":"Cypress","hometown_state":"TX"},{"name":"Kameron Coleman","year":2027,"position":"RB","stars":null,"rating_247":null,"committed_to":null,"lat":31.4757,"lng":-99.3312,"hometown_city":"Fort Worth","hometown_state":"TX"},{"name":"Grayson Ochoa","year":2027,"position":"RB","stars":null,"rating_247":null,"committed_to":"Army","lat":31.4757,"lng":-99.3312,"hometown_city":"Houston","hometown_state":"TX"},{"name":"Bennett Konkey","year":2027,"position":"WR","stars":null,"rating_247":90.0,"committed_to":null,"lat":40.0417,"lng":-89.1965,"hometown_city":"Geneva","hometown_state":"IL"},{"name":"Malik Ratliff","year":2027,"position":"WR","stars":null,"rating_247":86.0,"committed_to":null,"lat":33.9169,"lng":-80.8964,"hometown_city":"Rock Hill","hometown_state":"SC"},{"name":"Austin Busso","year":2027,"position":"WR","stars":null,"rating_247":86.0,"committed_to":"South Florida","lat":40.1907,"lng":-74.6728,"hometown_city":"Oradell","hometown_state":"NJ"},{"name":"Jason Wooden","year":2027,"position":"WR","stars":null,"rating_247":85.0,"committed_to":"Iowa State","lat":31.4757,"lng":-99.3312,"hometown_city":"McKinney","hometown_state":"TX"},{"name":"Clark Cokley","year":2027,"position":"WR","stars":null,"rating_247":85.0,"committed_to":null,"lat":37.1841,"lng":-119.4696,"hometown_city":"San Juan Capistrano","hometown_state":"CA"},{"name":"Jack Junker","year":2027,"position":"WR","stars":null,"rating_247":84.0,"committed_to":null,"lat":37.1841,"lng":-119.4696,"hometown_city":"Mission Viejo","hometown_state":"CA"},{"name":"Levi Rillos","year":2027,"position":"WR","stars":null,"rating_247":null,"committed_to":null,"lat":38.9972,"lng":-105.5478,"hometown_city":"Arvada","hometown_state":"CO"},{"name":"Kai Furtch","year":2027,"position":"WR","stars":null,"rating_247":null,"committed_to":null,"lat":31.4757,"lng":-99.3312,"hometown_city":"Mesquite","hometown_state":"TX"},{"name":"London Munoz","year":2027,"position":"WR","stars":null,"rating_247":null,"committed_to":"Charlotte","lat":32.6415,"lng":-83.4426,"hometown_city":"Winder","hometown_state":"GA"},{"name":"Drew Rempel","year":2027,"position":"WR","stars":null,"rating_247":null,"committed_to":null,"lat":35.858,"lng":-86.3505,"hometown_city":"Nashville","hometown_state":"TN"},{"name":"Carter Kilburg","year":2027,"position":"WR","stars":null,"rating_247":null,"committed_to":null,"lat":35.858,"lng":-86.3505,"hometown_city":"Nashville","hometown_state":"TN"},{"name":"Lowery Asel","year":2027,"position":"WR","stars":null,"rating_247":null,"committed_to":null,"lat":31.4757,"lng":-99.3312,"hometown_city":"Frisco","hometown_state":"TX"},{"name":"Folefac Wrightnick Atabonglefac","year":2027,"position":"WR","stars":null,"rating_247":null,"committed_to":null,"lat":32.6415,"lng":-83.4426,"hometown_city":"Hampton","hometown_state":"GA"},{"name":"Tre Brown","year":2027,"position":"WR","stars":null,"rating_247":null,"committed_to":null,"lat":31.4757,"lng":-99.3312,"hometown_city":"Humble","hometown_state":"TX"},{"name":"Mannie McKinney","year":2027,"position":"WR","stars":null,"rating_247":null,"committed_to":null,"lat":28.6305,"lng":-82.4497,"hometown_city":"Tampa","hometown_state":"FL"},{"name":"Dylan Medlock","year":2027,"position":"WR","stars":null,"rating_247":null,"committed_to":"UTSA","lat":31.4757,"lng":-99.3312,"hometown_city":"Robinson","hometown_state":"TX"},{"name":"Brody Diel","year":2027,"position":"WR","stars":null,"rating_247":null,"committed_to":"Rice","lat":31.0689,"lng":-91.9968,"hometown_city":"Baton Rouge","hometown_state":"LA"},{"name":"Andrew Lyman","year":2027,"position":"WR","stars":null,"rating_247":null,"committed_to":"Ball State","lat":40.2862,"lng":-82.7937,"hometown_city":"Kings Mills","hometown_state":"OH"},{"name":"Brady Stringham","year":2027,"position":"WR","stars":null,"rating_247":null,"committed_to":"Air Force","lat":37.1841,"lng":-119.4696,"hometown_city":"Laguna Beach","hometown_state":"CA"},{"name":"Owen Roberts","year":2027,"position":"TE","stars":null,"rating_247":86.0,"committed_to":"Purdue","lat":40.0417,"lng":-89.1965,"hometown_city":"Elmhurst","hometown_state":"IL"},{"name":"Cade Newman","year":2027,"position":"TE","stars":null,"rating_247":86.0,"committed_to":"Illinois","lat":42.0751,"lng":-93.496,"hometown_city":"Ankeny","hometown_state":"IA"},{"name":"George VanSandt","year":2027,"position":"TE","stars":null,"rating_247":86.0,"committed_to":"Oregon","lat":43.9336,"lng":-120.5583,"hometown_city":"Portland","hometown_state":"OR"},{"name":"Joe Vinyard","year":2027,"position":"TE","stars":null,"rating_247":85.0,"committed_to":"Iowa State","lat":42.0751,"lng":-93.496,"hometown_city":"Waukee","hometown_state":"IA"},{"name":"Luke Karby","year":2027,"position":"TE","stars":null,"rating_247":85.0,"committed_to":"Duke","lat":37.1841,"lng":-119.4696,"hometown_city":"Mission Viejo","hometown_state":"CA"},{"name":"Xavier Ratica","year":2027,"position":"TE","stars":null,"rating_247":84.0,"committed_to":"Louisville","lat":40.2862,"lng":-82.7937,"hometown_city":"West Chester","hometown_state":"OH"},{"name":"Xenophon Fleischmann","year":2027,"position":"TE","stars":null,"rating_247":null,"committed_to":null,"lat":44.3509,"lng":-114.613,"hometown_city":"Pocatello","hometown_state":"ID"},{"name":"Jake Sneed","year":2027,"position":"TE","stars":null,"rating_247":null,"committed_to":"Toledo","lat":31.4757,"lng":-99.3312,"hometown_city":"The Woodlands","hometown_state":"TX"},{"name":"Smith Lessard","year":2027,"position":"TE","stars":null,"rating_247":null,"committed_to":null,"lat":28.6305,"lng":-82.4497,"hometown_city":"Winter Park","hometown_state":"FL"},{"name":"Miles Przekwas","year":2027,"position":"TE","stars":null,"rating_247":null,"committed_to":"Navy","lat":28.6305,"lng":-82.4497,"hometown_city":"Sarasota","hometown_state":"FL"},{"name":"Joe Moore","year":2027,"position":"TE","stars":null,"rating_247":null,"committed_to":"UConn","lat":40.2862,"lng":-82.7937,"hometown_city":"Lakewood","hometown_state":"OH"},{"name":"Hunter Peterson","year":2027,"position":"TE","stars":null,"rating_247":null,"committed_to":"North Dakota State","lat":44.4443,"lng":-100.2263,"hometown_city":"Watertown","hometown_state":"SD"},{"name":"Michael Glover","year":2027,"position":"TE","stars":null,"rating_247":null,"committed_to":null,"lat":40.8781,"lng":-77.7996,"hometown_city":"Reading","hometown_state":"PA"},{"name":"Jaxon Rawls","year":2027,"position":"TE","stars":null,"rating_247":null,"committed_to":null,"lat":34.8938,"lng":-92.4426,"hometown_city":"Monticello","hometown_state":"AR"},{"name":"Dylan Jaeger","year":2027,"position":"TE","stars":null,"rating_247":null,"committed_to":null,"lat":31.4757,"lng":-99.3312,"hometown_city":"Round Rock","hometown_state":"TX"},{"name":"Wyatt Harry","year":2027,"position":"TE","stars":null,"rating_247":null,"committed_to":null,"lat":31.4757,"lng":-99.3312,"hometown_city":"Melissa","hometown_state":"TX"},{"name":"Joey Jewett","year":2027,"position":"TE","stars":null,"rating_247":null,"committed_to":"Air Force","lat":38.9972,"lng":-105.5478,"hometown_city":"Broomfield","hometown_state":"CO"},{"name":"Hayes Brawner","year":2027,"position":"TE","stars":null,"rating_247":null,"committed_to":"James Madison","lat":35.5557,"lng":-79.3877,"hometown_city":"Raleigh","hometown_state":"NC"},{"name":"Elan Jones","year":2027,"position":"TE","stars":null,"rating_247":null,"committed_to":"Georgia Southern","lat":32.6415,"lng":-83.4426,"hometown_city":"Waycross","hometown_state":"GA"},{"name":"George Tyus","year":2027,"position":"OT","stars":null,"rating_247":87.0,"committed_to":"Stanford","lat":37.1841,"lng":-119.4696,"hometown_city":"Antioch","hometown_state":"CA"},{"name":"Ty Greene","year":2027,"position":"OT","stars":null,"rating_247":86.0,"committed_to":"TCU","lat":31.4757,"lng":-99.3312,"hometown_city":"Houston","hometown_state":"TX"},{"name":"Clint Lundin","year":2027,"position":"OT","stars":null,"rating_247":85.0,"committed_to":"Stanford","lat":37.1841,"lng":-119.4696,"hometown_city":"Concord","hometown_state":"CA"},{"name":"Nick Vecrumba","year":2027,"position":"OT","stars":null,"rating_247":85.0,"committed_to":"Kansas","lat":39.8942,"lng":-86.2816,"hometown_city":"Brownsburg","hometown_state":"IN"},{"name":"Ben Hale","year":2027,"position":"OT","stars":null,"rating_247":null,"committed_to":null,"lat":35.858,"lng":-86.3505,"hometown_city":"Nashville","hometown_state":"TN"},{"name":"Michael Golden","year":2027,"position":"OT","stars":null,"rating_247":null,"committed_to":null,"lat":41.6219,"lng":-72.7273,"hometown_city":"Avon","hometown_state":"CT"},{"name":"Coby Wallace","year":2027,"position":"OT","stars":null,"rating_247":null,"committed_to":"Army","lat":28.6305,"lng":-82.4497,"hometown_city":"Melbourne","hometown_state":"FL"},{"name":"Brian Waller-Reitano","year":2027,"position":"OT","stars":null,"rating_247":null,"committed_to":"Navy","lat":42.2596,"lng":-71.8083,"hometown_city":"Lawrence","hometown_state":"MA"},{"name":"Jackson Shaw","year":2027,"position":"OT","stars":null,"rating_247":null,"committed_to":"Tulane","lat":31.0689,"lng":-91.9968,"hometown_city":"Baton Rouge","hometown_state":"LA"},{"name":"Ethan Lawson","year":2027,"position":"IOL","stars":null,"rating_247":90.0,"committed_to":"West Virginia","lat":37.5215,"lng":-78.8537,"hometown_city":"Duffield","hometown_state":"VA"},{"name":"Isaac Coughran","year":2027,"position":"IOL","stars":null,"rating_247":88.0,"committed_to":"Oklahoma","lat":31.4757,"lng":-99.3312,"hometown_city":"Katy","hometown_state":"TX"},{"name":"Nicholas Schurman","year":2027,"position":"IOL","stars":null,"rating_247":87.0,"committed_to":null,"lat":39.8942,"lng":-86.2816,"hometown_city":"Westfield","hometown_state":"IN"},{"name":"Jaxon Lawler","year":2027,"position":"IOL","stars":null,"rating_247":86.0,"committed_to":null,"lat":31.4757,"lng":-99.3312,"hometown_city":"Amarillo","hometown_state":"TX"},{"name":"Skyler Smith","year":2027,"position":"IOL","stars":null,"rating_247":85.0,"committed_to":"Duke","lat":35.858,"lng":-86.3505,"hometown_city":"Nashville","hometown_state":"TN"},{"name":"Canaan Smith","year":2027,"position":"IOL","stars":null,"rating_247":84.0,"committed_to":"Kansas State","lat":31.4757,"lng":-99.3312,"hometown_city":"Plano","hometown_state":"TX"},{"name":"Tyson Seidman","year":2027,"position":"IOL","stars":null,"rating_247":83.0,"committed_to":null,"lat":37.1841,"lng":-119.4696,"hometown_city":"Chatsworth","hometown_state":"CA"},{"name":"Flynn Latta","year":2027,"position":"IOL","stars":null,"rating_247":null,"committed_to":null,"lat":38.9972,"lng":-105.5478,"hometown_city":"Aurora","hometown_state":"CO"},{"name":"Wyatt Moebes","year":2027,"position":"IOL","stars":null,"rating_247":null,"committed_to":null,"lat":31.4757,"lng":-99.3312,"hometown_city":"Katy","hometown_state":"TX"},{"name":"Zach Wassil","year":2027,"position":"IOL","stars":null,"rating_247":null,"committed_to":"West Florida","lat":28.6305,"lng":-82.4497,"hometown_city":"Pensacola","hometown_state":"FL"},{"name":"Mark Moreno","year":2027,"position":"IOL","stars":null,"rating_247":null,"committed_to":null,"lat":31.4757,"lng":-99.3312,"hometown_city":"Round Rock","hometown_state":"TX"},{"name":"Trenton Harris","year":2027,"position":"IOL","stars":null,"rating_247":null,"committed_to":null,"lat":44.6243,"lng":-89.9941,"hometown_city":"Racine","hometown_state":"WI"},{"name":"Everett Capehart","year":2027,"position":"IOL","stars":null,"rating_247":null,"committed_to":"Army","lat":38.9972,"lng":-105.5478,"hometown_city":"Parker","hometown_state":"CO"},{"name":"Elijah Stephens","year":2027,"position":"IOL","stars":null,"rating_247":null,"committed_to":"Army","lat":40.2862,"lng":-82.7937,"hometown_city":"New Lexington","hometown_state":"OH"},{"name":"Preston Ashmore","year":2027,"position":"IOL","stars":null,"rating_247":null,"committed_to":"Navy","lat":35.858,"lng":-86.3505,"hometown_city":"Franklin","hometown_state":"TN"},{"name":"Jackson Hooker","year":2027,"position":"IOL","stars":null,"rating_247":null,"committed_to":"Rice","lat":31.4757,"lng":-99.3312,"hometown_city":"Prosper","hometown_state":"TX"},{"name":"Barrett Bray","year":2027,"position":"IOL","stars":null,"rating_247":null,"committed_to":"Toledo","lat":31.4757,"lng":-99.3312,"hometown_city":"Fort Worth","hometown_state":"TX"},{"name":"Hunter Smith","year":2027,"position":"IOL","stars":null,"rating_247":null,"committed_to":"Air Force","lat":31.4757,"lng":-99.3312,"hometown_city":"Silsbee","hometown_state":"TX"},{"name":"T.K. Cunningham","year":2027,"position":"Edge","stars":null,"rating_247":89.0,"committed_to":null,"lat":34.2744,"lng":-111.6602,"hometown_city":"Chandler","hometown_state":"AZ"},{"name":"Drake Carroll","year":2027,"position":"Edge","stars":null,"rating_247":88.0,"committed_to":"TCU","lat":31.4757,"lng":-99.3312,"hometown_city":"San Antonio","hometown_state":"TX"},{"name":"Jack Henderson","year":2027,"position":"Edge","stars":null,"rating_247":86.0,"committed_to":"Utah","lat":44.3509,"lng":-114.613,"hometown_city":"Boise","hometown_state":"ID"},{"name":"Bradyn Paulozzi","year":2027,"position":"Edge","stars":null,"rating_247":86.0,"committed_to":"Syracuse","lat":40.2862,"lng":-82.7937,"hometown_city":"Lakewood","hometown_state":"OH"},{"name":"Caleb Jordan","year":2027,"position":"Edge","stars":null,"rating_247":83.0,"committed_to":null,"lat":34.2744,"lng":-111.6602,"hometown_city":"Chandler","hometown_state":"AZ"},{"name":"Maxwell Porter","year":2027,"position":"Edge","stars":null,"rating_247":82.0,"committed_to":null,"lat":37.1841,"lng":-119.4696,"hometown_city":"San Juan Capistrano","hometown_state":"CA"},{"name":"Griffin Benke","year":2027,"position":"Edge","stars":null,"rating_247":null,"committed_to":"Ohio","lat":37.5347,"lng":-85.3021,"hometown_city":"Fort Thomas","hometown_state":"KY"},{"name":"Cooper Benke","year":2027,"position":"Edge","stars":null,"rating_247":null,"committed_to":"Ball State","lat":37.5347,"lng":-85.3021,"hometown_city":"Fort Thomas","hometown_state":"KY"},{"name":"Sammy Dantonka","year":2027,"position":"Edge","stars":null,"rating_247":null,"committed_to":null,"lat":40.8781,"lng":-77.7996,"hometown_city":"Springfield","hometown_state":"PA"},{"name":"Matt Zeigler","year":2027,"position":"Edge","stars":null,"rating_247":null,"committed_to":null,"lat":31.4757,"lng":-99.3312,"hometown_city":"Copperas Cove","hometown_state":"TX"},{"name":"Harker Larsen","year":2027,"position":"Edge","stars":null,"rating_247":null,"committed_to":null,"lat":44.6243,"lng":-89.9941,"hometown_city":"Evansville","hometown_state":"WI"},{"name":"Kadence Pruitt","year":2027,"position":"Edge","stars":null,"rating_247":null,"committed_to":null,"lat":35.5557,"lng":-79.3877,"hometown_city":"Reidsville","hometown_state":"NC"},{"name":"Hunter Black","year":2027,"position":"Edge","stars":null,"rating_247":null,"committed_to":null,"lat":31.4757,"lng":-99.3312,"hometown_city":"Bryan","hometown_state":"TX"},{"name":"Hunter Taylor","year":2027,"position":"Edge","stars":null,"rating_247":null,"committed_to":"Army","lat":37.1841,"lng":-119.4696,"hometown_city":"Manhattan Beach","hometown_state":"CA"},{"name":"Jason Armbruster","year":2027,"position":"Edge","stars":null,"rating_247":null,"committed_to":null,"lat":47.3826,"lng":-120.4472,"hometown_city":"Snoqualmie","hometown_state":"WA"},{"name":"Joshua Ochelli","year":2027,"position":"Edge","stars":null,"rating_247":null,"committed_to":null,"lat":31.4757,"lng":-99.3312,"hometown_city":"Richmond","hometown_state":"TX"},{"name":"Makai McClendon","year":2027,"position":"Edge","stars":null,"rating_247":null,"committed_to":"Holy Cross","lat":39.055,"lng":-76.7909,"hometown_city":"Owings Mills","hometown_state":"MD"},{"name":"Elijah Guertin","year":2027,"position":"DL","stars":null,"rating_247":90.0,"committed_to":null,"lat":41.6762,"lng":-71.5562,"hometown_city":"Warwick","hometown_state":"RI"},{"name":"Brayden White","year":2027,"position":"DL","stars":null,"rating_247":88.0,"committed_to":"Stanford","lat":31.4757,"lng":-99.3312,"hometown_city":"Shepherd","hometown_state":"TX"},{"name":"Finn Walker","year":2027,"position":"DL","stars":null,"rating_247":88.0,"committed_to":null,"lat":31.4757,"lng":-99.3312,"hometown_city":"Conroe","hometown_state":"TX"},{"name":"Carter Napier","year":2027,"position":"DL","stars":null,"rating_247":87.0,"committed_to":"Pittsburgh","lat":40.2862,"lng":-82.7937,"hometown_city":"Springboro","hometown_state":"OH"},{"name":"Tyler Frederick","year":2027,"position":"DL","stars":null,"rating_247":86.0,"committed_to":"Northwestern","lat":38.9101,"lng":-77.0147,"hometown_city":"Washington","hometown_state":"DC"},{"name":"Will Zaccagnino","year":2027,"position":"DL","stars":null,"rating_247":86.0,"committed_to":"Wisconsin","lat":41.6219,"lng":-72.7273,"hometown_city":"Trumbull","hometown_state":"CT"},{"name":"Lorenzo Tartamella","year":2027,"position":"DL","stars":null,"rating_247":85.0,"committed_to":"Navy","lat":40.1907,"lng":-74.6728,"hometown_city":"Red Bank","hometown_state":"NJ"},{"name":"Hunter Eligon","year":2027,"position":"DL","stars":null,"rating_247":84.0,"committed_to":null,"lat":37.1841,"lng":-119.4696,"hometown_city":"Los Alamitos","hometown_state":"CA"},{"name":"Derrick LeBlanc Jr.","year":2027,"position":"DL","stars":null,"rating_247":84.0,"committed_to":null,"lat":34.2744,"lng":-111.6602,"hometown_city":"Chandler","hometown_state":"AZ"},{"name":"Darren White","year":2027,"position":"DL","stars":null,"rating_247":null,"committed_to":"Buffalo","lat":28.6305,"lng":-82.4497,"hometown_city":"Orlando","hometown_state":"FL"},{"name":"James Porter","year":2027,"position":"DL","stars":null,"rating_247":null,"committed_to":null,"lat":33.9169,"lng":-80.8964,"hometown_city":"Roebuck","hometown_state":"SC"},{"name":"Braylon Cone","year":2027,"position":"DL","stars":null,"rating_247":null,"committed_to":"Kennesaw State","lat":32.6415,"lng":-83.4426,"hometown_city":"Statesboro","hometown_state":"GA"},{"name":"Jayden Vessell","year":2027,"position":"DL","stars":null,"rating_247":null,"committed_to":null,"lat":31.0689,"lng":-91.9968,"hometown_city":"Baton Rouge","hometown_state":"LA"},{"name":"Matijs Beals","year":2027,"position":"DL","stars":null,"rating_247":null,"committed_to":"Air Force","lat":37.1841,"lng":-119.4696,"hometown_city":"San Diego","hometown_state":"CA"},{"name":"Lucas Meyer","year":2027,"position":"DL","stars":null,"rating_247":null,"committed_to":"Air Force","lat":37.1841,"lng":-119.4696,"hometown_city":"Los Angeles","hometown_state":"CA"},{"name":"Neree Castleberry","year":2027,"position":"LB","stars":null,"rating_247":87.0,"committed_to":null,"lat":31.4757,"lng":-99.3312,"hometown_city":"Winnsboro","hometown_state":"TX"},{"name":"Will Mettee","year":2027,"position":"LB","stars":null,"rating_247":86.0,"committed_to":"Boston College","lat":40.0417,"lng":-89.1965,"hometown_city":"Wilmette","hometown_state":"IL"},{"name":"Sire Razi","year":2027,"position":"LB","stars":null,"rating_247":86.0,"committed_to":null,"lat":32.6415,"lng":-83.4426,"hometown_city":"Fairburn","hometown_state":"GA"},{"name":"Jack Frassetto","year":2027,"position":"LB","stars":null,"rating_247":86.0,"committed_to":"Northwestern","lat":40.1907,"lng":-74.6728,"hometown_city":"Lawrenceville","hometown_state":"NJ"},{"name":"Brody Downs","year":2027,"position":"LB","stars":null,"rating_247":85.0,"committed_to":"Oregon State","lat":39.321,"lng":-111.0937,"hometown_city":"Lehi","hometown_state":"UT"},{"name":"Connor Rooney","year":2027,"position":"LB","stars":null,"rating_247":84.0,"committed_to":null,"lat":28.6305,"lng":-82.4497,"hometown_city":"Santa Rosa Beach","hometown_state":"FL"},{"name":"Evan Duke Cazimero","year":2027,"position":"LB","stars":null,"rating_247":84.0,"committed_to":null,"lat":20.2927,"lng":-156.3737,"hometown_city":"Honolulu","hometown_state":"HI"},{"name":"Philip Wilson III","year":2027,"position":"LB","stars":null,"rating_247":83.0,"committed_to":null,"lat":37.1841,"lng":-119.4696,"hometown_city":"Oxnard","hometown_state":"CA"},{"name":"Bryce Barbarino","year":2027,"position":"LB","stars":null,"rating_247":83.0,"committed_to":"Western Michigan","lat":44.3467,"lng":-85.4102,"hometown_city":"Saline","hometown_state":"MI"},{"name":"David Duru","year":2027,"position":"LB","stars":null,"rating_247":null,"committed_to":null,"lat":32.6415,"lng":-83.4426,"hometown_city":"Fayetteville","hometown_state":"GA"},{"name":"Hayden Waller","year":2027,"position":"LB","stars":null,"rating_247":null,"committed_to":null,"lat":31.4757,"lng":-99.3312,"hometown_city":"Brock","hometown_state":"TX"},{"name":"Jackson Conner","year":2027,"position":"LB","stars":null,"rating_247":null,"committed_to":"Marshall","lat":33.9169,"lng":-80.8964,"hometown_city":"Fort Mill","hometown_state":"SC"},{"name":"Levi Champion","year":2027,"position":"LB","stars":null,"rating_247":null,"committed_to":"Liberty","lat":28.6305,"lng":-82.4497,"hometown_city":"Fort Lauderdale","hometown_state":"FL"},{"name":"Malachi Moore","year":2027,"position":"LB","stars":null,"rating_247":null,"committed_to":"Holy Cross","lat":28.6305,"lng":-82.4497,"hometown_city":"Auburndale","hometown_state":"FL"},{"name":"Praise Chane","year":2027,"position":"LB","stars":null,"rating_247":null,"committed_to":null,"lat":32.6415,"lng":-83.4426,"hometown_city":"Rabun Gap","hometown_state":"GA"},{"name":"Ayden Williams","year":2027,"position":"LB","stars":null,"rating_247":null,"committed_to":"UTEP","lat":31.4757,"lng":-99.3312,"hometown_city":"San Antonio","hometown_state":"TX"},{"name":"Noah McPeak","year":2027,"position":"LB","stars":null,"rating_247":null,"committed_to":null,"lat":31.4757,"lng":-99.3312,"hometown_city":"Pflugerville","hometown_state":"TX"},{"name":"Miles Felton","year":2027,"position":"LB","stars":null,"rating_247":null,"committed_to":null,"lat":46.2807,"lng":-94.3053,"hometown_city":"Champlin","hometown_state":"MN"},{"name":"Mack Mitchell V","year":2027,"position":"LB","stars":null,"rating_247":null,"committed_to":"Buffalo","lat":28.6305,"lng":-82.4497,"hometown_city":"Fort Myers","hometown_state":"FL"},{"name":"Jernaro Gilford Jr.","year":2027,"position":"CB","stars":null,"rating_247":88.0,"committed_to":null,"lat":39.321,"lng":-111.0937,"hometown_city":"Lehi","hometown_state":"UT"},{"name":"Bryson Dossett","year":2027,"position":"CB","stars":null,"rating_247":86.0,"committed_to":"Kansas State","lat":31.4757,"lng":-99.3312,"hometown_city":"Missouri City","hometown_state":"TX"},