{"2026":[{"name":"Jett Thomalla","year":2026,"position":"QB","stars":4,"rating_247":97.0,"committed_to":"Alabama","lat":41.2587459,"lng":-95.9383758,"hometown_city":"Omaha","hometown_state":"NE"},{"name":"Dia Bell","year":2026,"position":"QB","stars":5,"rating_247":97.0,"committed_to":"Texas","lat":26.1223084,"lng":-80.1433786,"hometown_city":"Fort Lauderdale","hometown_state":"FL"},{"name":"Ryder Lyons","year":2026,"position":"QB","stars":4,"rating_247":96.0,"committed_to":"BYU","lat":38.6779591,"lng":-121.1760583,"hometown_city":"Folsom","hometown_state":"CA"},{"name":"Bowe Bentley","year":2026,"position":"QB","stars":4,"rating_247":95.0,"committed_to":"Oklahoma","lat":33.3238976,"lng":-96.785342,"hometown_city":"Celina","hometown_state":"TX"},{"name":"Helaman Casuga","year":2026,"position":"QB","stars":4,"rating_247":90.0,"committed_to":"Texas A&M","lat":40.5246711,"lng":-111.8638226,"hometown_city":"Draper","hometown_state":"UT"},{"name":"Dereon Coleman","year":2026,"position":"QB","stars":4,"rating_247":89.0,"committed_to":"Miami","lat":28.5421109,"lng":-81.3790304,"hometown_city":"Orlando","hometown_state":"FL"},{"name":"Oscar Rios","year":2026,"position":"QB","stars":4,"rating_247":89.0,"committed_to":"Arizona","lat":33.942215,"lng":-118.1235646,"hometown_city":"Downey","hometown_state":"CA"},{"name":"Troy Huhn","year":2026,"position":"QB","stars":4,"rating_247":89.0,"committed_to":"Virginia Tech","lat":33.1433723,"lng":-117.1661449,"hometown_city":"San Marcos","hometown_state":"CA"},{"name":"Tait Reynolds","year":2026,"position":"QB","stars":3,"rating_247":88.0,"committed_to":"Clemson","lat":33.2483858,"lng":-111.6341585,"hometown_city":"Queen Creek","hometown_state":"AZ"},{"name":"Brady Smigiel","year":2026,"position":"QB","stars":4,"rating_247":88.0,"committed_to":"Michigan","lat":34.183671,"lng":-118.9118302,"hometown_city":"Newbury Park","hometown_state":"CA"},{"name":"Cash Herrera","year":2026,"position":"QB","stars":3,"rating_247":88.0,"committed_to":"Boise State","lat":32.83259,"lng":-117.2716839,"hometown_city":"La Jolla","hometown_state":"CA"},{"name":"Femi Babalola","year":2026,"position":"QB","stars":3,"rating_247":87.0,"committed_to":"Boston College","lat":36.0325687,"lng":-86.7825235,"hometown_city":"Brentwood","hometown_state":"TN"},{"name":"Ryan Hopkins","year":2026,"position":"QB","stars":3,"rating_247":87.0,"committed_to":"Wisconsin","lat":33.7494951,"lng":-117.8732213,"hometown_city":"Santa Ana","hometown_state":"CA"},{"name":"Jaden O'Neal","year":2026,"position":"QB","stars":4,"rating_247":87.0,"committed_to":"Florida State","lat":35.384227,"lng":-97.7244813,"hometown_city":"Mustang","hometown_state":"OK"},{"name":"Deagan Rose","year":2026,"position":"QB","stars":3,"rating_247":87.0,"committed_to":"Fresno State","lat":36.8252277,"lng":-119.7029194,"hometown_city":"Clovis","hometown_state":"CA"},{"name":"Brady Palmer","year":2026,"position":"QB","stars":3,"rating_247":86.0,"committed_to":"Minnesota","lat":26.1223084,"lng":-80.1433786,"hometown_city":"Fort Lauderdale","hometown_state":"FL"},{"name":"Jayvon Gilmore","year":2026,"position":"QB","stars":3,"rating_247":86.0,"committed_to":null,"lat":35.0717945,"lng":-81.6498195,"hometown_city":"Gaffney","hometown_state":"SC"},{"name":"Rees Wise","year":2026,"position":"QB","stars":3,"rating_247":86.0,"committed_to":"Ole Miss","lat":30.2711286,"lng":-97.7436995,"hometown_city":"Austin","hometown_state":"TX"},{"name":"Tayden-Evan Kaawa","year":2026,"position":"QB","stars":null,"rating_247":86.0,"committed_to":"Alabama","lat":39.321,"lng":-111.0937,"hometown_city":"Orem","hometown_state":"UT"},{"name":"Quinn Murphy","year":2026,"position":"QB","stars":3,"rating_247":85.0,"committed_to":"Baylor","lat":33.110156,"lng":-97.17940980147037,"hometown_city":"Argyle","hometown_state":"TX"},{"name":"Kane Archer","year":2026,"position":"QB","stars":3,"rating_247":85.0,"committed_to":"Utah","lat":35.2156489,"lng":-94.2557663,"hometown_city":"Greenwood","hometown_state":"AR"},{"name":"Jackson Presley","year":2026,"position":"QB","stars":3,"rating_247":84.0,"committed_to":"Portland State","lat":48.2022563,"lng":-114.3167117,"hometown_city":"Kalispell","hometown_state":"MT"},{"name":"Isaiah Arriaza","year":2026,"position":"QB","stars":3,"rating_247":84.0,"committed_to":"Oregon State","lat":34.1008426,"lng":-117.7678355,"hometown_city":"La Verne","hometown_state":"CA"},{"name":"Cole Leinart","year":2026,"position":"QB","stars":3,"rating_247":82.0,"committed_to":"SMU","lat":33.8455911,"lng":-118.3886766,"hometown_city":"Redondo Beach","hometown_state":"CA"},{"name":"EJ Crowell","year":2026,"position":"RB","stars":null,"rating_247":98.0,"committed_to":"Alabama","lat":32.7794,"lng":-86.8287,"hometown_city":"Jackson","hometown_state":"AL"},{"name":"Savion Hiter","year":2026,"position":"RB","stars":5,"rating_247":98.0,"committed_to":"Michigan","lat":38.010695,"lng":-77.9086068,"hometown_city":"Mineral","hometown_state":"VA"},{"name":"Deshonne Redeaux","year":2026,"position":"RB","stars":4,"rating_247":95.0,"committed_to":"USC","lat":34.1460234,"lng":-118.8061794,"hometown_city":"Westlake Village","hometown_state":"CA"},{"name":"Brian Bonner Jr.","year":2026,"position":"RB","stars":null,"rating_247":94.0,"committed_to":"Washington","lat":37.1841,"lng":-119.4696,"hometown_city":"Valencia","hometown_state":"CA"},{"name":"Christian Rhodes","year":2026,"position":"RB","stars":4,"rating_247":92.0,"committed_to":"SMU","lat":32.7762719,"lng":-96.7968559,"hometown_city":"Dallas","hometown_state":"TX"},{"name":"Javian Osborne","year":2026,"position":"RB","stars":4,"rating_247":92.0,"committed_to":"Notre Dame","lat":32.747893,"lng":-96.4719289,"hometown_city":"Forney","hometown_state":"TX"},{"name":"Brandon Smith","year":2026,"position":"RB","stars":4,"rating_247":90.0,"committed_to":"Oregon","lat":36.7295295,"lng":-119.70886126075588,"hometown_city":"Fresno","hometown_state":"CA"},{"name":"Cardae Mack","year":2026,"position":"RB","stars":4,"rating_247":90.0,"committed_to":"Arizona State","lat":29.9988312,"lng":-95.2621553,"hometown_city":"Humble","hometown_state":"TX"},{"name":"Victor Santino","year":2026,"position":"RB","stars":4,"rating_247":89.0,"committed_to":"California","lat":25.7742658,"lng":-80.1936589,"hometown_city":"Miami","hometown_state":"FL"},{"name":"LaMarcus Bell","year":2026,"position":"RB","stars":3,"rating_247":89.0,"committed_to":"Utah","lat":45.4206749,"lng":-122.6706498,"hometown_city":"Lake Oswego","hometown_state":"OR"},{"name":"Keilan Chavies","year":2026,"position":"RB","stars":3,"rating_247":88.0,"committed_to":"Boise State","lat":30.5427638,"lng":-97.5468898,"hometown_city":"Hutto","hometown_state":"TX"},{"name":"Sean Morris II","year":2026,"position":"RB","stars":3,"rating_247":87.0,"committed_to":"Northwestern","lat":33.7872568,"lng":-117.8503088,"hometown_city":"Orange","hometown_state":"CA"},{"name":"Josiah Lucas","year":2026,"position":"RB","stars":3,"rating_247":86.0,"committed_to":"San Diego State","lat":32.657368000000005,"lng":-97.02846624175038,"hometown_city":"Grand Prairie","hometown_state":"TX"},{"name":"Amar'e Glover","year":2026,"position":"RB","stars":null,"rating_247":86.0,"committed_to":"Penn State","lat":38.9896,"lng":-75.505,"hometown_city":"Middletown","hometown_state":"DE"},{"name":"Dionne Sims","year":2026,"position":"RB","stars":3,"rating_247":85.0,"committed_to":"Rice","lat":29.7589382,"lng":-95.3676974,"hometown_city":"Houston","hometown_state":"TX"},{"name":"Nicholas Tramble","year":2026,"position":"RB","stars":3,"rating_247":83.0,"committed_to":"Prairie View A&M","lat":29.7589382,"lng":-95.3676974,"hometown_city":"Houston","hometown_state":"TX"},{"name":"Jacob Brown","year":2026,"position":"RB","stars":3,"rating_247":82.0,"committed_to":"Fort Lewis College","lat":33.3062223,"lng":-111.8413317,"hometown_city":"Chandler","hometown_state":"AZ"},{"name":"Samaritan Cunningham","year":2026,"position":"RB","stars":null,"rating_247":null,"committed_to":null,"lat":31.4757,"lng":-99.3312,"hometown_city":"Houston","hometown_state":"TX"},{"name":"Jett Washington","year":2026,"position":"WR","stars":4,"rating_247":98.0,"committed_to":"Oregon","lat":36.1672559,"lng":-115.1485163,"hometown_city":"Las Vegas","hometown_state":"NV"},{"name":"Calvin Russell III","year":2026,"position":"WR","stars":null,"rating_247":98.0,"committed_to":"Syracuse","lat":28.6305,"lng":-82.4497,"hometown_city":"Miami","hometown_state":"FL"},{"name":"Kayden Dixon-Wyatt","year":2026,"position":"WR","stars":4,"rating_247":97.0,"committed_to":"USC","lat":33.7494951,"lng":-117.8732213,"hometown_city":"Santa Ana","hometown_state":"CA"},{"name":"Ethan Feaster","year":2026,"position":"WR","stars":4,"rating_247":96.0,"committed_to":"USC","lat":32.6061241,"lng":-96.865612653687,"hometown_city":"DeSoto","hometown_state":"TX"},{"name":"Chase Campbell","year":2026,"position":"WR","stars":4,"rating_247":95.0,"committed_to":"Texas Tech","lat":33.5059189,"lng":-102.0090575,"hometown_city":"Wolfforth","hometown_state":"TX"},{"name":"R.J. Mosley","year":2026,"position":"WR","stars":null,"rating_247":94.0,"committed_to":"Arizona","lat":37.1841,"lng":-119.4696,"hometown_city":"Pittsburg","hometown_state":"CA"},{"name":"Jayden Warren","year":2026,"position":"WR","stars":4,"rating_247":92.0,"committed_to":"Texas A&M","lat":29.3521203,"lng":-95.460341,"hometown_city":"Rosharon","hometown_state":"TX"},{"name":"Devin Fitzgerald","year":2026,"position":"WR","stars":4,"rating_247":92.0,"committed_to":"Notre Dame","lat":33.4484367,"lng":-112.0741417,"hometown_city":"Phoenix","hometown_state":"AZ"},{"name":"Zion Robinson","year":2026,"position":"WR","stars":4,"rating_247":91.0,"committed_to":"Stanford","lat":32.5631924,"lng":-97.1416768,"hometown_city":"Mansfield","hometown_state":"TX"},{"name":"Mason James","year":2026,"position":"WR","stars":4,"rating_247":91.0,"committed_to":"Washington","lat":35.2225717,"lng":-97.4394816,"hometown_city":"Norman","hometown_state":"OK"},{"name":"Kohen Brown","year":2026,"position":"WR","stars":3,"rating_247":90.0,"committed_to":"Texas","lat":32.3944908,"lng":-96.8439365,"hometown_city":"Waxahachie","hometown_state":"TX"},{"name":"Rico Blassingame","year":2026,"position":"WR","stars":3,"rating_247":90.0,"committed_to":"Minnesota","lat":33.4500497,"lng":-112.2593093,"hometown_city":"Tolleson","hometown_state":"AZ"},{"name":"Vance Spafford","year":2026,"position":"WR","stars":4,"rating_247":90.0,"committed_to":"Miami","lat":33.5965685,"lng":-117.659405,"hometown_city":"Mission Viejo","hometown_state":"CA"},{"name":"Brayden Robinson","year":2026,"position":"WR","stars":4,"rating_247":90.0,"committed_to":"Notre Dame","lat":32.5117104,"lng":-96.80836332870047,"hometown_city":"Red Oak","hometown_state":"TX"},{"name":"Daniel Odom","year":2026,"position":"WR","stars":4,"rating_247":90.0,"committed_to":"Oklahoma","lat":33.8825705,"lng":-118.1167679,"hometown_city":"Bellflower","hometown_state":"CA"},{"name":"Kennan Pula","year":2026,"position":"WR","stars":3,"rating_247":90.0,"committed_to":"BYU","lat":40.3768954,"lng":-111.7957645,"hometown_city":"American Fork","hometown_state":"UT"},{"name":"Carnell Warren","year":2026,"position":"WR","stars":4,"rating_247":89.0,"committed_to":"North Carolina","lat":32.2371465,"lng":-80.8603868,"hometown_city":"Bluffton","hometown_state":"SC"},{"name":"Kenneth Moore III","year":2026,"position":"WR","stars":4,"rating_247":89.0,"committed_to":"UCLA","lat":37.9577016,"lng":-121.2907796,"hometown_city":"Stockton","hometown_state":"CA"},{"name":"Cynai Thomas","year":2026,"position":"WR","stars":3,"rating_247":89.0,"committed_to":"Oregon State","lat":37.7790262,"lng":-122.4199061,"hometown_city":"San Francisco","hometown_state":"CA"},{"name":"Dre Pollard","year":2026,"position":"WR","stars":4,"rating_247":89.0,"committed_to":"Stanford","lat":36.1672559,"lng":-115.1485163,"hometown_city":"Las Vegas","hometown_state":"NV"},{"name":"Khamill Pruitt","year":2026,"position":"WR","stars":3,"rating_247":88.0,"committed_to":"TCU","lat":32.701938999999996,"lng":-97.10562379033699,"hometown_city":"Arlington","hometown_state":"TX"},{"name":"Ace Theus","year":2026,"position":"WR","stars":null,"rating_247":88.0,"committed_to":"TCU","lat":31.4757,"lng":-99.3312,"hometown_city":"Duncanville","hometown_state":"TX"},{"name":"Jameson Powell","year":2026,"position":"WR","stars":3,"rating_247":88.0,"committed_to":"Oregon State","lat":38.6779591,"lng":-121.1760583,"hometown_city":"Folsom","hometown_state":"CA"},{"name":"Daylen Sharper","year":2026,"position":"WR","stars":3,"rating_247":88.0,"committed_to":"Stanford","lat":33.4484367,"lng":-112.0741417,"hometown_city":"Phoenix","hometown_state":"AZ"},{"name":"Xavier Owens","year":2026,"position":"WR","stars":3,"rating_247":88.0,"committed_to":"Fresno State","lat":29.9499323,"lng":-90.0701156,"hometown_city":"New Orleans","hometown_state":"LA"},{"name":"Brock Boyd","year":2026,"position":"WR","stars":3,"rating_247":87.0,"committed_to":"Ohio State","lat":32.9412363,"lng":-97.1341783,"hometown_city":"Southlake","hometown_state":"TX"},{"name":"Kymistrii Young","year":2026,"position":"WR","stars":3,"rating_247":87.0,"committed_to":"North Carolina","lat":27.3364347,"lng":-82.5306527,"hometown_city":"Sarasota","hometown_state":"FL"},{"name":"Larry Miles","year":2026,"position":"WR","stars":3,"rating_247":87.0,"committed_to":"Nebraska","lat":28.5421109,"lng":-81.3790304,"hometown_city":"Orlando","hometown_state":"FL"},{"name":"Tyree Sams","year":2026,"position":"WR","stars":3,"rating_247":87.0,"committed_to":"California","lat":36.7295295,"lng":-119.70886126075588,"hometown_city":"Fresno","hometown_state":"CA"},{"name":"Bryan Hamilton","year":2026,"position":"WR","stars":3,"rating_247":87.0,"committed_to":"Pittsburgh","lat":27.9477595,"lng":-82.458444,"hometown_city":"Tampa","hometown_state":"FL"},{"name":"Caleb Smith","year":2026,"position":"WR","stars":3,"rating_247":87.0,"committed_to":"Arizona","lat":33.1031744,"lng":-96.6705503,"hometown_city":"Allen","hometown_state":"TX"},{"name":"Cael Meisman","year":2026,"position":"WR","stars":null,"rating_247":87.0,"committed_to":"UTSA","lat":37.1841,"lng":-119.4696,"hometown_city":"Victorville","hometown_state":"CA"},{"name":"Massiah Mingo","year":2026,"position":"WR","stars":3,"rating_247":86.0,"committed_to":"New Mexico","lat":36.1672559,"lng":-115.1485163,"hometown_city":"Las Vegas","hometown_state":"NV"},{"name":"Hamisi Juma","year":2026,"position":"WR","stars":3,"rating_247":86.0,"committed_to":"Arizona","lat":33.3062223,"lng":-111.8413317,"hometown_city":"Chandler","hometown_state":"AZ"},{"name":"Carson Clark","year":2026,"position":"WR","stars":3,"rating_247":86.0,"committed_to":"San Jose State","lat":33.8825705,"lng":-118.1167679,"hometown_city":"Bellflower","hometown_state":"CA"},{"name":"AJ Logan","year":2026,"position":"WR","stars":3,"rating_247":86.0,"committed_to":"Boise State","lat":39.0800023,"lng":-122.5963989,"hometown_city":"Spring Valley","hometown_state":"CA"},{"name":"Jaylen Pile","year":2026,"position":"WR","stars":3,"rating_247":85.0,"committed_to":"Michigan","lat":32.7762719,"lng":-96.7968559,"hometown_city":"Dallas","hometown_state":"TX"},{"name":"Wyatt Villarreal","year":2026,"position":"WR","stars":3,"rating_247":85.0,"committed_to":"Pittsburgh","lat":33.3238976,"lng":-96.785342,"hometown_city":"Celina","hometown_state":"TX"},{"name":"Devin Olmande","year":2026,"position":"WR","stars":3,"rating_247":85.0,"committed_to":"San Jose State","lat":34.183671,"lng":-118.9118302,"hometown_city":"Newbury Park","hometown_state":"CA"},{"name":"Keidric Osunde-Brown","year":2026,"position":"WR","stars":3,"rating_247":84.0,"committed_to":"Louisiana-Monroe","lat":32.701938999999996,"lng":-97.10562379033699,"hometown_city":"Arlington","hometown_state":"TX"},{"name":"Kash Brock","year":2026,"position":"WR","stars":3,"rating_247":84.0,"committed_to":"Wisconsin","lat":33.3062223,"lng":-111.8413317,"hometown_city":"Chandler","hometown_state":"AZ"},{"name":"Truly Bell III","year":2026,"position":"WR","stars":null,"rating_247":84.0,"committed_to":"Fresno State","lat":37.1841,"lng":-119.4696,"hometown_city":"Pittsburg","hometown_state":"CA"},{"name":"DJ Wilkins","year":2026,"position":"WR","stars":3,"rating_247":84.0,"committed_to":null,"lat":32.7947731,"lng":-116.9625269,"hometown_city":"El Cajon","hometown_state":"CA"},{"name":"Kamarie Smith","year":2026,"position":"WR","stars":3,"rating_247":83.0,"committed_to":null,"lat":33.7690164,"lng":-118.1916048,"hometown_city":"Long Beach","hometown_state":"CA"},{"name":"Dameon Crowe","year":2026,"position":"WR","stars":3,"rating_247":83.0,"committed_to":"Texas State","lat":32.9481789,"lng":-96.7297206,"hometown_city":"Richardson","hometown_state":"TX"},{"name":"Maxwell Young","year":2026,"position":"WR","stars":3,"rating_247":83.0,"committed_to":"Fresno State","lat":33.8347516,"lng":-117.911732,"hometown_city":"Anaheim","hometown_state":"CA"},{"name":"Koen Parnell","year":2026,"position":"WR","stars":null,"rating_247":null,"committed_to":"UC Davis","lat":37.1841,"lng":-119.4696,"hometown_city":"Santa Ana","hometown_state":"CA"},{"name":"Mark Bowman","year":2026,"position":"TE","stars":5,"rating_247":97.0,"committed_to":"USC","lat":33.7494951,"lng":-117.8732213,"hometown_city":"Santa Ana","hometown_state":"CA"},{"name":"Brock Harris","year":2026,"position":"TE","stars":4,"rating_247":94.0,"committed_to":"BYU","lat":37.104153,"lng":-113.5841313,"hometown_city":"St. George","hometown_state":"UT"},{"name":"Ty Goettsche","year":2026,"position":"TE","stars":4,"rating_247":92.0,"committed_to":"BYU","lat":39.6482059,"lng":-104.9879641,"hometown_city":"Englewood","hometown_state":"CO"},{"name":"Taimane Purcell","year":2026,"position":"TE","stars":3,"rating_247":90.0,"committed_to":"California","lat":21.304547,"lng":-157.8556764,"hometown_city":"Honolulu","hometown_state":"HI"},{"name":"Israel Briggs","year":2026,"position":"TE","stars":4,"rating_247":90.0,"committed_to":"Miami","lat":36.8252277,"lng":-119.7029194,"hometown_city":"Clovis","hometown_state":"CA"},{"name":"Xavier Tiller","year":2026,"position":"TE","stars":4,"rating_247":90.0,"committed_to":"Florida State","lat":33.5670562,"lng":-84.5810418,"hometown_city":"Fairburn","hometown_state":"GA"},{"name":"Henry Gabalis","year":2026,"position":"TE","stars":3,"rating_247":90.0,"committed_to":"Arizona","lat":47.9673056,"lng":-122.2013998,"hometown_city":"Everett","hometown_state":"WA"},{"name":"Jaivion Martin","year":2026,"position":"TE","stars":3,"rating_247":89.0,"committed_to":"Houston","lat":30.4241219,"lng":-95.4796587,"hometown_city":"Willis","hometown_state":"TX"},{"name":"Luke Sorensen","year":2026,"position":"TE","stars":3,"rating_247":89.0,"committed_to":"Nebraska","lat":33.8347516,"lng":-117.911732,"hometown_city":"Anaheim","hometown_state":"CA"},{"name":"Luke Brewer","year":2026,"position":"TE","stars":4,"rating_247":89.0,"committed_to":"Iowa","lat":41.4755461,"lng":-93.6788304,"hometown_city":"Norwalk","hometown_state":"IA"},{"name":"Julius Miles","year":2026,"position":"TE","stars":4,"rating_247":88.0,"committed_to":"Louisville","lat":30.4982516,"lng":-86.1360517,"hometown_city":"Freeport","hometown_state":"FL"},{"name":"Caleb Tafua","year":2026,"position":"TE","stars":4,"rating_247":88.0,"committed_to":"Texas A&M","lat":33.4151117,"lng":-111.8314773,"hometown_city":"Mesa","hometown_state":"AZ"},{"name":"Ar'Mari Towns","year":2026,"position":"TE","stars":null,"rating_247":88.0,"committed_to":"Purdue","lat":32.7794,"lng":-86.8287,"hometown_city":"Selma","hometown_state":"AL"},{"name":"Preston Fryzel","year":2026,"position":"TE","stars":4,"rating_247":88.0,"committed_to":"Notre Dame","lat":41.6786754,"lng":-83.5127283,"hometown_city":"Toledo","hometown_state":"OH"},{"name":"Andre Nickerson Jr.","year":2026,"position":"TE","stars":null,"rating_247":88.0,"committed_to":"SMU","lat":37.1841,"lng":-119.4696,"hometown_city":"Inglewood","hometown_state":"CA"},{"name":"Hayden Vercher","year":2026,"position":"TE","stars":4,"rating_247":88.0,"committed_to":"Arizona State","lat":34.17142715,"lng":-118.91058772974445,"hometown_city":"Thousand Oaks","hometown_state":"CA"},{"name":"Mason Bonner","year":2026,"position":"TE","stars":3,"rating_247":88.0,"committed_to":"Michigan","lat":39.7392364,"lng":-104.9848623,"hometown_city":"Denver","hometown_state":"CO"},{"name":"Keawe Browne","year":2026,"position":"TE","stars":3,"rating_247":88.0,"committed_to":"Boise State","lat":33.8752945,"lng":-117.5664449,"hometown_city":"Corona","hometown_state":"CA"},{"name":"Kai Wesley","year":2026,"position":"TE","stars":3,"rating_247":88.0,"committed_to":"Baylor","lat":40.2971825,"lng":-111.694943,"hometown_city":"Orem","hometown_state":"UT"},{"name":"Josiah Jefferson","year":2026,"position":"TE","stars":null,"rating_247":88.0,"committed_to":"USC","lat":37.1841,"lng":-119.4696,"hometown_city":"Chula Vista","hometown_state":"CA"},{"name":"Aveon Williams","year":2026,"position":"TE","stars":3,"rating_247":87.0,"committed_to":"UNLV","lat":32.8795022,"lng":-111.7573521,"hometown_city":"Casa Grande","hometown_state":"AZ"},{"name":"Arley Morrell","year":2026,"position":"TE","stars":3,"rating_247":87.0,"committed_to":"Kansas State","lat":37.6439071,"lng":-98.7375911,"hometown_city":"Pratt","hometown_state":"KS"},{"name":"Parker Ord","year":2026,"position":"TE","stars":3,"rating_247":87.0,"committed_to":"BYU","lat":33.1506744,"lng":-96.8236116,"hometown_city":"Frisco","hometown_state":"TX"},{"name":"Adam Land","year":2026,"position":"TE","stars":3,"rating_247":85.0,"committed_to":"Mississippi State","lat":30.2454776,"lng":-85.648261,"hometown_city":"Lynn Haven","hometown_state":"FL"},{"name":"Bear Fisher","year":2026,"position":"TE","stars":3,"rating_247":85.0,"committed_to":"Utah","lat":33.2483858,"lng":-111.6341585,"hometown_city":"Queen Creek","hometown_state":"AZ"},{"name":"Bryton Niu","year":2026,"position":"TE","stars":3,"rating_247":84.0,"committed_to":"Utah Tech","lat":40.3880902,"lng":-111.8491619,"hometown_city":"Lehi","hometown_state":"UT"},{"name":"Luke Lopez","year":2026,"position":"TE","stars":3,"rating_247":83.0,"committed_to":null,"lat":34.0133561,"lng":-117.690075,"hometown_city":"Chino","hometown_state":"CA"},{"name":"Elijah Muliufi","year":2026,"position":"TE","stars":3,"rating_247":83.0,"committed_to":"San Diego State","lat":47.0979462,"lng":-122.4243422,"hometown_city":"Spanaway","hometown_state":"WA"},{"name":"Kodi Greene","year":2026,"position":"OT","stars":5,"rating_247":98.0,"committed_to":"Washington","lat":33.7494951,"lng":-117.8732213,"hometown_city":"Santa Ana","hometown_state":"CA"},{"name":"Kelvin Obot","year":2026,"position":"OT","stars":5,"rating_247":97.0,"committed_to":"Utah","lat":44.0076639,"lng":-116.9165461,"hometown_city":"Fruitland","hometown_state":"ID"},{"name":"Tommy Tofi","year":2026,"position":"OT","stars":4,"rating_247":97.0,"committed_to":"Oregon","lat":37.7790262,"lng":-122.4199061,"hometown_city":"San Francisco","hometown_state":"CA"},{"name":"Malakai Lee","year":2026,"position":"OT","stars":4,"rating_247":95.0,"committed_to":"Michigan","lat":21.304547,"lng":-157.8556764,"hometown_city":"Honolulu","hometown_state":"HI"},{"name":"Vlad Dyakonov","year":2026,"position":"OT","stars":4,"rating_247":94.0,"committed_to":"USC","lat":38.6779591,"lng":-121.1760583,"hometown_city":"Folsom","hometown_state":"CA"},{"name":"Bryce Gilmore","year":2026,"position":"OT","stars":4,"rating_247":93.0,"committed_to":"Texas Tech","lat":33.2385763,"lng":-96.7866058,"hometown_city":"Prosper","hometown_state":"TX"},{"name":"Mataalii Benjamin","year":2026,"position":"OT","stars":4,"rating_247":92.0,"committed_to":"Utah","lat":40.3880902,"lng":-111.8491619,"hometown_city":"Lehi","hometown_state":"UT"},{"name":"Justin Morales","year":2026,"position":"OT","stars":4,"rating_247":91.0,"committed_to":"Arizona","lat":31.7754152,"lng":-106.4646348,"hometown_city":"El Paso","hometown_state":"TX"},{"name":"Malachi Joyner","year":2026,"position":"OT","stars":4,"rating_247":91.0,"committed_to":"Arizona","lat":33.3527632,"lng":-111.7890373,"hometown_city":"Gilbert","hometown_state":"AZ"},{"name":"Nicholas Howard","year":2026,"position":"OT","stars":4,"rating_247":90.0,"committed_to":"Pittsburgh","lat":29.5639758,"lng":-95.2864299,"hometown_city":"Pearland","hometown_state":"TX"},{"name":"Collin Campbell","year":2026,"position":"OT","stars":4,"rating_247":90.0,"committed_to":"Michigan State","lat":33.3527632,"lng":-111.7890373,"hometown_city":"Gilbert","hometown_state":"AZ"},{"name":"Kole Cronin","year":2026,"position":"OT","stars":3,"rating_247":90.0,"committed_to":"Boise State","lat":39.5261206,"lng":-119.8126581,"hometown_city":"Reno","hometown_state":"NV"},{"name":"Cortavious Tisaby","year":2026,"position":"OT","stars":3,"rating_247":90.0,"committed_to":"Arizona State","lat":32.7762719,"lng":-96.7968559,"hometown_city":"Dallas","hometown_state":"TX"},{"name":"Sam Utu","year":2026,"position":"OT","stars":4,"rating_247":88.0,"committed_to":"SMU","lat":33.7872568,"lng":-117.8503088,"hometown_city":"Orange","hometown_state":"CA"},{"name":"Kole Seaton","year":2026,"position":"OT","stars":3,"rating_247":88.0,"committed_to":"Oklahoma State","lat":32.7666103,"lng":-96.599472,"hometown_city":"Mesquite","hometown_state":"TX"},{"name":"Max Wright","year":2026,"position":"OT","stars":3,"rating_247":88.0,"committed_to":"SMU","lat":33.2860549,"lng":-96.5725952,"hometown_city":"Melissa","hometown_state":"TX"},{"name":"Aaron Thomas","year":2026,"position":"OT","stars":3,"rating_247":88.0,"committed_to":"Minnesota","lat":33.4484367,"lng":-112.0741417,"hometown_city":"Phoenix","hometown_state":"AZ"},{"name":"Kannon Smith","year":2026,"position":"OT","stars":3,"rating_247":88.0,"committed_to":"USC","lat":39.613321,"lng":-105.0166498,"hometown_city":"Littleton","hometown_state":"CO"},{"name":"Dominic Harris","year":2026,"position":"OT","stars":3,"rating_247":88.0,"committed_to":"Washington","lat":36.1672559,"lng":-115.1485163,"hometown_city":"Las Vegas","hometown_state":"NV"},{"name":"Keegan Collins","year":2026,"position":"OT","stars":3,"rating_247":88.0,"committed_to":"Kansas State","lat":34.9798392,"lng":-101.9193395,"hometown_city":"Canyon","hometown_state":"TX"},{"name":"TJ Taylor","year":2026,"position":"OT","stars":null,"rating_247":88.0,"committed_to":"Illinois","lat":37.1841,"lng":-119.4696,"hometown_city":"Valencia","hometown_state":"CA"},{"name":"Esaiah Wong","year":2026,"position":"OT","stars":3,"rating_247":87.0,"committed_to":"California","lat":21.394833,"lng":-157.72989134661873,"hometown_city":"Kailua","hometown_state":"HI"},{"name":"Quinn Buckey","year":2026,"position":"OT","stars":3,"rating_247":87.0,"committed_to":"UCLA","lat":35.3738712,"lng":-119.0194639,"hometown_city":"Bakersfield","hometown_state":"CA"},{"name":"Tripp Skewes","year":2026,"position":"OT","stars":3,"rating_247":87.0,"committed_to":"Vanderbilt","lat":39.6482059,"lng":-104.9879641,"hometown_city":"Englewood","hometown_state":"CO"},{"name":"Elisha Faamatuainu","year":2026,"position":"OT","stars":3,"rating_247":87.0,"committed_to":"California","lat":33.577752399999994,"lng":-117.18845420205307,"hometown_city":"Murrieta","hometown_state":"CA"},{"name":"Xavier Payne","year":2026,"position":"OT","stars":3,"rating_247":86.0,"committed_to":"Colorado","lat":28.5421109,"lng":-81.3790304,"hometown_city":"Orlando","hometown_state":"FL"},{"name":"Khalil Sanogo","year":2026,"position":"OT","stars":3,"rating_247":86.0,"committed_to":"Arizona","lat":32.5631924,"lng":-97.1416768,"hometown_city":"Mansfield","hometown_state":"TX"},{"name":"Josiah Manu","year":2026,"position":"OT","stars":3,"rating_247":86.0,"committed_to":"Colorado","lat":40.385549,"lng":-105.04436132094955,"hometown_city":"Loveland","hometown_state":"CO"},{"name":"Derek Worden","year":2026,"position":"OT","stars":3,"rating_247":85.0,"committed_to":"Iowa State","lat":33.2483858,"lng":-111.6341585,"hometown_city":"Queen Creek","hometown_state":"AZ"},{"name":"Iosua Faleagafua","year":2026,"position":"OT","stars":3,"rating_247":84.0,"committed_to":"Boise State","lat":39.0800023,"lng":-122.5963989,"hometown_city":"Spring Valley","hometown_state":"CA"},{"name":"Matekitonga Havea","year":2026,"position":"OT","stars":3,"rating_247":83.0,"committed_to":"Utah State","lat":40.3880902,"lng":-111.8491619,"hometown_city":"Lehi","hometown_state":"UT"},{"name":"Lamar Brown","year":2026,"position":"IOL","stars":5,"rating_247":99.0,"committed_to":"LSU","lat":30.4459596,"lng":-91.18738,"hometown_city":"Baton Rouge","hometown_state":"LA"},{"name":"Esun Tafa","year":2026,"position":"IOL","stars":4,"rating_247":94.0,"committed_to":"USC","lat":40.5246711,"lng":-111.8638226,"hometown_city":"Draper","hometown_state":"UT"},{"name":"Zaden Krempin","year":2026,"position":"IOL","stars":4,"rating_247":90.0,"committed_to":"Texas A&M","lat":33.2385763,"lng":-96.7866058,"hometown_city":"Prosper","hometown_state":"TX"},{"name":"Will Conroy","year":2026,"position":"IOL","stars":3,"rating_247":89.0,"committed_to":"North Carolina","lat":27.4989278,"lng":-82.5748194,"hometown_city":"Bradenton","hometown_state":"FL"},{"name":"Drew Evers","year":2026,"position":"IOL","stars":4,"rating_247":89.0,"committed_to":"SMU","lat":33.0283854,"lng":-97.0867203,"hometown_city":"Flower Mound","hometown_state":"TX"},{"name":"Da'Ron Parks","year":2026,"position":"IOL","stars":4,"rating_247":88.0,"committed_to":"North Carolina","lat":38.417919499999996,"lng":-81.84361448523134,"hometown_city":"Nitro","hometown_state":"WV"},{"name":"Kamo'i Huihui-White","year":2026,"position":"IOL","stars":3,"rating_247":88.0,"committed_to":"California","lat":21.304547,"lng":-157.8556764,"hometown_city":"Honolulu","hometown_state":"HI"},{"name":"Jalayne Miller","year":2026,"position":"IOL","stars":4,"rating_247":88.0,"committed_to":"Stanford","lat":33.4353672,"lng":-112.3576005,"hometown_city":"Goodyear","hometown_state":"AZ"},{"name":"Tucker Smith","year":2026,"position":"IOL","stars":3,"rating_247":87.0,"committed_to":"Ohio State","lat":33.5386858,"lng":-112.1859941,"hometown_city":"Glendale","hometown_state":"AZ"},{"name":"Koloi Keli","year":2026,"position":"IOL","stars":3,"rating_247":87.0,"committed_to":"Oregon","lat":21.304547,"lng":-157.8556764,"hometown_city":"Honolulu","hometown_state":"HI"},{"name":"Jerald Mays","year":2026,"position":"IOL","stars":3,"rating_247":87.0,"committed_to":"Texas Tech","lat":30.4393696,"lng":-97.6200043,"hometown_city":"Pflugerville","hometown_state":"TX"},{"name":"George Williams-Haseotes","year":2026,"position":"IOL","stars":null,"rating_247":86.0,"committed_to":"Vanderbilt","lat":28.6305,"lng":-82.4497,"hometown_city":"Naples","hometown_state":"FL"},{"name":"Kaden Scherer","year":2026,"position":"IOL","stars":3,"rating_247":86.0,"committed_to":"Texas","lat":30.671598,"lng":-97.65500660120435,"hometown_city":"Georgetown","hometown_state":"TX"},{"name":"Toa Katoa","year":2026,"position":"IOL","stars":null,"rating_247":86.0,"committed_to":"SMU","lat":31.4757,"lng":-99.3312,"hometown_city":"Euless","hometown_state":"TX"},{"name":"Miller Carter","year":2026,"position":"IOL","stars":3,"rating_247":85.0,"committed_to":null,"lat":40.7596198,"lng":-111.8867975,"hometown_city":"Salt Lake City","hometown_state":"UT"},{"name":"John Fifita","year":2026,"position":"IOL","stars":3,"rating_247":85.0,"committed_to":"USC","lat":37.3893889,"lng":-122.0832101,"hometown_city":"Mountain View","hometown_state":"CA"},{"name":"Nathan Allen","year":2026,"position":"IOL","stars":3,"rating_247":85.0,"committed_to":"Arizona","lat":33.1580933,"lng":-117.3505966,"hometown_city":"Carlsbad","hometown_state":"CA"},{"name":"Ben Jones","year":2026,"position":"IOL","stars":3,"rating_247":84.0,"committed_to":"Appalachian State","lat":28.5421109,"lng":-81.3790304,"hometown_city":"Orlando","hometown_state":"FL"},{"name":"Sunia Vuki","year":2026,"position":"IOL","stars":3,"rating_247":84.0,"committed_to":null,"lat":38.6779591,"lng":-121.1760583,"hometown_city":"Folsom","hometown_state":"CA"},{"name":"Adrian Tavui","year":2026,"position":"IOL","stars":3,"rating_247":84.0,"committed_to":null,"lat":33.8825705,"lng":-118.1167679,"hometown_city":"Bellflower","hometown_state":"CA"},{"name":"Michael Langi","year":2026,"position":"IOL","stars":3,"rating_247":83.0,"committed_to":"Oregon State","lat":37.7790262,"lng":-122.4199061,"hometown_city":"San Francisco","hometown_state":"CA"},{"name":"Blake Graham","year":2026,"position":"IOL","stars":3,"rating_247":83.0,"committed_to":"Cal Poly","lat":33.8885217,"lng":-118.3531991,"hometown_city":"Lawndale","hometown_state":"CA"},{"name":"Anthony Brown","year":2026,"position":"IOL","stars":3,"rating_247":null,"committed_to":null,"lat":39.9381682,"lng":-75.2718507,"hometown_city":"Lansdowne","hometown_state":"PA"},{"name":"Khary Wilder","year":2026,"position":"Edge","stars":4,"rating_247":95.0,"committed_to":"Ohio State","lat":33.8963593,"lng":-118.3053037,"hometown_city":"Gardena","hometown_state":"CA"},{"name":"Carter Buck","year":2026,"position":"Edge","stars":4,"rating_247":92.0,"committed_to":"TCU","lat":30.2711286,"lng":-97.7436995,"hometown_city":"Austin","hometown_state":"TX"},{"name":"Lopeti Moala","year":2026,"position":"Edge","stars":4,"rating_247":91.0,"committed_to":"BYU","lat":40.2971825,"lng":-111.694943,"hometown_city":"Orem","hometown_state":"UT"},{"name":"Julian Hugo","year":2026,"position":"Edge","stars":4,"rating_247":91.0,"committed_to":"Arizona State","lat":29.5707831,"lng":-98.2330927,"hometown_city":"Cibolo","hometown_state":"TX"},{"name":"Shaun Scott","year":2026,"position":"Edge","stars":4,"rating_247":90.0,"committed_to":"USC","lat":33.7494951,"lng":-117.8732213,"hometown_city":"Santa Ana","hometown_state":"CA"},{"name":"Yahya Gaad","year":2026,"position":"Edge","stars":3,"rating_247":88.0,"committed_to":"Wisconsin","lat":35.8028453,"lng":-88.7747808,"hometown_city":"Medina","hometown_state":"TN"},{"name":"Max Meier","year":2026,"position":"Edge","stars":3,"rating_247":88.0,"committed_to":"Stanford","lat":34.0536909,"lng":-118.2427666,"hometown_city":"Los Angeles","hometown_state":"CA"},{"name":"Jaylen Stewart","year":2026,"position":"Edge","stars":3,"rating_247":88.0,"committed_to":"Illinois","lat":29.5639758,"lng":-95.2864299,"hometown_city":"Pearland","hometown_state":"TX"},{"name":"Dutch Horisk","year":2026,"position":"Edge","stars":3,"rating_247":88.0,"committed_to":"Oregon","lat":33.8825705,"lng":-118.1167679,"hometown_city":"Bellflower","hometown_state":"CA"},{"name":"Prin Fox","year":2026,"position":"Edge","stars":null,"rating_247":87.0,"committed_to":"UNLV","lat":47.3826,"lng":-120.4472,"hometown_city":"Cashmere","hometown_state":"WA"},{"name":"Adruen Meredith","year":2026,"position":"Edge","stars":3,"rating_247":86.0,"committed_to":null,"lat":40.3880902,"lng":-111.8491619,"hometown_city":"Lehi","hometown_state":"UT"},{"name":"Dycin Davis","year":2026,"position":"Edge","stars":3,"rating_247":85.0,"committed_to":"UTEP","lat":32.44645,"lng":-99.7475905,"hometown_city":"Abilene","hometown_state":"TX"},{"name":"Philander Lee","year":2026,"position":"Edge","stars":null,"rating_247":85.0,"committed_to":null,"lat":37.1841,"lng":-119.4696,"hometown_city":"Riverside","hometown_state":"CA"},{"name":"Harvie Moeai","year":2026,"position":"Edge","stars":3,"rating_247":84.0,"committed_to":"Arizona","lat":40.3880902,"lng":-111.8491619,"hometown_city":"Lehi","hometown_state":"UT"},{"name":"Bastian Vanden Bosch","year":2026,"position":"Edge","stars":3,"rating_247":84.0,"committed_to":null,"lat":33.4484367,"lng":-112.0741417,"hometown_city":"Phoenix","hometown_state":"AZ"},{"name":"Tomuhini Topui","year":2026,"position":"DL","stars":4,"rating_247":95.0,"committed_to":"USC","lat":33.7494951,"lng":-117.8732213,"hometown_city":"Santa Ana","hometown_state":"CA"},{"name":"Tony Cumberland","year":2026,"position":"DL","stars":4,"rating_247":95.0,"committed_to":"Oregon","lat":44.0505054,"lng":-123.0950506,"hometown_city":"Eugene","hometown_state":"OR"},{"name":"Bott Mulitalo","year":2026,"position":"DL","stars":4,"rating_247":94.0,"committed_to":"BYU","lat":40.3768954,"lng":-111.7957645,"hometown_city":"American Fork","hometown_state":"UT"},{"name":"Simote Katoanga","year":2026,"position":"DL","stars":4,"rating_247":92.0,"committed_to":"USC","lat":33.6408845,"lng":-117.6029341,"hometown_city":"Rancho Santa Margarita","hometown_state":"CA"},{"name":"Jimmy-Phrisco Alo-Suliafu","year":2026,"position":"DL","stars":3,"rating_247":90.0,"committed_to":"North Carolina","lat":29.690292,"lng":-95.8996261,"hometown_city":"Fulshear","hometown_state":"TX"},{"name":"David Chukwuemeka","year":2026,"position":"DL","stars":null,"rating_247":90.0,"committed_to":"SMU","lat":37.1841,"lng":-119.4696,"hometown_city":"Monterey Park","hometown_state":"CA"},{"name":"Tufanua Ionatana Umu-Cais","year":2026,"position":"DL","stars":3,"rating_247":89.0,"committed_to":"Washington","lat":39.6482059,"lng":-104.9879641,"hometown_city":"Englewood","hometown_state":"CO"},{"name":"Jermaine Kinsler","year":2026,"position":"DL","stars":4,"rating_247":89.0,"committed_to":"Texas A&M","lat":40.9543943,"lng":-74.0308504,"hometown_city":"Oradell","hometown_state":"NJ"},{"name":"Preston Carey","year":2026,"position":"DL","stars":3,"rating_247":88.0,"committed_to":"Georgia","lat":27.4989278,"lng":-82.5748194,"hometown_city":"Bradenton","hometown_state":"FL"},{"name":"Nemyah Telona","year":2026,"position":"DL","stars":3,"rating_247":88.0,"committed_to":"California","lat":37.9768525,"lng":-122.0335624,"hometown_city":"Concord","hometown_state":"CA"},{"name":"Daryl Campbell","year":2026,"position":"DL","stars":3,"rating_247":88.0,"committed_to":"Vanderbilt","lat":29.7857853,"lng":-95.8243956,"hometown_city":"Katy","hometown_state":"TX"},{"name":"Tiki Hola","year":2026,"position":"DL","stars":4,"rating_247":88.0,"committed_to":"Notre Dame","lat":30.1104947,"lng":-97.3152701,"hometown_city":"Bastrop","hometown_state":"TX"},{"name":"Viliami Moala","year":2026,"position":"DL","stars":3,"rating_247":88.0,"committed_to":"North Carolina","lat":33.2442813,"lng":-86.8163773,"hometown_city":"Alabaster","hometown_state":"AL"},{"name":"Keytrin Harris","year":2026,"position":"DL","stars":3,"rating_247":87.0,"committed_to":"Arizona","lat":33.3062223,"lng":-111.8413317,"hometown_city":"Chandler","hometown_state":"AZ"},{"name":"Joseph Peko","year":2026,"position":"DL","stars":3,"rating_247":87.0,"committed_to":"Washington","lat":34.1460234,"lng":-118.8061794,"hometown_city":"Westlake Village","hometown_state":"CA"},{"name":"Prince Williams","year":2026,"position":"DL","stars":3,"rating_247":87.0,"committed_to":"Arizona","lat":36.1672559,"lng":-115.1485163,"hometown_city":"Las Vegas","hometown_state":"NV"},{"name":"Dakota Dickson","year":2026,"position":"DL","stars":3,"rating_247":87.0,"committed_to":"SMU","lat":37.8215929,"lng":-121.9999606,"hometown_city":"Danville","hometown_state":"CA"},{"name":"Manoah Faupusa","year":2026,"position":"DL","stars":3,"rating_247":86.0,"committed_to":"Arizona","lat":33.6408845,"lng":-117.6029341,"hometown_city":"Rancho Santa Margarita","hometown_state":"CA"},{"name":"Ronald Derrick III","year":2026,"position":"DL","stars":null,"rating_247":86.0,"committed_to":"Northwestern","lat":31.4757,"lng":-99.3312,"hometown_city":"Waco","hometown_state":"TX"},{"name":"Deuce Alailefaleula","year":2026,"position":"DL","stars":3,"rating_247":86.0,"committed_to":"Boise State","lat":61.2163129,"lng":-149.8948523,"hometown_city":"Anchorage","hometown_state":"AK"},{"name":"Nehemiah Kolone","year":2026,"position":"DL","stars":3,"rating_247":86.0,"committed_to":"BYU","lat":36.1156306,"lng":-97.0585717,"hometown_city":"Stillwater","hometown_state":"OK"},{"name":"Tavion Atkinson","year":2026,"position":"DL","stars":null,"rating_247":86.0,"committed_to":"SMU","lat":31.4757,"lng":-99.3312,"hometown_city":"Athens","hometown_state":"TX"},{"name":"Kevin Moorer","year":2026,"position":"DL","stars":null,"rating_247":86.0,"committed_to":"Arizona","lat":38.4937,"lng":-98.3804,"hometown_city":"Hutchinson","hometown_state":"KS"},{"name":"Malik Brooks","year":2026,"position":"DL","stars":3,"rating_247":85.0,"committed_to":"USC","lat":33.942215,"lng":-118.1235646,"hometown_city":"Downey","hometown_state":"CA"},{"name":"Maddox Flynt","year":2026,"position":"DL","stars":3,"rating_247":85.0,"committed_to":"TCU","lat":30.2711286,"lng":-97.7436995,"hometown_city":"Austin","hometown_state":"TX"},{"name":"Bronx Letuligasenoa","year":2026,"position":"DL","stars":3,"rating_247":85.0,"committed_to":"San Jose State","lat":32.7174209,"lng":-117.1627714,"hometown_city":"San Diego","hometown_state":"CA"},{"name":"Josiah Anyansi","year":2026,"position":"DL","stars":3,"rating_247":85.0,"committed_to":"Minnesota","lat":33.577752399999994,"lng":-117.18845420205307,"hometown_city":"Murrieta","hometown_state":"CA"},{"name":"Ta'a Malu","year":2026,"position":"DL","stars":3,"rating_247":85.0,"committed_to":"Washington","lat":47.2495798,"lng":-122.4398746,"hometown_city":"Tacoma","hometown_state":"WA"},{"name":"Roman Paseka","year":2026,"position":"DL","stars":3,"rating_247":85.0,"committed_to":"San Diego State","lat":33.5016932,"lng":-117.6625509,"hometown_city":"San Juan Capistrano","hometown_state":"CA"},{"name":"Cam Christian","year":2026,"position":"DL","stars":null,"rating_247":84.0,"committed_to":"Texas State","lat":31.4757,"lng":-99.3312,"hometown_city":"Kilgore","hometown_state":"TX"},{"name":"Kaisi Lafitaga","year":2026,"position":"DL","stars":3,"rating_247":84.0,"committed_to":"Arizona","lat":-14.2754786,"lng":-170.7048298,"hometown_city":"Pago Pago","hometown_state":"AS"},{"name":"Laneselota Olive-Enos","year":2026,"position":"DL","stars":3,"rating_247":83.0,"committed_to":"Portland State","lat":33.8825705,"lng":-118.1167679,"hometown_city":"Bellflower","hometown_state":"CA"},{"name":"Ejay Tapeni","year":2026,"position":"DL","stars":3,"rating_247":83.0,"committed_to":null,"lat":21.4508308,"lng":-158.0095783,"hometown_city":"Mililani","hometown_state":"HI"},{"name":"Noah Banhie","year":2026,"position":"DL","stars":null,"rating_247":null,"committed_to":null,"lat":34.2744,"lng":-111.6602,"hometown_city":"Tucson","hometown_state":"AZ"},{"name":"Talanoa Ili","year":2026,"position":"LB","stars":4,"rating_247":95.0,"committed_to":"USC","lat":21.679124,"lng":-157.94838,"hometown_city":"Kahuku","hometown_state":"HI"},{"name":"Ramzak Fruean","year":2026,"position":"LB","stars":3,"rating_247":92.0,"committed_to":"Washington","lat":47.0979462,"lng":-122.4243422,"hometown_city":"Spanaway","hometown_state":"WA"},{"name":"Rocky Cummings","year":2026,"position":"LB","stars":3,"rating_247":91.0,"committed_to":"Texas","lat":33.1580933,"lng":-117.3505966,"hometown_city":"Carlsbad","hometown_state":"CA"},{"name":"Tristan Phillips","year":2026,"position":"LB","stars":4,"rating_247":91.0,"committed_to":"Oregon","lat":34.3435092,"lng":-119.29560423163717,"hometown_city":"Ventura","hometown_state":"CA"},{"name":"Tank King","year":2026,"position":"LB","stars":4,"rating_247":91.0,"committed_to":"Texas A&M","lat":29.8988618,"lng":-93.9288723,"hometown_city":"Port Arthur","hometown_state":"TX"},{"name":"Kasen Thomas","year":2026,"position":"LB","stars":4,"rating_247":90.0,"committed_to":"Iowa","lat":42.4966815,"lng":-96.4058782,"hometown_city":"Sioux City","hometown_state":"IA"},{"name":"Calvin Thomas","year":2026,"position":"LB","stars":4,"rating_247":89.0,"committed_to":"North Carolina","lat":29.9691116,"lng":-95.6971686,"hometown_city":"Cypress","hometown_state":"TX"},{"name":"Samu Moala","year":2026,"position":"LB","stars":4,"rating_247":88.0,"committed_to":"Texas A&M","lat":33.8885217,"lng":-118.3531991,"hometown_city":"Lawndale","hometown_state":"CA"},{"name":"Reston Lehman","year":2026,"position":"LB","stars":4,"rating_247":88.0,"committed_to":"Pittsburgh","lat":40.2625702,"lng":-80.1872797,"hometown_city":"Canonsburg","hometown_state":"PA"},{"name":"JD McKinley","year":2026,"position":"LB","stars":null,"rating_247":88.0,"committed_to":"California","lat":37.1841,"lng":-119.4696,"hometown_city":"Corona","hometown_state":"CA"},{"name":"Hudson Dunn","year":2026,"position":"LB","stars":3,"rating_247":87.0,"committed_to":"Minnesota","lat":33.5806115,"lng":-112.2372942,"hometown_city":"Peoria","hometown_state":"AZ"},{"name":"Jaden Parker","year":2026,"position":"LB","stars":3,"rating_247":87.0,"committed_to":"Arizona","lat":33.34928,"lng":-96.54938,"hometown_city":"Anna","hometown_state":"TX"},{"name":"Colsen Gatten","year":2026,"position":"LB","stars":3,"rating_247":87.0,"committed_to":"Duke","lat":40.4416941,"lng":-79.9900861,"hometown_city":"Pittsburgh","hometown_state":"PA"},{"name":"Bryson Castile","year":2026,"position":"LB","stars":3,"rating_247":87.0,"committed_to":"Houston","lat":32.701938999999996,"lng":-97.10562379033699,"hometown_city":"Arlington","hometown_state":"TX"},{"name":"Ezaya Tokio","year":2026,"position":"LB","stars":3,"rating_247":87.0,"committed_to":"Washington","lat":33.1958696,"lng":-117.3794834,"hometown_city":"Oceanside","hometown_state":"CA"},{"name":"Beau Jandreau","year":2026,"position":"LB","stars":3,"rating_247":86.0,"committed_to":"Oklahoma","lat":33.3062223,"lng":-111.8413317,"hometown_city":"Chandler","hometown_state":"AZ"},{"name":"Colby Johnson","year":2026,"position":"LB","stars":3,"rating_247":86.0,"committed_to":"Colorado","lat":47.6088445,"lng":-122.0423067,"hometown_city":"Sammamish","hometown_state":"WA"},{"name":"Taylor Johnson","year":2026,"position":"LB","stars":3,"rating_247":86.0,"committed_to":"USC","lat":34.1083449,"lng":-117.2897652,"hometown_city":"San Bernardino","hometown_state":"CA"},{"name":"Ronnell Hewitt Jr.","year":2026,"position":"LB","stars":3,"rating_247":85.0,"committed_to":"UNLV","lat":34.2032325,"lng":-118.645476,"hometown_city":"West Hills","hometown_state":"CA"},{"name":"Dash Fifita","year":2026,"position":"LB","stars":3,"rating_247":84.0,"committed_to":"Arizona","lat":33.6408845,"lng":-117.6029341,"hometown_city":"Rancho Santa Margarita","hometown_state":"CA"},{"name":"Chase Cahoon","year":2026,"position":"LB","stars":3,"rating_247":84.0,"committed_to":"Stanford","lat":37.3893889,"lng":-122.0832101,"hometown_city":"Mountain View","hometown_state":"CA"},{"name":"Fifita Moore","year":2026,"position":"LB","stars":3,"rating_247":83.0,"committed_to":"Princeton","lat":33.8752945,"lng":-117.5664449,"hometown_city":"Corona","hometown_state":"CA"},{"name":"Danny Odem III","year":2026,"position":"CB","stars":null,"rating_247":98.0,"committed_to":"Nebraska","lat":28.6305,"lng":-82.4497,"hometown_city":"Orlando","hometown_state":"FL"},{"name":"Khary Adams","year":2026,"position":"CB","stars":5,"rating_247":97.0,"committed_to":"Notre Dame","lat":39.4018552,"lng":-76.602388,"hometown_city":"Towson","hometown_state":"MD"},{"name":"Salesi Moa","year":2026,"position":"CB","stars":4,"rating_247":95.0,"committed_to":"Utah","lat":41.2230048,"lng":-111.9738429,"hometown_city":"Ogden","hometown_state":"UT"},{"name":"Camren Hamiel","year":2026,"position":"CB","stars":4,"rating_247":93.0,"committed_to":"Texas A&M","lat":33.4353672,"lng":-112.3576005,"hometown_city":"Goodyear","hometown_state":"AZ"},{"name":"Jamarion Vincent","year":2026,"position":"CB","stars":4,"rating_247":93.0,"committed_to":"Michigan","lat":31.549333,"lng":-97.1466695,"hometown_city":"Waco","hometown_state":"TX"},{"name":"S'Vioarean Martin","year":2026,"position":"CB","stars":4,"rating_247":93.0,"committed_to":"Texas Tech","lat":31.7621153,"lng":-95.6307891,"hometown_city":"Palestine","hometown_state":"TX"},{"name":"Xaier Hiler","year":2026,"position":"CB","stars":4,"rating_247":92.0,"committed_to":"Arizona","lat":33.2150386,"lng":-97.1330516,"hometown_city":"Denton","hometown_state":"TX"},{"name":"Derrick Johnson II","year":2026,"position":"CB","stars":4,"rating_247":92.0,"committed_to":"Oklahoma","lat":33.577752399999994,"lng":-117.18845420205307,"hometown_city":"Murrieta","hometown_state":"CA"},{"name":"Havon Finney Jr.","year":2026,"position":"CB","stars":null,"rating_247":91.0,"committed_to":"LSU","lat":37.1841,"lng":-119.4696,"hometown_city":"Chatsworth","hometown_state":"CA"},{"name":"Zech Fort","year":2026,"position":"CB","stars":4,"rating_247":91.0,"committed_to":"Georgia","lat":27.4989278,"lng":-82.5748194,"hometown_city":"Bradenton","hometown_state":"FL"},{"name":"Donovan Webb","year":2026,"position":"CB","stars":4,"rating_247":90.0,"committed_to":"Texas Tech","lat":33.1506744,"lng":-96.8236116,"hometown_city":"Frisco","hometown_state":"TX"},{"name":"Jeron Jones","year":2026,"position":"CB","stars":4,"rating_247":90.0,"committed_to":"Washington","lat":33.5965685,"lng":-117.659405,"hometown_city":"Mission Viejo","hometown_state":"CA"},{"name":"Brandon Lockhart","year":2026,"position":"CB","stars":4,"rating_247":89.0,"committed_to":"USC","lat":34.2595715,"lng":-118.6023247,"hometown_city":"Chatsworth","hometown_state":"CA"},{"name":"Aisa Galea'i","year":2026,"position":"CB","stars":3,"rating_247":89.0,"committed_to":"Utah","lat":40.2971825,"lng":-111.694943,"hometown_city":"Orem","hometown_state":"UT"},{"name":"Josiah Vilmael","year":2026,"position":"CB","stars":3,"rating_247":88.0,"committed_to":"Kansas State","lat":29.5821811,"lng":-95.7607832,"hometown_city":"Richmond","hometown_state":"TX"},{"name":"Xavier Harmon","year":2026,"position":"CB","stars":3,"rating_247":88.0,"committed_to":"Stanford","lat":30.3118769,"lng":-95.4560512,"hometown_city":"Conroe","hometown_state":"TX"},{"name":"Joshua Holland II","year":2026,"position":"CB","stars":null,"rating_247":88.0,"committed_to":"USC","lat":37.1841,"lng":-119.4696,"hometown_city":"Bellflower","hometown_state":"CA"},{"name":"Marcellous Ryan","year":2026,"position":"CB","stars":3,"rating_247":87.0,"committed_to":"Portland State","lat":33.8963593,"lng":-118.3053037,"hometown_city":"Gardena","hometown_state":"CA"},{"name":"Victor Lincoln Jr.","year":2026,"position":"CB","stars":null,"rating_247":87.0,"committed_to":"Ole Miss","lat":31.4757,"lng":-99.3312,"hometown_city":"Lancaster","hometown_state":"TX"},{"name":"Ernest Nunley","year":2026,"position":"CB","stars":3,"rating_247":87.0,"committed_to":"Michigan","lat":33.8347516,"lng":-117.911732,"hometown_city":"Anaheim","hometown_state":"CA"},{"name":"Isaiah McMillian","year":2026,"position":"CB","stars":3,"rating_247":87.0,"committed_to":"Kentucky","lat":29.7857853,"lng":-95.8243956,"hometown_city":"Katy","hometown_state":"TX"},{"name":"Elijah Durr","year":2026,"position":"CB","stars":3,"rating_247":87.0,"committed_to":"Washington","lat":47.2495798,"lng":-122.4398746,"hometown_city":"Tacoma","hometown_state":"WA"},{"name":"Madden Soliai","year":2026,"position":"CB","stars":3,"rating_247":87.0,"committed_to":"Boise State","lat":21.679124,"lng":-157.94838,"hometown_city":"Kahuku","hometown_state":"HI"},{"name":"Donovan Dunmore","year":2026,"position":"CB","stars":3,"rating_247":87.0,"committed_to":"Wisconsin","lat":36.8252277,"lng":-119.7029194,"hometown_city":"Clovis","hometown_state":"CA"},{"name":"Isaiah Lucero","year":2026,"position":"CB","stars":3,"rating_247":87.0,"committed_to":"Fresno State","lat":34.1024,"lng":-117.85486499999999,"hometown_city":"Covina","hometown_state":"CA"},{"name":"Justin Lewis","year":2026,"position":"CB","stars":3,"rating_247":86.0,"committed_to":"Colorado State","lat":33.7494951,"lng":-117.8732213,"hometown_city":"Santa Ana","hometown_state":"CA"},{"name":"Ksani Jiles","year":2026,"position":"CB","stars":3,"rating_247":86.0,"committed_to":"Washington","lat":27.4989278,"lng":-82.5748194,"hometown_city":"Bradenton","hometown_state":"FL"},{"name":"Andre Johnson","year":2026,"position":"CB","stars":3,"rating_247":86.0,"committed_to":"CSU-Pueblo","lat":34.1033192,"lng":-117.5751735,"hometown_city":"Rancho Cucamonga","hometown_state":"CA"},{"name":"Maliek Bracy","year":2026,"position":"CB","stars":3,"rating_247":86.0,"committed_to":"Oklahoma State","lat":33.110156,"lng":-97.17940980147037,"hometown_city":"Argyle","hometown_state":"TX"},{"name":"Trey Brown","year":2026,"position":"CB","stars":null,"rating_247":86.0,"committed_to":"Kansas","lat":37.1841,"lng":-119.4696,"hometown_city":"Chatsworth","hometown_state":"CA"},{"name":"Kai Wheaton","year":2026,"position":"CB","stars":3,"rating_247":86.0,"committed_to":"Oregon State","lat":33.1031744,"lng":-96.6705503,"hometown_city":"Allen","hometown_state":"TX"},{"name":"LaRon Dues","year":2026,"position":"CB","stars":3,"rating_247":86.0,"committed_to":"James Madison","lat":27.3364347,"lng":-82.5306527,"hometown_city":"Sarasota","hometown_state":"FL"},{"name":"Brock King","year":2026,"position":"CB","stars":3,"rating_247":86.0,"committed_to":"TCU","lat":29.8988618,"lng":-93.9288723,"hometown_city":"Port Arthur","hometown_state":"TX"},{"name":"Brandon Holmes","year":2026,"position":"CB","stars":null,"rating_247":86.0,"committed_to":"Utah","lat":37.1841,"lng":-119.4696,"hometown_city":"Fresno","hometown_state":"CA"},{"name":"Brandon Ford","year":2026,"position":"CB","stars":3,"rating_247":85.0,"committed_to":"Arkansas","lat":32.5782835,"lng":-97.3609829,"hometown_city":"Crowley","hometown_state":"TX"},{"name":"Parris Vernon","year":2026,"position":"CB","stars":3,"rating_247":83.0,"committed_to":"San Jose State","lat":39.0800023,"lng":-122.5963989,"hometown_city":"Spring Valley","hometown_state":"CA"},{"name":"Lebron Bauer","year":2026,"position":"CB","stars":null,"rating_247":83.0,"committed_to":"Oklahoma","lat":31.4757,"lng":-99.3312,"hometown_city":"Allen","hometown_state":"TX"},{"name":"Jeffery Johnson","year":2026,"position":"CB","stars":3,"rating_247":83.0,"committed_to":null,"lat":34.4263886,"lng":-117.3008784,"hometown_city":"Hesperia","hometown_state":"CA"},{"name":"Jayden Nicholas","year":2026,"position":"CB","stars":3,"rating_247":82.0,"committed_to":"Montana","lat":37.9768525,"lng":-122.0335624,"hometown_city":"Concord","hometown_state":"CA"},{"name":"Gavin Day","year":2026,"position":"S","stars":4,"rating_247":95.0,"committed_to":"Washington","lat":36.1672559,"lng":-115.1485163,"hometown_city":"Las Vegas","hometown_state":"NV"},{"name":"Xavier Lherisse","year":2026,"position":"S","stars":4,"rating_247":91.0,"committed_to":"Oregon","lat":28.0836269,"lng":-80.6081089,"hometown_city":"Melbourne","hometown_state":"FL"},{"name":"Jordan Deck","year":2026,"position":"S","stars":4,"rating_247":90.0,"committed_to":"Michigan","lat":33.1506744,"lng":-96.8236116,"hometown_city":"Frisco","hometown_state":"TX"},{"name":"Chace Calicut","year":2026,"position":"S","stars":4,"rating_247":88.0,"committed_to":"Georgia Southern","lat":29.7589382,"lng":-95.3676974,"hometown_city":"Houston","hometown_state":"TX"},{"name":"Braeden Presley","year":2026,"position":"S","stars":3,"rating_247":88.0,"committed_to":"Oklahoma State","lat":35.9420431,"lng":-95.8833235,"hometown_city":"Bixby","hometown_state":"OK"},{"name":"Jordan Davis","year":2026,"position":"S","stars":3,"rating_247":88.0,"committed_to":"Baylor","lat":26.0112014,"lng":-80.1494901,"hometown_city":"Hollywood","hometown_state":"FL"},{"name":"Daijon Gaines","year":2026,"position":"S","stars":3,"rating_247":88.0,"committed_to":"Pittsburg State","lat":36.1556805,"lng":-95.9929113,"hometown_city":"Tulsa","hometown_state":"OK"},{"name":"Logan Hirou","year":2026,"position":"S","stars":3,"rating_247":87.0,"committed_to":"UCLA","lat":33.6408845,"lng":-117.6029341,"hometown_city":"Rancho Santa Margarita","hometown_state":"CA"},{"name":"Hannibal Navies II","year":2026,"position":"S","stars":null,"rating_247":87.0,"committed_to":"Arizona","lat":32.6415,"lng":-83.4426,"hometown_city":"Loganville","hometown_state":"GA"},{"name":"Savion Bandy","year":2026,"position":"S","stars":3,"rating_247":85.0,"committed_to":null,"lat":38.5815719,"lng":-121.4943996,"hometown_city":"Sacramento","hometown_state":"CA"},{"name":"Griffin Tillis","year":2026,"position":"S","stars":3,"rating_247":84.0,"committed_to":null,"lat":30.0798826,"lng":-95.4172549,"hometown_city":"Spring","hometown_state":"TX"},{"name":"Brandon Arrington","year":2026,"position":"ATH","stars":5,"rating_247":98.0,"committed_to":"Texas A&M","lat":32.7174209,"lng":-117.1627714,"hometown_city":"San Diego","hometown_state":"CA"},{"name":"Jalen Lott","year":2026,"position":"ATH","stars":5,"rating_247":97.0,"committed_to":"Oregon","lat":33.1506744,"lng":-96.8236116,"hometown_city":"Frisco","hometown_state":"TX"},{"name":"Paris Melvin Jr.","year":2026,"position":"ATH","stars":4,"rating_247":94.0,"committed_to":"Houston","lat":29.9691116,"lng":-95.6971686,"hometown_city":"Cypress","hometown_state":"TX"},{"name":"Tyren Hornes","year":2026,"position":"ATH","stars":4,"rating_247":93.0,"committed_to":"UCF","lat":27.3364347,"lng":-82.5306527,"hometown_city":"Sarasota","hometown_state":"FL"},{"name":"Rahsjon Duncan","year":2026,"position":"ATH","stars":4,"rating_247":92.0,"committed_to":"Washington","lat":37.8044557,"lng":-122.2713563,"hometown_city":"Oakland","hometown_state":"CA"},{"name":"Jaron Pula","year":2026,"position":"ATH","stars":4,"rating_247":91.0,"committed_to":"BYU","lat":40.3768954,"lng":-111.7957645,"hometown_city":"American Fork","hometown_state":"UT"},{"name":"Chance Collins","year":2026,"position":"ATH","stars":4,"rating_247":91.0,"committed_to":"Texas A&M","lat":32.701938999999996,"lng":-97.10562379033699,"hometown_city":"Arlington","hometown_state":"TX"},{"name":"Trent Mosley","year":2026,"position":"ATH","stars":4,"rating_247":91.0,"committed_to":"USC","lat":33.6408845,"lng":-117.6029341,"hometown_city":"Rancho Santa Margarita","hometown_state":"CA"},{"name":"Madden Williams","year":2026,"position":"ATH","stars":4,"rating_247":90.0,"committed_to":"Texas A&M","lat":33.8825705,"lng":-118.1167679,"hometown_city":"Bellflower","hometown_state":"CA"},{"name":"Amari Latimer","year":2026,"position":"ATH","stars":4,"rating_247":90.0,"committed_to":"West Virginia","lat":33.4713249,"lng":-84.5972005,"hometown_city":"Tyrone","hometown_state":"GA"},{"name":"Julian Manson","year":2026,"position":"ATH","stars":4,"rating_247":90.0,"committed_to":"Iowa","lat":41.6612561,"lng":-91.5299106,"hometown_city":"Iowa City","hometown_state":"IA"},{"name":"Jacob Eberhart","year":2026,"position":"ATH","stars":4,"rating_247":89.0,"committed_to":"Illinois","lat":38.6268039,"lng":-90.1994097,"hometown_city":"St. Louis","hometown_state":"MO"},{"name":"Madden Riordan","year":2026,"position":"ATH","stars":3,"rating_247":88.0,"committed_to":"USC","lat":34.2595715,"lng":-118.6023247,"hometown_city":"Chatsworth","hometown_state":"CA"},{"name":"Jaden Jefferson","year":2026,"position":"ATH","stars":3,"rating_247":88.0,"committed_to":"North Carolina","lat":37.9768525,"lng":-122.0335624,"hometown_city":"Concord","hometown_state":"CA"},{"name":"Tay Lockett","year":2026,"position":"ATH","stars":3,"rating_247":87.0,"committed_to":"Arkansas","lat":32.7174209,"lng":-117.1627714,"hometown_city":"San Diego","hometown_state":"CA"},{"name":"Kaue Akana","year":2026,"position":"ATH","stars":3,"rating_247":87.0,"committed_to":"BYU","lat":40.2971825,"lng":-111.694943,"hometown_city":"Orem","hometown_state":"UT"},{"name":"Jalen Ford","year":2026,"position":"ATH","stars":3,"rating_247":87.0,"committed_to":"Utah Tech","lat":35.3738712,"lng":-119.0194639,"hometown_city":"Bakersfield","hometown_state":"CA"},{"name":"Ansu Sanoe","year":2026,"position":"ATH","stars":3,"rating_247":87.0,"committed_to":"Washington","lat":45.4206749,"lng":-122.6706498,"hometown_city":"Lake Oswego","hometown_state":"OR"},{"name":"Sam Vyhlidal","year":2026,"position":"ATH","stars":3,"rating_247":87.0,"committed_to":"Washington","lat":45.4206749,"lng":-122.6706498,"hometown_city":"Lake Oswego","hometown_state":"OR"},{"name":"Sefanaia Alatini","year":2026,"position":"ATH","stars":3,"rating_247":86.0,"committed_to":"BYU","lat":37.3893889,"lng":-122.0832101,"hometown_city":"Mountain View","hometown_state":"CA"},{"name":"Yaheim Riley","year":2026,"position":"ATH","stars":3,"rating_247":86.0,"committed_to":"Texas","lat":30.2711286,"lng":-97.7436995,"hometown_city":"Austin","hometown_state":"TX"},{"name":"Markel Dabney","year":2026,"position":"ATH","stars":3,"rating_247":86.0,"committed_to":"Michigan","lat":37.5385087,"lng":-77.43428,"hometown_city":"Richmond","hometown_state":"VA"},{"name":"Josh Mensah","year":2026,"position":"ATH","stars":null,"rating_247":86.0,"committed_to":"New Mexico","lat":37.1841,"lng":-119.4696,"hometown_city":"Rancho Cucamonga","hometown_state":"CA"},{"name":"Jerod Terry","year":2026,"position":"ATH","stars":3,"rating_247":85.0,"committed_to":"New Mexico","lat":34.2595715,"lng":-118.6023247,"hometown_city":"Chatsworth","hometown_state":"CA"},{"name":"Parker Johnson","year":2026,"position":"ATH","stars":3,"rating_247":85.0,"committed_to":null,"lat":32.7174209,"lng":-117.1627714,"hometown_city":"San Diego","hometown_state":"CA"},{"name":"Zamarie Tellez","year":2026,"position":"ATH","stars":3,"rating_247":85.0,"committed_to":"Eastern Washington","lat":47.313494,"lng":-122.3393103,"hometown_city":"Federal Way","hometown_state":"WA"},{"name":"Cedric Ross","year":2026,"position":"ATH","stars":3,"rating_247":84.0,"committed_to":"Colorado State","lat":33.5635206,"lng":-101.879336,"hometown_city":"Lubbock","hometown_state":"TX"},{"name":"Caton Cramer","year":2026,"position":"ATH","stars":3,"rating_247":84.0,"committed_to":"Air Force","lat":32.7189926,"lng":-102.6449101,"hometown_city":"Seminole","hometown_state":"TX"},{"name":"Darren Schmitt","year":2026,"position":"ATH","stars":3,"rating_247":84.0,"committed_to":"Nevada","lat":45.6306954,"lng":-122.6744557,"hometown_city":"Vancouver","hometown_state":"WA"},{"name":"Khalil Bender","year":2026,"position":"ATH","stars":3,"rating_247":84.0,"committed_to":"Northern Arizona","lat":33.2483858,"lng":-111.6341585,"hometown_city":"Queen Creek","hometown_state":"AZ"},{"name":"Rickey Johnson","year":2026,"position":"ATH","stars":3,"rating_247":84.0,"committed_to":"UC Davis","lat":35.3738712,"lng":-119.0194639,"hometown_city":"Bakersfield","hometown_state":"CA"},{"name":"Treyshaun Jackson","year":2026,"position":"ATH","stars":3,"rating_247":83.0,"committed_to":null,"lat":33.7972822,"lng":-118.3004717,"hometown_city":"Harbor City","hometown_state":"CA"},{"name":"Allen Blaylock","year":2026,"position":"ATH","stars":3,"rating_247":83.0,"committed_to":null,"lat":30.671598,"lng":-97.65500660120435,"hometown_city":"Georgetown","hometown_state":"TX"},{"name":"Demetrius Simon","year":2026,"position":"ATH","stars":3,"rating_247":83.0,"committed_to":"Cal Poly","lat":36.7295295,"lng":-119.70886126075588,"hometown_city":"Fresno","hometown_state":"CA"},{"name":"Andre Calderon","year":2026,"position":"ATH","stars":3,"rating_247":82.0,"committed_to":null,"lat":35.3738712,"lng":-119.0194639,"hometown_city":"Bakersfield","hometown_state":"CA"},{"name":"Isaiah Ene","year":2026,"position":"ATH","stars":3,"rating_247":82.0,"committed_to":"Sacramento State","lat":38.7632346,"lng":-121.1638361,"hometown_city":"Granite Bay","hometown_state":"CA"},{"name":"Jaron Liles","year":2026,"position":"ATH","stars":3,"rating_247":82.0,"committed_to":"New Mexico","lat":33.2483858,"lng":-111.6341585,"hometown_city":"Queen Creek","hometown_state":"AZ"},{"name":"Elijah Pendleton","year":2026,"position":"ATH","stars":3,"rating_247":80.0,"committed_to":null,"lat":34.1816482,"lng":-118.3258554,"hometown_city":"Burbank","hometown_state":"CA"},{"name":"Kenny Niumataevalu","year":2026,"position":"ATH","stars":null,"rating_247":null,"committed_to":null,"lat":37.1841,"lng":-119.4696,"hometown_city":"Lakewood","hometown_state":"CA"},{"name":"Jaleal Allen","year":2026,"position":"ATH","stars":null,"rating_247":null,"committed_to":"Houston Christian","lat":31.4757,"lng":-99.3312,"hometown_city":"Crowley","hometown_state":"TX"}],"2027":[{"name":"Kavian Bryant","year":2027,"position":"QB","stars":null,"rating_247":93.0,"committed_to":"Texas Tech","lat":31.4757,"lng":-99.3312,"hometown_city":"Palestine","hometown_state":"TX"},{"name":"Peyton Houston","year":2027,"position":"QB","stars":null,"rating_247":92.0,"committed_to":"LSU","lat":31.0689,"lng":-91.9968,"hometown_city":"Shreveport","hometown_state":"LA"},{"name":"Colton Nussmeier","year":2027,"position":"QB","stars":null,"rating_247":90.0,"committed_to":"Georgia","lat":31.4757,"lng":-99.3312,"hometown_city":"Denton","hometown_state":"TX"},{"name":"Kamden Lopati","year":2027,"position":"QB","stars":null,"rating_247":89.0,"committed_to":"Michigan","lat":39.321,"lng":-111.0937,"hometown_city":"Salt Lake City","hometown_state":"UT"},{"name":"Weston Nielsen","year":2027,"position":"QB","stars":null,"rating_247":89.0,"committed_to":"Arizona State","lat":31.4757,"lng":-99.3312,"hometown_city":"Bastrop","hometown_state":"TX"},{"name":"Chance Thomas","year":2027,"position":"QB","stars":null,"rating_247":88.0,"committed_to":"Kansas","lat":39.3289,"lng":-116.6312,"hometown_city":"Las Vegas","hometown_state":"NV"},{"name":"Dane Weber","year":2027,"position":"QB","stars":null,"rating_247":88.0,"committed_to":"California","lat":37.1841,"lng":-119.4696,"hometown_city":"Temecula","hometown_state":"CA"},{"name":"Caden Jones","year":2027,"position":"QB","stars":null,"rating_247":88.0,"committed_to":null,"lat":37.1841,"lng":-119.4696,"hometown_city":"Irvine","hometown_state":"CA"},{"name":"Kael Snyder","year":2027,"position":"QB","stars":null,"rating_247":87.0,"committed_to":"Boise State","lat":34.2744,"lng":-111.6602,"hometown_city":"Gilbert","hometown_state":"AZ"},{"name":"Luke Farrell","year":2027,"position":"QB","stars":null,"rating_247":86.0,"committed_to":"UNLV","lat":34.2744,"lng":-111.6602,"hometown_city":"Tempe","hometown_state":"AZ"},{"name":"Brice McCurdy","year":2027,"position":"QB","stars":null,"rating_247":86.0,"committed_to":"TCU","lat":31.4757,"lng":-99.3312,"hometown_city":"Robinson","hometown_state":"TX"},{"name":"Ryan Rakowski","year":2027,"position":"QB","stars":null,"rating_247":86.0,"committed_to":null,"lat":37.1841,"lng":-119.4696,"hometown_city":"Palos Verdes Peninsula","hometown_state":"CA"},{"name":"Jerry Meyer III","year":2027,"position":"QB","stars":null,"rating_247":85.0,"committed_to":"South Carolina","lat":31.4757,"lng":-99.3312,"hometown_city":"Waxahachie","hometown_state":"TX"},{"name":"Brody Rudnicki","year":2027,"position":"QB","stars":null,"rating_247":84.0,"committed_to":null,"lat":37.1841,"lng":-119.4696,"hometown_city":"Folsom","hometown_state":"CA"},{"name":"Hayes Cloutier","year":2027,"position":"QB","stars":null,"rating_247":null,"committed_to":null,"lat":37.1841,"lng":-119.4696,"hometown_city":"San Juan Capistrano","hometown_state":"CA"},{"name":"Landen Williams-Callis","year":2027,"position":"RB","stars":null,"rating_247":95.0,"committed_to":null,"lat":31.4757,"lng":-99.3312,"hometown_city":"Richmond","hometown_state":"TX"},{"name":"SaRod Baker","year":2027,"position":"RB","stars":null,"rating_247":94.0,"committed_to":"Texas Tech","lat":31.4757,"lng":-99.3312,"hometown_city":"DeSoto","hometown_state":"TX"},{"name":"Javian Jones-Priest","year":2027,"position":"RB","stars":null,"rating_247":89.0,"committed_to":"Virginia Tech","lat":31.4757,"lng":-99.3312,"hometown_city":"Arlington","hometown_state":"TX"},{"name":"Noah Roberts","year":2027,"position":"RB","stars":null,"rating_247":88.0,"committed_to":"Texas","lat":34.2744,"lng":-111.6602,"hometown_city":"Chandler","hometown_state":"AZ"},{"name":"Jayshon Gibson","year":2027,"position":"RB","stars":null,"rating_247":88.0,"committed_to":"UCLA","lat":31.4757,"lng":-99.3312,"hometown_city":"North Richland Hills","hometown_state":"TX"},{"name":"Wayne Shanks Jr.","year":2027,"position":"RB","stars":null,"rating_247":88.0,"committed_to":"Arizona","lat":31.4757,"lng":-99.3312,"hometown_city":"Houston","hometown_state":"TX"},{"name":"Duece Jones-Drew","year":2027,"position":"RB","stars":null,"rating_247":88.0,"committed_to":"UCLA","lat":37.1841,"lng":-119.4696,"hometown_city":"Concord","hometown_state":"CA"},{"name":"Tristan Willis","year":2027,"position":"RB","stars":null,"rating_247":88.0,"committed_to":"Georgia Tech","lat":31.4757,"lng":-99.3312,"hometown_city":"Houston","hometown_state":"TX"},{"name":"Jeremy Adeyanju","year":2027,"position":"RB","stars":null,"rating_247":88.0,"committed_to":"Washington","lat":34.2744,"lng":-111.6602,"hometown_city":"Glendale","hometown_state":"AZ"},{"name":"Terrance Grant Jr.","year":2027,"position":"RB","stars":null,"rating_247":87.0,"committed_to":"Maryland","lat":39.055,"lng":-76.7909,"hometown_city":"Hyattsville","hometown_state":"MD"},{"name":"Correll Buckhalter Jr.","year":2027,"position":"RB","stars":null,"rating_247":87.0,"committed_to":"Kansas State","lat":31.4757,"lng":-99.3312,"hometown_city":"Argyle","hometown_state":"TX"},{"name":"Benjamin Harris","year":2027,"position":"RB","stars":null,"rating_247":87.0,"committed_to":null,"lat":37.1841,"lng":-119.4696,"hometown_city":"Anaheim","hometown_state":"CA"},{"name":"Antwon Sanders","year":2027,"position":"RB","stars":null,"rating_247":86.0,"committed_to":"California","lat":31.4757,"lng":-99.3312,"hometown_city":"Houston","hometown_state":"TX"},{"name":"Ezra Sanelivi","year":2027,"position":"RB","stars":null,"rating_247":86.0,"committed_to":"BYU","lat":39.3289,"lng":-116.6312,"hometown_city":"Henderson","hometown_state":"NV"},{"name":"Malachi McFarland","year":2027,"position":"RB","stars":null,"rating_247":86.0,"committed_to":"Boise State","lat":37.1841,"lng":-119.4696,"hometown_city":"La Verne","hometown_state":"CA"},{"name":"Kiante Ingram","year":2027,"position":"RB","stars":null,"rating_247":84.0,"committed_to":null,"lat":31.4757,"lng":-99.3312,"hometown_city":"Fort Worth","hometown_state":"TX"},{"name":"Curtis Zeno Jr.","year":2027,"position":"RB","stars":null,"rating_247":82.0,"committed_to":null,"lat":31.4757,"lng":-99.3312,"hometown_city":"Katy","hometown_state":"TX"},{"name":"Adonyae Brown","year":2027,"position":"RB","stars":null,"rating_247":null,"committed_to":"UNLV","lat":37.1841,"lng":-119.4696,"hometown_city":"San Francisco","hometown_state":"CA"},{"name":"Rayshawn Duncan Jr.","year":2027,"position":"RB","stars":null,"rating_247":null,"committed_to":null,"lat":40.2862,"lng":-82.7937,"hometown_city":"Bedford","hometown_state":"OH"},{"name":"Osani Gayles","year":2027,"position":"WR","stars":null,"rating_247":95.0,"committed_to":null,"lat":28.6305,"lng":-82.4497,"hometown_city":"Bradenton","hometown_state":"FL"},{"name":"Eric McFarland III","year":2027,"position":"WR","stars":null,"rating_247":94.0,"committed_to":null,"lat":28.6305,"lng":-82.4497,"hometown_city":"Bradenton","hometown_state":"FL"},{"name":"Roye Oliver III","year":2027,"position":"WR","stars":null,"rating_247":93.0,"committed_to":"USC","lat":34.2744,"lng":-111.6602,"hometown_city":"Chandler","hometown_state":"AZ"},{"name":"Charles Davis","year":2027,"position":"WR","stars":null,"rating_247":93.0,"committed_to":"California","lat":37.1841,"lng":-119.4696,"hometown_city":"Westlake Village","hometown_state":"CA"},{"name":"Trenton Yancey","year":2027,"position":"WR","stars":null,"rating_247":90.0,"committed_to":"Purdue","lat":31.4757,"lng":-99.3312,"hometown_city":"Duncanville","hometown_state":"TX"},{"name":"Zion White","year":2027,"position":"WR","stars":null,"rating_247":90.0,"committed_to":null,"lat":20.2927,"lng":-156.3737,"hometown_city":"Mililani","hometown_state":"HI"},{"name":"Julian Caldwell","year":2027,"position":"WR","stars":null,"rating_247":90.0,"committed_to":"Texas Tech","lat":31.4757,"lng":-99.3312,"hometown_city":"Argyle","hometown_state":"TX"},{"name":"Demare Dezeurn","year":2027,"position":"WR","stars":null,"rating_247":90.0,"committed_to":"California","lat":37.1841,"lng":-119.4696,"hometown_city":"Westlake Village","hometown_state":"CA"},{"name":"Dontay Tyson","year":2027,"position":"WR","stars":null,"rating_247":90.0,"committed_to":"Washington","lat":34.2744,"lng":-111.6602,"hometown_city":"Peoria","hometown_state":"AZ"},{"name":"Ty Johnson","year":2027,"position":"WR","stars":null,"rating_247":90.0,"committed_to":null,"lat":37.1841,"lng":-119.4696,"hometown_city":"Irvine","hometown_state":"CA"},{"name":"Damani Warren","year":2027,"position":"WR","stars":null,"rating_247":89.0,"committed_to":null,"lat":39.3289,"lng":-116.6312,"hometown_city":"Las Vegas","hometown_state":"NV"},{"name":"Kingston Celifie","year":2027,"position":"WR","stars":null,"rating_247":89.0,"committed_to":"UCLA","lat":37.1841,"lng":-119.4696,"hometown_city":"Calabasas","hometown_state":"CA"},{"name":"Gavin Honore","year":2027,"position":"WR","stars":null,"rating_247":88.0,"committed_to":null,"lat":39.3289,"lng":-116.6312,"hometown_city":"Las Vegas","hometown_state":"NV"},{"name":"Rob Larson","year":2027,"position":"WR","stars":null,"rating_247":88.0,"committed_to":"UCLA","lat":37.1841,"lng":-119.4696,"hometown_city":"Folsom","hometown_state":"CA"},{"name":"Lawrence Carr","year":2027,"position":"WR","stars":null,"rating_247":88.0,"committed_to":null,"lat":40.0417,"lng":-89.1965,"hometown_city":"Chicago","hometown_state":"IL"},{"name":"Zerek Sidney","year":2027,"position":"WR","stars":null,"rating_247":87.0,"committed_to":"Washington","lat":34.2744,"lng":-111.6602,"hometown_city":"Goodyear","hometown_state":"AZ"},{"name":"Antayvious Ellis","year":2027,"position":"WR","stars":null,"rating_247":87.0,"committed_to":"Nebraska","lat":41.5378,"lng":-99.7951,"hometown_city":"Omaha","hometown_state":"NE"},{"name":"Trey Smith","year":2027,"position":"WR","stars":null,"rating_247":87.0,"committed_to":"Arizona","lat":34.2744,"lng":-111.6602,"hometown_city":"Gilbert","hometown_state":"AZ"},{"name":"Donovan McNabb Jr.","year":2027,"position":"WR","stars":null,"rating_247":87.0,"committed_to":null,"lat":34.2744,"lng":-111.6602,"hometown_city":"Phoenix","hometown_state":"AZ"},{"name":"Gianni Haynes","year":2027,"position":"WR","stars":null,"rating_247":87.0,"committed_to":null,"lat":37.1841,"lng":-119.4696,"hometown_city":"Los Angeles","hometown_state":"CA"},{"name":"Austin Coles","year":2027,"position":"WR","stars":null,"rating_247":87.0,"committed_to":"Kentucky","lat":28.6305,"lng":-82.4497,"hometown_city":"Fort Lauderdale","hometown_state":"FL"},{"name":"Delontay Williams","year":2027,"position":"WR","stars":null,"rating_247":86.0,"committed_to":"UNLV","lat":37.1841,"lng":-119.4696,"hometown_city":"San Diego","hometown_state":"CA"},{"name":"Chris Flores","year":2027,"position":"WR","stars":null,"rating_247":86.0,"committed_to":null,"lat":37.1841,"lng":-119.4696,"hometown_city":"Orange","hometown_state":"CA"},{"name":"Gianni Porfilio","year":2027,"position":"WR","stars":null,"rating_247":86.0,"committed_to":"Purdue","lat":37.1841,"lng":-119.4696,"hometown_city":"Huntington Beach","hometown_state":"CA"},{"name":"Damani Porras","year":2027,"position":"WR","stars":null,"rating_247":85.0,"committed_to":"New Mexico","lat":37.1841,"lng":-119.4696,"hometown_city":"Downey","hometown_state":"CA"},{"name":"Dillon Sykes","year":2027,"position":"WR","stars":null,"rating_247":85.0,"committed_to":"Utah","lat":37.1841,"lng":-119.4696,"hometown_city":"Rancho Cucamonga","hometown_state":"CA"},{"name":"Kingston Parks","year":2027,"position":"WR","stars":null,"rating_247":84.0,"committed_to":"Boise State","lat":31.4757,"lng":-99.3312,"hometown_city":"Aledo","hometown_state":"TX"},{"name":"Relando Jefferson IV","year":2027,"position":"WR","stars":null,"rating_247":84.0,"committed_to":"Fresno State","lat":37.1841,"lng":-119.4696,"hometown_city":"Fresno","hometown_state":"CA"},{"name":"Braxton Huynh","year":2027,"position":"WR","stars":null,"rating_247":83.0,"committed_to":"San Diego State","lat":34.2744,"lng":-111.6602,"hometown_city":"Peoria","hometown_state":"AZ"},{"name":"RJ Gory","year":2027,"position":"WR","stars":null,"rating_247":82.0,"committed_to":"Northern Arizona","lat":34.2744,"lng":-111.6602,"hometown_city":"Queen Creek","hometown_state":"AZ"},{"name":"Tre Brown","year":2027,"position":"WR","stars":null,"rating_247":null,"committed_to":null,"lat":31.4757,"lng":-99.3312,"hometown_city":"Humble","hometown_state":"TX"},{"name":"Isaiah Rasheed","year":2027,"position":"WR","stars":null,"rating_247":null,"committed_to":null,"lat":31.4757,"lng":-99.3312,"hometown_city":"Humble","hometown_state":"TX"},{"name":"Courtney Thompson","year":2027,"position":"WR","stars":null,"rating_247":null,"committed_to":null,"lat":37.1841,"lng":-119.4696,"hometown_city":"San Diego","hometown_state":"CA"},{"name":"Maxwell Sprott","year":2027,"position":"WR","stars":null,"rating_247":null,"committed_to":null,"lat":34.2744,"lng":-111.6602,"hometown_city":"Chandler","hometown_state":"AZ"},{"name":"Cole Emanuel","year":2027,"position":"WR","stars":null,"rating_247":null,"committed_to":null,"lat":28.6305,"lng":-82.4497,"hometown_city":"Orlando","hometown_state":"FL"},{"name":"Brooks Bakko","year":2027,"position":"TE","stars":null,"rating_247":91.0,"committed_to":"Minnesota","lat":47.4501,"lng":-100.4659,"hometown_city":"Kindred","hometown_state":"ND"},{"name":"Titus Hawk","year":2027,"position":"TE","stars":null,"rating_247":90.0,"committed_to":"Notre Dame","lat":35.5889,"lng":-97.4943,"hometown_city":"Choctaw","hometown_state":"OK"},{"name":"Rahzario Edwards","year":2027,"position":"TE","stars":null,"rating_247":90.0,"committed_to":"California","lat":37.1841,"lng":-119.4696,"hometown_city":"Sacramento","hometown_state":"CA"},{"name":"Ben Hynek","year":2027,"position":"TE","stars":null,"rating_247":89.0,"committed_to":"Kansas State","lat":47.4501,"lng":-100.4659,"hometown_city":"Stanley","hometown_state":"ND"},{"name":"Anthony Cartwright","year":2027,"position":"TE","stars":null,"rating_247":88.0,"committed_to":null,"lat":44.3467,"lng":-85.4102,"hometown_city":"Franklin","hometown_state":"MI"},{"name":"Ben Kolar","year":2027,"position":"TE","stars":null,"rating_247":88.0,"committed_to":"Stanford","lat":35.5889,"lng":-97.4943,"hometown_city":"Norman","hometown_state":"OK"},{"name":"Christian Hanshaw","year":2027,"position":"TE","stars":null,"rating_247":88.0,"committed_to":null,"lat":39.321,"lng":-111.0937,"hometown_city":"American Fork","hometown_state":"UT"},{"name":"Jace Cannon","year":2027,"position":"TE","stars":null,"rating_247":88.0,"committed_to":"USC","lat":37.1841,"lng":-119.4696,"hometown_city":"San Mateo","hometown_state":"CA"},{"name":"Zac Fares","year":2027,"position":"TE","stars":null,"rating_247":88.0,"committed_to":"UCLA","lat":39.3289,"lng":-116.6312,"hometown_city":"Las Vegas","hometown_state":"NV"},{"name":"Max Markofski","year":2027,"position":"TE","stars":null,"rating_247":87.0,"committed_to":"Arizona","lat":37.1841,"lng":-119.4696,"hometown_city":"Mission Viejo","hometown_state":"CA"},{"name":"Seager Milholen","year":2027,"position":"TE","stars":null,"rating_247":87.0,"committed_to":null,"lat":39.3289,"lng":-116.6312,"hometown_city":"Las Vegas","hometown_state":"NV"},{"name":"Joshua Pettigrew","year":2027,"position":"TE","stars":null,"rating_247":87.0,"committed_to":"Georgia Tech","lat":32.6415,"lng":-83.4426,"hometown_city":"Warner Robins","hometown_state":"GA"},{"name":"Jeramie Cooper","year":2027,"position":"TE","stars":null,"rating_247":86.0,"committed_to":null,"lat":31.4757,"lng":-99.3312,"hometown_city":"Fort Worth","hometown_state":"TX"},{"name":"Judah Lancaster","year":2027,"position":"TE","stars":null,"rating_247":86.0,"committed_to":"South Carolina","lat":35.858,"lng":-86.3505,"hometown_city":"Brentwood","hometown_state":"TN"},{"name":"Luke Gazzaniga","year":2027,"position":"TE","stars":null,"rating_247":86.0,"committed_to":"Kansas","lat":37.1841,"lng":-119.4696,"hometown_city":"Rancho Santa Margarita","hometown_state":"CA"},{"name":"Braxton Daniel","year":2027,"position":"TE","stars":null,"rating_247":86.0,"committed_to":"Utah","lat":35.5889,"lng":-97.4943,"hometown_city":"Jenks","hometown_state":"OK"},{"name":"Braylen Ross","year":2027,"position":"TE","stars":null,"rating_247":84.0,"committed_to":"Arizona","lat":37.1841,"lng":-119.4696,"hometown_city":"Irvine","hometown_state":"CA"},{"name":"Diego Botron","year":2027,"position":"TE","stars":null,"rating_247":82.0,"committed_to":"San Diego State","lat":37.1841,"lng":-119.4696,"hometown_city":"Encinitas","hometown_state":"CA"},{"name":"Gavin Mandrell","year":2027,"position":"TE","stars":null,"rating_247":null,"committed_to":null,"lat":31.4757,"lng":-99.3312,"hometown_city":"Denison","hometown_state":"TX"},{"name":"Kennedy Brown","year":2027,"position":"OT","stars":null,"rating_247":94.0,"committed_to":"Texas A&M","lat":31.4757,"lng":-99.3312,"hometown_city":"Kingwood","hometown_state":"TX"},{"name":"Drew Fielder","year":2027,"position":"OT","stars":null,"rating_247":93.0,"committed_to":"USC","lat":37.1841,"lng":-119.4696,"hometown_city":"Anaheim","hometown_state":"CA"},{"name":"Jake Hildebrand","year":2027,"position":"OT","stars":null,"rating_247":93.0,"committed_to":"Arizona State","lat":34.2744,"lng":-111.6602,"hometown_city":"Chandler","hometown_state":"AZ"},{"name":"Joshua Sam-Epelle","year":2027,"position":"OT","stars":null,"rating_247":92.0,"committed_to":null,"lat":32.6415,"lng":-83.4426,"hometown_city":"Douglasville","hometown_state":"GA"},{"name":"Jasper Ngokwere","year":2027,"position":"OT","stars":null,"rating_247":90.0,"committed_to":"Vanderbilt","lat":31.4757,"lng":-99.3312,"hometown_city":"Richardson","hometown_state":"TX"},{"name":"Isaiah Bertola","year":2027,"position":"OT","stars":null,"rating_247":89.0,"committed_to":"California","lat":20.2927,"lng":-156.3737,"hometown_city":"Honolulu","hometown_state":"HI"},{"name":"Mason Joshua","year":2027,"position":"OT","stars":null,"rating_247":89.0,"committed_to":null,"lat":31.4757,"lng":-99.3312,"hometown_city":"Forney","hometown_state":"TX"},{"name":"Amaziah Siale","year":2027,"position":"OT","stars":null,"rating_247":89.0,"committed_to":"California","lat":37.1841,"lng":-119.4696,"hometown_city":"Mission Viejo","hometown_state":"CA"},{"name":"Gecova Doyal","year":2027,"position":"OT","stars":null,"rating_247":89.0,"committed_to":null,"lat":47.3826,"lng":-120.4472,"hometown_city":"Puyallup","hometown_state":"WA"},{"name":"Benjamin Lowther","year":2027,"position":"OT","stars":null,"rating_247":88.0,"committed_to":"Stanford","lat":34.2744,"lng":-111.6602,"hometown_city":"Peoria","hometown_state":"AZ"},{"name":"Tye Kennedy","year":2027,"position":"OT","stars":null,"rating_247":88.0,"committed_to":null,"lat":34.2744,"lng":-111.6602,"hometown_city":"Mesa","hometown_state":"AZ"},{"name":"Derek Gonzalez","year":2027,"position":"OT","stars":null,"rating_247":87.0,"committed_to":"Kansas","lat":37.1841,"lng":-119.4696,"hometown_city":"La Puente","hometown_state":"CA"},{"name":"Rance Brown","year":2027,"position":"OT","stars":null,"rating_247":86.0,"committed_to":"Auburn","lat":35.858,"lng":-86.3505,"hometown_city":"Brentwood","hometown_state":"TN"},{"name":"Zay'vion Smith","year":2027,"position":"OT","stars":null,"rating_247":86.0,"committed_to":"Cincinnati","lat":40.2862,"lng":-82.7937,"hometown_city":"Warren","hometown_state":"OH"},{"name":"Myren Jackson","year":2027,"position":"OT","stars":null,"rating_247":85.0,"committed_to":null,"lat":37.1841,"lng":-119.4696,"hometown_city":"Barstow","hometown_state":"CA"},{"name":"Richie Dexter","year":2027,"position":"OT","stars":null,"rating_247":85.0,"committed_to":"Kansas","lat":34.2744,"lng":-111.6602,"hometown_city":"Chandler","hometown_state":"AZ"},{"name":"Sire Stewart","year":2027,"position":"OT","stars":null,"rating_247":85.0,"committed_to":"Utah","lat":34.2744,"lng":-111.6602,"hometown_city":"Chandler","hometown_state":"AZ"},{"name":"Jordan Carraway","year":2027,"position":"OT","stars":null,"rating_247":84.0,"committed_to":null,"lat":31.4757,"lng":-99.3312,"hometown_city":"Forney","hometown_state":"TX"},{"name":"Laseth Bryant","year":2027,"position":"OT","stars":null,"rating_247":null,"committed_to":null,"lat":39.3289,"lng":-116.6312,"hometown_city":"Las Vegas","hometown_state":"NV"},{"name":"Ben Rainwater","year":2027,"position":"OT","stars":null,"rating_247":null,"committed_to":null,"lat":47.3826,"lng":-120.4472,"hometown_city":"Kenmore","hometown_state":"WA"},{"name":"Peyton Miller","year":2027,"position":"IOL","stars":null,"rating_247":91.0,"committed_to":"Florida","lat":31.4757,"lng":-99.3312,"hometown_city":"Anna","hometown_state":"TX"},{"name":"DaJohn Yarborough","year":2027,"position":"IOL","stars":null,"rating_247":89.0,"committed_to":null,"lat":34.2744,"lng":-111.6602,"hometown_city":"Chandler","hometown_state":"AZ"},{"name":"Isaac Coughran","year":2027,"position":"IOL","stars":null,"rating_247":88.0,"committed_to":"Oklahoma","lat":31.4757,"lng":-99.3312,"hometown_city":"Katy","hometown_state":"TX"},{"name":"Ian Aloisio","year":2027,"position":"IOL","stars":null,"rating_247":88.0,"committed_to":null,"lat":39.321,"lng":-111.0937,"hometown_city":"Provo","hometown_state":"UT"},{"name":"Lincoln Mageo","year":2027,"position":"IOL","stars":null,"rating_247":88.0,"committed_to":null,"lat":37.1841,"lng":-119.4696,"hometown_city":"Oceanside","hometown_state":"CA"},{"name":"Lex Mailangi","year":2027,"position":"IOL","stars":null,"rating_247":87.0,"committed_to":null,"lat":37.1841,"lng":-119.4696,"hometown_city":"Santa Ana","hometown_state":"CA"},{"name":"Reis Russell","year":2027,"position":"IOL","stars":null,"rating_247":87.0,"committed_to":"Washington","lat":38.9972,"lng":-105.5478,"hometown_city":"Littleton","hometown_state":"CO"},{"name":"Tyson Ross","year":2027,"position":"IOL","stars":null,"rating_247":87.0,"committed_to":"Oklahoma","lat":38.4937,"lng":-98.3804,"hometown_city":"Andover","hometown_state":"KS"},{"name":"Rashaun Lavata'i","year":2027,"position":"IOL","stars":null,"rating_247":87.0,"committed_to":null,"lat":47.3826,"lng":-120.4472,"hometown_city":"Tacoma","hometown_state":"WA"},{"name":"Jackson Cook","year":2027,"position":"IOL","stars":null,"rating_247":86.0,"committed_to":"Texas","lat":31.4757,"lng":-99.3312,"hometown_city":"Austin","hometown_state":"TX"},{"name":"Lopeti Malupo","year":2027,"position":"IOL","stars":null,"rating_247":85.0,"committed_to":"Washington State","lat":37.1841,"lng":-119.4696,"hometown_city":"San Francisco","hometown_state":"CA"},{"name":"Randle Pollard","year":2027,"position":"IOL","stars":null,"rating_247":84.0,"committed_to":null,"lat":39.3289,"lng":-116.6312,"hometown_city":"Las Vegas","hometown_state":"NV"},{"name":"Chase Grohman","year":2027,"position":"IOL","stars":null,"rating_247":84.0,"committed_to":"Northern Arizona","lat":34.2744,"lng":-111.6602,"hometown_city":"Gilbert","hometown_state":"AZ"},{"name":"Aiden Williams","year":2027,"position":"IOL","stars":null,"rating_247":83.0,"committed_to":"Texas State","lat":31.4757,"lng":-99.3312,"hometown_city":"Duncanville","hometown_state":"TX"},{"name":"Elway Aiono","year":2027,"position":"IOL","stars":null,"rating_247":null,"committed_to":null,"lat":39.321,"lng":-111.0937,"hometown_city":"Herriman","hometown_state":"UT"},{"name":"Chief Togafau-Paleafei","year":2027,"position":"IOL","stars":null,"rating_247":null,"committed_to":null,"lat":20.2927,"lng":-156.3737,"hometown_city":"Honolulu","hometown_state":"HI"},{"name":"Adam Foglesong","year":2027,"position":"IOL","stars":null,"rating_247":null,"committed_to":null,"lat":37.1841,"lng":-119.4696,"hometown_city":"Santa Ana","hometown_state":"CA"},{"name":"Rashad Streets","year":2027,"position":"Edge","stars":null,"rating_247":98.0,"committed_to":"Oregon","lat":35.5557,"lng":-79.3877,"hometown_city":"Raleigh","hometown_state":"NC"},{"name":"Uhila Wolfgramm","year":2027,"position":"Edge","stars":null,"rating_247":93.0,"committed_to":null,"lat":39.321,"lng":-111.0937,"hometown_city":"Spanish Fork","hometown_state":"UT"},{"name":"Kaden McCarty","year":2027,"position":"Edge","stars":null,"rating_247":90.0,"committed_to":"Texas A&M","lat":31.4757,"lng":-99.3312,"hometown_city":"Houston","hometown_state":"TX"},{"name":"Brayden Booth","year":2027,"position":"Edge","stars":null,"rating_247":89.0,"committed_to":null,"lat":31.4757,"lng":-99.3312,"hometown_city":"San Antonio","hometown_state":"TX"},{"name":"T.K. Cunningham","year":2027,"position":"Edge","stars":null,"rating_247":89.0,"committed_to":null,"lat":34.2744,"lng":-111.6602,"hometown_city":"Chandler","hometown_state":"AZ"},{"name":"Godschoice Eboigbodin","year":2027,"position":"Edge","stars":null,"rating_247":89.0,"committed_to":"UCLA","lat":37.1841,"lng":-119.4696,"hometown_city":"San Juan Capistrano","hometown_state":"CA"},{"name":"Giovanni Hodge","year":2027,"position":"Edge","stars":null,"rating_247":88.0,"committed_to":"California","lat":37.1841,"lng":-119.4696,"hometown_city":"Sacramento","hometown_state":"CA"},{"name":"Miles Schirmer","year":2027,"position":"Edge","stars":null,"rating_247":88.0,"committed_to":"California","lat":37.1841,"lng":-119.4696,"hometown_city":"Corona","hometown_state":"CA"},{"name":"Achilles Reyna","year":2027,"position":"Edge","stars":null,"rating_247":88.0,"committed_to":"Oregon","lat":47.3826,"lng":-120.4472,"hometown_city":"Seattle","hometown_state":"WA"},{"name":"Sedrick Marsh","year":2027,"position":"Edge","stars":null,"rating_247":88.0,"committed_to":"Kansas State","lat":31.4757,"lng":-99.3312,"hometown_city":"Waxahachie","hometown_state":"TX"},{"name":"Kailon Walker","year":2027,"position":"Edge","stars":null,"rating_247":87.0,"committed_to":null,"lat":31.4757,"lng":-99.3312,"hometown_city":"Beaumont","hometown_state":"TX"},{"name":"Ty Tautolo","year":2027,"position":"Edge","stars":null,"rating_247":87.0,"committed_to":null,"lat":47.3826,"lng":-120.4472,"hometown_city":"Lake Stevens","hometown_state":"WA"},{"name":"Alexander Coey","year":2027,"position":"Edge","stars":null,"rating_247":87.0,"committed_to":null,"lat":31.4757,"lng":-99.3312,"hometown_city":"Conroe","hometown_state":"TX"},{"name":"Jaxon Zembrycki","year":2027,"position":"Edge","stars":null,"rating_247":84.0,"committed_to":null,"lat":34.2744,"lng":-111.6602,"hometown_city":"Chandler","hometown_state":"AZ"},{"name":"Dieter Lotulelei","year":2027,"position":"Edge","stars":null,"rating_247":84.0,"committed_to":null,"lat":39.321,"lng":-111.0937,"hometown_city":"Salt Lake City","hometown_state":"UT"},{"name":"James Harris Jr.","year":2027,"position":"Edge","stars":null,"rating_247":84.0,"committed_to":null,"lat":31.4757,"lng":-99.3312,"hometown_city":"Houston","hometown_state":"TX"},{"name":"Jaxson Wilson","year":2027,"position":"Edge","stars":null,"rating_247":81.0,"committed_to":null,"lat":31.4757,"lng":-99.3312,"hometown_city":"Garland","hometown_state":"TX"},{"name":"David Lee","year":2027,"position":"Edge","stars":null,"rating_247":null,"committed_to":null,"lat":37.1841,"lng":-119.4696,"hometown_city":"San Francisco","hometown_state":"CA"},{"name":"Myels Smith","year":2027,"position":"DL","stars":null,"rating_247":94.0,"committed_to":"Texas A&M","lat":37.1841,"lng":-119.4696,"hometown_city":"Inglewood","hometown_state":"CA"},{"name":"Zane Rowe","year":2027,"position":"DL","stars":null,"rating_247":92.0,"committed_to":"Oregon","lat":31.4757,"lng":-99.3312,"hometown_city":"Denton","hometown_state":"TX"},{"name":"Alifeleti Tuihalamaka","year":2027,"position":"DL","stars":null,"rating_247":91.0,"committed_to":"USC","lat":37.1841,"lng":-119.4696,"hometown_city":"Westlake Village","hometown_state":"CA"},{"name":"Jon Ioane","year":2027,"position":"DL","stars":null,"rating_247":90.0,"committed_to":"Washington","lat":37.1841,"lng":-119.4696,"hometown_city":"Tustin","hometown_state":"CA"},{"name":"George Toia","year":2027,"position":"DL","stars":null,"rating_247":90.0,"committed_to":"UCLA","lat":31.4757,"lng":-99.3312,"hometown_city":"Trophy Club","hometown_state":"TX"},{"name":"Tevita Nonu","year":2027,"position":"DL","stars":null,"rating_247":90.0,"committed_to":"Washington","lat":47.3826,"lng":-120.4472,"hometown_city":"Seattle","hometown_state":"WA"},{"name":"Elija Harmon","year":2027,"position":"DL","stars":null,"rating_247":90.0,"committed_to":"Oklahoma","lat":37.1841,"lng":-119.4696,"hometown_city":"Inglewood","hometown_state":"CA"},{"name":"Dawayne Jones","year":2027,"position":"DL","stars":null,"rating_247":89.0,"committed_to":"Kansas State","lat":35.5889,"lng":-97.4943,"hometown_city":"Tulsa","hometown_state":"OK"},{"name":"Montana Toilolo","year":2027,"position":"DL","stars":null,"rating_247":88.0,"committed_to":"UCLA","lat":37.1841,"lng":-119.4696,"hometown_city":"Santa Ana","hometown_state":"CA"},{"name":"Sione Felila","year":2027,"position":"DL","stars":null,"rating_247":88.0,"committed_to":"Oklahoma","lat":37.1841,"lng":-119.4696,"hometown_city":"Hesperia","hometown_state":"CA"},{"name":"Amari Vickerson","year":2027,"position":"DL","stars":null,"rating_247":88.0,"committed_to":"SMU","lat":31.4757,"lng":-99.3312,"hometown_city":"Cypress","hometown_state":"TX"},{"name":"Brayden White","year":2027,"position":"DL","stars":null,"rating_247":88.0,"committed_to":"Stanford","lat":31.4757,"lng":-99.3312,"hometown_city":"Shepherd","hometown_state":"TX"},{"name":"DeMarco Jenkins","year":2027,"position":"DL","stars":null,"rating_247":88.0,"committed_to":"Miami","lat":31.4757,"lng":-99.3312,"hometown_city":"Pearland","hometown_state":"TX"},{"name":"Finn Walker","year":2027,"position":"DL","stars":null,"rating_247":88.0,"committed_to":null,"lat":31.4757,"lng":-99.3312,"hometown_city":"Conroe","hometown_state":"TX"},{"name":"Khing Thibodeaux","year":2027,"position":"DL","stars":null,"rating_247":87.0,"committed_to":null,"lat":31.4757,"lng":-99.3312,"hometown_city":"Garland","hometown_state":"TX"},{"name":"Ahzan Bacote","year":2027,"position":"DL","stars":null,"rating_247":87.0,"committed_to":"Arizona","lat":31.4757,"lng":-99.3312,"hometown_city":"San Antonio","hometown_state":"TX"},{"name":"Yahzeen Zion","year":2027,"position":"DL","stars":null,"rating_247":87.0,"committed_to":"Wisconsin","lat":34.2744,"lng":-111.6602,"hometown_city":"Goodyear","hometown_state":"AZ"},{"name":"Maa'imoa Havili","year":2027,"position":"DL","stars":null,"rating_247":87.0,"committed_to":"BYU","lat":39.321,"lng":-111.0937,"hometown_city":"Salt Lake City","hometown_state":"UT"},{"name":"Aniti Paiva","year":2027,"position":"DL","stars":null,"rating_247":87.0,"committed_to":"Penn State","lat":39.321,"lng":-111.0937,"hometown_city":"Salt Lake City","hometown_state":"UT"},{"name":"Lemani Fehoko","year":2027,"position":"DL","stars":null,"rating_247":86.0,"committed_to":null,"lat":37.1841,"lng":-119.4696,"hometown_city":"San Mateo","hometown_state":"CA"},{"name":"Darrien Neal","year":2027,"position":"DL","stars":null,"rating_247":86.0,"committed_to":"TCU","lat":31.4757,"lng":-99.3312,"hometown_city":"Denton","hometown_state":"TX"},{"name":"Kekoa Peko","year":2027,"position":"DL","stars":null,"rating_247":86.0,"committed_to":"Boise State","lat":37.1841,"lng":-119.4696,"hometown_city":"Bellflower","hometown_state":"CA"},{"name":"Matamatagi Uiagalelei","year":2027,"position":"DL","stars":null,"rating_247":86.0,"committed_to":"Washington","lat":37.1841,"lng":-119.4696,"hometown_city":"Santa Ana","hometown_state":"CA"},{"name":"Antonio Underwood","year":2027,"position":"DL","stars":null,"rating_247":86.0,"committed_to":null,"lat":31.4757,"lng":-99.3312,"hometown_city":"Houston","hometown_state":"TX"},{"name":"Khyren Haywood","year":2027,"position":"DL","stars":null,"rating_247":86.0,"committed_to":"Texas Tech","lat":31.4757,"lng":-99.3312,"hometown_city":"Denton","hometown_state":"TX"},{"name":"Isaia Vandermade","year":2027,"position":"DL","stars":null,"rating_247":86.0,"committed_to":"USC","lat":37.1841,"lng":-119.4696,"hometown_city":"Rancho Santa Margarita","hometown_state":"CA"},{"name":"Stone Ah Quin","year":2027,"position":"DL","stars":null,"rating_247":86.0,"committed_to":null,"lat":20.2927,"lng":-156.3737,"hometown_city":"Honolulu","hometown_state":"HI"},{"name":"Zayne Reed","year":2027,"position":"DL","stars":null,"rating_247":84.0,"committed_to":null,"lat":37.1841,"lng":-119.4696,"hometown_city":"Westlake Village","hometown_state":"CA"},{"name":"Hunter Eligon","year":2027,"position":"DL","stars":null,"rating_247":84.0,"committed_to":null,"lat":37.1841,"lng":-119.4696,"hometown_city":"Los Alamitos","hometown_state":"CA"},{"name":"Derrick LeBlanc Jr.","year":2027,"position":"DL","stars":null,"rating_247":84.0,"committed_to":null,"lat":34.2744,"lng":-111.6602,"hometown_city":"Chandler","hometown_state":"AZ"},{"name":"Logan Draper","year":2027,"position":"DL","stars":null,"rating_247":null,"committed_to":"Arizona","lat":31.4757,"lng":-99.3312,"hometown_city":"Houston","hometown_state":"TX"},{"name":"Ezra Epifano","year":2027,"position":"DL","stars":null,"rating_247":null,"committed_to":null,"lat":37.1841,"lng":-119.4696,"hometown_city":"Los Angeles","hometown_state":"CA"},{"name":"Magic Haynes","year":2027,"position":"DL","stars":null,"rating_247":null,"committed_to":null,"lat":37.1841,"lng":-119.4696,"hometown_city":"Compton","hometown_state":"CA"},{"name":"Jhadyn Nelson","year":2027,"position":"LB","stars":null,"rating_247":94.0,"committed_to":"Texas Tech","lat":31.4757,"lng":-99.3312,"hometown_city":"Houston","hometown_state":"TX"},{"name":"Toa Satele","year":2027,"position":"LB","stars":null,"rating_247":93.0,"committed_to":"Oregon","lat":20.2927,"lng":-156.3737,"hometown_city":"Mililani","hometown_state":"HI"},{"name":"Colton McKibben","year":2027,"position":"LB","stars":null,"rating_247":90.0,"committed_to":"UCLA","lat":34.4071,"lng":-106.1126,"hometown_city":"Carlsbad","hometown_state":"NM"},{"name":"Tate Wallace","year":2027,"position":"LB","stars":null,"rating_247":90.0,"committed_to":"Minnesota","lat":42.0751,"lng":-93.496,"hometown_city":"Iowa City","hometown_state":"IA"},{"name":"Aston Whiteside","year":2027,"position":"LB","stars":null,"rating_247":89.0,"committed_to":"Texas A&M","lat":31.4757,"lng":-99.3312,"hometown_city":"Burleson","hometown_state":"TX"},{"name":"Lucas Rhoa","year":2027,"position":"LB","stars":null,"rating_247":88.0,"committed_to":null,"lat":37.1841,"lng":-119.4696,"hometown_city":"Orange","hometown_state":"CA"},{"name":"Isaiah Leilua","year":2027,"position":"LB","stars":null,"rating_247":88.0,"committed_to":"Washington","lat":37.1841,"lng":-119.4696,"hometown_city":"Anaheim","hometown_state":"CA"},{"name":"Troy Mailo","year":2027,"position":"LB","stars":null,"rating_247":88.0,"committed_to":null,"lat":38.9972,"lng":-105.5478,"hometown_city":"Denver","hometown_state":"CO"},{"name":"Cade Haug","year":2027,"position":"LB","stars":null,"rating_247":88.0,"committed_to":"Texas","lat":31.4757,"lng":-99.3312,"hometown_city":"Kingwood","hometown_state":"TX"},{"name":"Ethan Coach","year":2027,"position":"LB","stars":null,"rating_247":87.0,"committed_to":"Washington","lat":37.1841,"lng":-119.4696,"hometown_city":"Bellflower","hometown_state":"CA"},{"name":"Josiah Poyer","year":2027,"position":"LB","stars":null,"rating_247":87.0,"committed_to":"USC","lat":37.1841,"lng":-119.4696,"hometown_city":"Bellflower","hometown_state":"CA"},{"name":"Justin Coach","year":2027,"position":"LB","stars":null,"rating_247":87.0,"committed_to":"Washington","lat":37.1841,"lng":-119.4696,"hometown_city":"Bellflower","hometown_state":"CA"},{"name":"Kason Clayborne","year":2027,"position":"LB","stars":null,"rating_247":87.0,"committed_to":"Minnesota","lat":42.0751,"lng":-93.496,"hometown_city":"Sioux City","hometown_state":"IA"},{"name":"Liufau Loumoli","year":2027,"position":"LB","stars":null,"rating_247":86.0,"committed_to":null,"lat":28.6305,"lng":-82.4497,"hometown_city":"Bradenton","hometown_state":"FL"},{"name":"Rome Ewell","year":2027,"position":"LB","stars":null,"rating_247":86.0,"committed_to":"Houston","lat":31.4757,"lng":-99.3312,"hometown_city":"Springtown","hometown_state":"TX"},{"name":"Rome Ewell","year":2027,"position":"LB","stars":null,"rating_247":86.0,"committed_to":"Houston","lat":31.4757,"lng":-99.3312,"hometown_city":"Springtown","hometown_state":"TX"},