{"2026":[{"name":"Jett Thomalla","year":2026,"position":"QB","stars":4,"rating_247":97.0,"committed_to":"Alabama","lat":41.2587459,"lng":-95.9383758,"hometown_city":"Omaha","hometown_state":"NE"},{"name":"Bowe Bentley","year":2026,"position":"QB","stars":4,"rating_247":95.0,"committed_to":"Oklahoma","lat":33.3238976,"lng":-96.785342,"hometown_city":"Celina","hometown_state":"TX"},{"name":"Jamarion Vincent","year":2026,"position":"QB","stars":4,"rating_247":93.0,"committed_to":"Michigan","lat":31.549333,"lng":-97.1466695,"hometown_city":"Waco","hometown_state":"TX"},{"name":"Cole Bergeron","year":2026,"position":"QB","stars":3,"rating_247":90.0,"committed_to":"Georgia Tech","lat":30.2240897,"lng":-92.0198427,"hometown_city":"Lafayette","hometown_state":"LA"},{"name":"Easton Webb","year":2026,"position":"QB","stars":3,"rating_247":87.0,"committed_to":"Texas State","lat":36.1394339,"lng":-96.1100025,"hometown_city":"Sand Springs","hometown_state":"OK"},{"name":"Michael Johnson","year":2026,"position":"QB","stars":3,"rating_247":87.0,"committed_to":"Utah","lat":33.3870578,"lng":-84.2829784,"hometown_city":"Hampton","hometown_state":"GA"},{"name":"Kase Evans","year":2026,"position":"QB","stars":3,"rating_247":86.0,"committed_to":"Penn State","lat":30.415222,"lng":-97.0097922,"hometown_city":"Lexington","hometown_state":"TX"},{"name":"Dream Rashad","year":2026,"position":"QB","stars":3,"rating_247":86.0,"committed_to":"North Carolina","lat":33.9562149,"lng":-83.9879625,"hometown_city":"Lawrenceville","hometown_state":"GA"},{"name":"Darnell Kelly","year":2026,"position":"QB","stars":3,"rating_247":86.0,"committed_to":"Colorado State","lat":33.5670562,"lng":-84.5810418,"hometown_city":"Fairburn","hometown_state":"GA"},{"name":"Noah Lee","year":2026,"position":"QB","stars":3,"rating_247":86.0,"committed_to":"Jacksonville State","lat":33.8137163,"lng":-85.7613476,"hometown_city":"Jacksonville","hometown_state":"AL"},{"name":"Kane Archer","year":2026,"position":"QB","stars":3,"rating_247":85.0,"committed_to":"Utah","lat":35.2156489,"lng":-94.2557663,"hometown_city":"Greenwood","hometown_state":"AR"},{"name":"Gavin Owens","year":2026,"position":"QB","stars":3,"rating_247":85.0,"committed_to":"Memphis","lat":34.97479,"lng":-83.30549,"hometown_city":"Rabun Gap","hometown_state":"GA"},{"name":"Rhys Brush","year":2026,"position":"QB","stars":3,"rating_247":85.0,"committed_to":"Auburn","lat":27.998541000000003,"lng":-82.27488400114905,"hometown_city":"Seffner","hometown_state":"FL"},{"name":"Aedan McCarthy","year":2026,"position":"QB","stars":null,"rating_247":85.0,"committed_to":"Massachusetts","lat":33.9169,"lng":-80.8964,"hometown_city":"Bluffton","hometown_state":"SC"},{"name":"Gannon Jones","year":2026,"position":"QB","stars":3,"rating_247":85.0,"committed_to":"Wake Forest","lat":35.7803977,"lng":-78.6390989,"hometown_city":"Raleigh","hometown_state":"NC"},{"name":"Jaylen White","year":2026,"position":"QB","stars":3,"rating_247":85.0,"committed_to":"Charlotte","lat":27.9658533,"lng":-82.8001026,"hometown_city":"Clearwater","hometown_state":"FL"},{"name":"Brock Bradley","year":2026,"position":"QB","stars":3,"rating_247":85.0,"committed_to":"Clemson","lat":33.5206824,"lng":-86.8024326,"hometown_city":"Birmingham","hometown_state":"AL"},{"name":"Carter Emanuel","year":2026,"position":"QB","stars":3,"rating_247":84.0,"committed_to":"Colorado State","lat":28.5421109,"lng":-81.3790304,"hometown_city":"Orlando","hometown_state":"FL"},{"name":"Isaiah Arriaza","year":2026,"position":"QB","stars":3,"rating_247":84.0,"committed_to":"Oregon State","lat":34.1008426,"lng":-117.7678355,"hometown_city":"La Verne","hometown_state":"CA"},{"name":"Kelvin Perkins","year":2026,"position":"QB","stars":3,"rating_247":84.0,"committed_to":"Austin Peay","lat":35.1490215,"lng":-90.0516285,"hometown_city":"Memphis","hometown_state":"TN"},{"name":"Braden Shettles","year":2026,"position":"QB","stars":3,"rating_247":84.0,"committed_to":null,"lat":34.4942683,"lng":-89.0078418,"hometown_city":"New Albany","hometown_state":"MS"},{"name":"Mason Holtzclaw","year":2026,"position":"QB","stars":3,"rating_247":84.0,"committed_to":"Sam Houston","lat":33.5801103,"lng":-85.0766113,"hometown_city":"Carrollton","hometown_state":"GA"},{"name":"Jachin Davis","year":2026,"position":"QB","stars":3,"rating_247":84.0,"committed_to":"Liberty","lat":32.9961038,"lng":-80.0387292,"hometown_city":"Goose Creek","hometown_state":"SC"},{"name":"Trace Johnson","year":2026,"position":"QB","stars":3,"rating_247":84.0,"committed_to":"Tulane","lat":33.6408845,"lng":-117.6029341,"hometown_city":"Rancho Santa Margarita","hometown_state":"CA"},{"name":"Landon Varnes","year":2026,"position":"QB","stars":null,"rating_247":84.0,"committed_to":"Kennesaw State","lat":32.7364,"lng":-89.6678,"hometown_city":"Perkinston","hometown_state":"MS"},{"name":"Grant Smith","year":2026,"position":"QB","stars":3,"rating_247":83.0,"committed_to":"Towson","lat":30.0798826,"lng":-95.4172549,"hometown_city":"Spring","hometown_state":"TX"},{"name":"Kaedyn Marable","year":2026,"position":"QB","stars":3,"rating_247":83.0,"committed_to":"Columbia","lat":35.925193,"lng":-86.8689365,"hometown_city":"Franklin","hometown_state":"TN"},{"name":"Tanner Vibabul","year":2026,"position":"QB","stars":3,"rating_247":82.0,"committed_to":"James Madison","lat":36.1672559,"lng":-115.1485163,"hometown_city":"Las Vegas","hometown_state":"NV"},{"name":"Braylon Walker","year":2026,"position":"QB","stars":null,"rating_247":82.0,"committed_to":"Louisiana","lat":31.0689,"lng":-91.9968,"hometown_city":"Lafayette","hometown_state":"LA"},{"name":"Jayden Maples","year":2026,"position":"QB","stars":3,"rating_247":80.0,"committed_to":"Texas Christian","lat":33.1506744,"lng":-96.8236116,"hometown_city":"Frisco","hometown_state":"TX"},{"name":"Jacob Janecek","year":2026,"position":"QB","stars":null,"rating_247":null,"committed_to":"Stephen F. Austin","lat":31.4757,"lng":-99.3312,"hometown_city":"Lucas","hometown_state":"TX"},{"name":"Tradarian Ball","year":2026,"position":"RB","stars":4,"rating_247":96.0,"committed_to":"Oregon","lat":33.44628645,"lng":-94.07638067493534,"hometown_city":"Texarkana","hometown_state":"TX"},{"name":"TJ Hodges","year":2026,"position":"RB","stars":null,"rating_247":90.0,"committed_to":"Arkansas","lat":34.8938,"lng":-92.4426,"hometown_city":"Bryant","hometown_state":"AR"},{"name":"Cardae Mack","year":2026,"position":"RB","stars":4,"rating_247":90.0,"committed_to":"Arizona State","lat":29.9988312,"lng":-95.2621553,"hometown_city":"Humble","hometown_state":"TX"},{"name":"Jamarcea Plater","year":2026,"position":"RB","stars":3,"rating_247":89.0,"committed_to":"Tulsa","lat":32.5221828,"lng":-93.7651944,"hometown_city":"Shreveport","hometown_state":"LA"},{"name":"Ryan Estrada","year":2026,"position":"RB","stars":4,"rating_247":89.0,"committed_to":"Minnesota","lat":31.7754152,"lng":-106.4646348,"hometown_city":"El Paso","hometown_state":"TX"},{"name":"Cooper Crosby","year":2026,"position":"RB","stars":3,"rating_247":89.0,"committed_to":"Mississippi State","lat":30.3674198,"lng":-89.0928155,"hometown_city":"Gulfport","hometown_state":"MS"},{"name":"Deuce Lawrence","year":2026,"position":"RB","stars":null,"rating_247":89.0,"committed_to":"Wake Forest","lat":32.6415,"lng":-83.4426,"hometown_city":"Thomasville","hometown_state":"GA"},{"name":"Keilan Chavies","year":2026,"position":"RB","stars":3,"rating_247":88.0,"committed_to":"Boise State","lat":30.5427638,"lng":-97.5468898,"hometown_city":"Hutto","hometown_state":"TX"},{"name":"Trae'shawn Brown","year":2026,"position":"RB","stars":3,"rating_247":88.0,"committed_to":"Alabama","lat":30.7235263,"lng":-95.5507771,"hometown_city":"Huntsville","hometown_state":"TX"},{"name":"Ja'Michael Jones","year":2026,"position":"RB","stars":3,"rating_247":88.0,"committed_to":"Mississippi","lat":32.3669656,"lng":-86.3006485,"hometown_city":"Montgomery","hometown_state":"AL"},{"name":"Ke'Rynn Smith","year":2026,"position":"RB","stars":3,"rating_247":87.0,"committed_to":"Louisiana","lat":29.9499323,"lng":-90.0701156,"hometown_city":"New Orleans","hometown_state":"LA"},{"name":"Ty Cummings","year":2026,"position":"RB","stars":null,"rating_247":87.0,"committed_to":"Georgia Southern","lat":32.6415,"lng":-83.4426,"hometown_city":"Dublin","hometown_state":"GA"},{"name":"Kevin Young Jr.","year":2026,"position":"RB","stars":3,"rating_247":87.0,"committed_to":null,"lat":35.0081474,"lng":-90.7898342,"hometown_city":"Forrest City","hometown_state":"AR"},{"name":"Ashton Rowden","year":2026,"position":"RB","stars":4,"rating_247":87.0,"committed_to":"Texas Tech","lat":33.4598415,"lng":-94.4154787,"hometown_city":"New Boston","hometown_state":"TX"},{"name":"Jayreon Campbell","year":2026,"position":"RB","stars":3,"rating_247":86.0,"committed_to":"Indiana","lat":33.8595492,"lng":-84.683824,"hometown_city":"Powder Springs","hometown_state":"GA"},{"name":"Gabriel Wilson","year":2026,"position":"RB","stars":3,"rating_247":86.0,"committed_to":"Iowa State","lat":29.7589382,"lng":-95.3676974,"hometown_city":"Houston","hometown_state":"TX"},{"name":"Dylan McCoy","year":2026,"position":"RB","stars":3,"rating_247":86.0,"committed_to":"North Carolina State","lat":34.1206564,"lng":-84.0043513,"hometown_city":"Buford","hometown_state":"GA"},{"name":"Solomon Baggett","year":2026,"position":"RB","stars":3,"rating_247":86.0,"committed_to":"Arkansas State","lat":30.4112904,"lng":-88.8279165,"hometown_city":"Ocean Springs","hometown_state":"MS"},{"name":"Alvin Celestin","year":2026,"position":"RB","stars":3,"rating_247":86.0,"committed_to":null,"lat":29.5957696,"lng":-90.7195348,"hometown_city":"Houma","hometown_state":"LA"},{"name":"Martavious Boswell","year":2026,"position":"RB","stars":null,"rating_247":86.0,"committed_to":"West Virginia","lat":32.7364,"lng":-89.6678,"hometown_city":"Wesson","hometown_state":"MS"},{"name":"Zamarcus Lindley","year":2026,"position":"RB","stars":3,"rating_247":85.0,"committed_to":"Samford","lat":33.7514966,"lng":-84.7477136,"hometown_city":"Douglasville","hometown_state":"GA"},{"name":"Lavonte Cole","year":2026,"position":"RB","stars":null,"rating_247":85.0,"committed_to":"South Alabama","lat":32.6415,"lng":-83.4426,"hometown_city":"Thomasville","hometown_state":"GA"},{"name":"Ronde Baker","year":2026,"position":"RB","stars":3,"rating_247":85.0,"committed_to":null,"lat":32.0962633,"lng":-90.2942566,"hometown_city":"Terry","hometown_state":"MS"},{"name":"Davis Penn","year":2026,"position":"RB","stars":3,"rating_247":85.0,"committed_to":"Wofford","lat":32.9412363,"lng":-97.1341783,"hometown_city":"Southlake","hometown_state":"TX"},{"name":"Jayzon Thompson","year":2026,"position":"RB","stars":3,"rating_247":85.0,"committed_to":"Cincinnati","lat":35.9603948,"lng":-83.9210261,"hometown_city":"Knoxville","hometown_state":"TN"},{"name":"Ricklan Holmes II","year":2026,"position":"RB","stars":3,"rating_247":85.0,"committed_to":"New Mexico","lat":35.4729886,"lng":-97.5170536,"hometown_city":"Oklahoma City","hometown_state":"OK"},{"name":"Delvecchio Alston II","year":2026,"position":"RB","stars":null,"rating_247":85.0,"committed_to":"Kentucky","lat":32.7794,"lng":-86.8287,"hometown_city":"Trussville","hometown_state":"AL"},{"name":"Caleb Wynn","year":2026,"position":"RB","stars":3,"rating_247":85.0,"committed_to":"South Alabama","lat":33.5853695,"lng":-85.91428175037092,"hometown_city":"Oxford","hometown_state":"AL"},{"name":"Daniel Swinney","year":2026,"position":"RB","stars":null,"rating_247":85.0,"committed_to":"Sacramento State","lat":42.0751,"lng":-93.496,"hometown_city":"Council Bluffs","hometown_state":"IA"},{"name":"Ezell Jolly","year":2026,"position":"RB","stars":null,"rating_247":85.0,"committed_to":"Arkansas State","lat":31.4757,"lng":-99.3312,"hometown_city":"Kilgore","hometown_state":"TX"},{"name":"Decorie Johnson","year":2026,"position":"RB","stars":3,"rating_247":84.0,"committed_to":"Eastern Michigan","lat":26.13784445,"lng":-81.75399813758739,"hometown_city":"Winter Park","hometown_state":"FL"},{"name":"Lawrence Autry","year":2026,"position":"RB","stars":3,"rating_247":84.0,"committed_to":"West Virginia","lat":35.042036,"lng":-89.6645266,"hometown_city":"Collierville","hometown_state":"TN"},{"name":"Marcus Flowers Jr","year":2026,"position":"RB","stars":3,"rating_247":83.0,"committed_to":null,"lat":34.00678,"lng":-90.0567563,"hometown_city":"Charleston","hometown_state":"MS"},{"name":"Amar'e Johnson","year":2026,"position":"RB","stars":3,"rating_247":83.0,"committed_to":"Missouri State","lat":28.5421109,"lng":-81.3790304,"hometown_city":"Orlando","hometown_state":"FL"},{"name":"Kaden Winkfield","year":2026,"position":"RB","stars":null,"rating_247":83.0,"committed_to":"Sam Houston","lat":31.4757,"lng":-99.3312,"hometown_city":"Aledo","hometown_state":"TX"},{"name":"Tyrese Woodgett","year":2026,"position":"RB","stars":null,"rating_247":83.0,"committed_to":"Georgia Southern","lat":32.6415,"lng":-83.4426,"hometown_city":"Milledgeville","hometown_state":"GA"},{"name":"Hudson Higgins","year":2026,"position":"RB","stars":3,"rating_247":82.0,"committed_to":"UAB","lat":34.79981,"lng":-87.677251,"hometown_city":"Florence","hometown_state":"AL"},{"name":"Reggie Reece","year":2026,"position":"RB","stars":null,"rating_247":null,"committed_to":null,"lat":38.4937,"lng":-98.3804,"hometown_city":"Shawnee","hometown_state":"KS"},{"name":"Javion Garrett","year":2026,"position":"RB","stars":null,"rating_247":null,"committed_to":null,"lat":31.4757,"lng":-99.3312,"hometown_city":"Katy","hometown_state":"TX"},{"name":"Kaleb Woods","year":2026,"position":"RB","stars":null,"rating_247":null,"committed_to":null,"lat":28.6305,"lng":-82.4497,"hometown_city":"Newberry","hometown_state":"FL"},{"name":"Cody Jordan","year":2026,"position":"RB","stars":null,"rating_247":null,"committed_to":null,"lat":31.4757,"lng":-99.3312,"hometown_city":"The Woodlands","hometown_state":"TX"},{"name":"Corey Barber Jr.","year":2026,"position":"WR","stars":null,"rating_247":96.0,"committed_to":"Louisiana State","lat":32.7794,"lng":-86.8287,"hometown_city":"Pinson","hometown_state":"AL"},{"name":"Ethan Feaster","year":2026,"position":"WR","stars":4,"rating_247":96.0,"committed_to":"Southern California","lat":32.6061241,"lng":-96.865612653687,"hometown_city":"DeSoto","hometown_state":"TX"},{"name":"Naeem Burroughs","year":2026,"position":"WR","stars":4,"rating_247":95.0,"committed_to":"Clemson","lat":30.3321838,"lng":-81.655651,"hometown_city":"Jacksonville","hometown_state":"FL"},{"name":"Trez Davis","year":2026,"position":"WR","stars":4,"rating_247":92.0,"committed_to":"Washington","lat":32.5184775,"lng":-92.1476353,"hometown_city":"West Monroe","hometown_state":"LA"},{"name":"Jayden Warren","year":2026,"position":"WR","stars":4,"rating_247":92.0,"committed_to":"Texas A&M","lat":29.3521203,"lng":-95.460341,"hometown_city":"Rosharon","hometown_state":"TX"},{"name":"Kenny Darby","year":2026,"position":"WR","stars":4,"rating_247":92.0,"committed_to":"Kentucky","lat":32.5369356,"lng":-93.6952689,"hometown_city":"Bossier City","hometown_state":"LA"},{"name":"Zay Anderson","year":2026,"position":"WR","stars":4,"rating_247":91.0,"committed_to":"Tennessee","lat":36.1631575,"lng":-82.8309861,"hometown_city":"Greeneville","hometown_state":"TN"},{"name":"Ryan Mosley","year":2026,"position":"WR","stars":4,"rating_247":90.0,"committed_to":"Georgia","lat":33.5801103,"lng":-85.0766113,"hometown_city":"Carrollton","hometown_state":"GA"},{"name":"Jeremiah Bushnell","year":2026,"position":"WR","stars":3,"rating_247":90.0,"committed_to":"Houston","lat":30.2368772,"lng":-93.0137569,"hometown_city":"Iowa","hometown_state":"LA"},{"name":"Bubba Frazier","year":2026,"position":"WR","stars":4,"rating_247":90.0,"committed_to":"Notre Dame","lat":32.0809263,"lng":-81.0911768,"hometown_city":"Savannah","hometown_state":"GA"},{"name":"Jayden Cration","year":2026,"position":"WR","stars":3,"rating_247":90.0,"committed_to":"Mississippi State","lat":32.6126381,"lng":-90.0367512,"hometown_city":"Canton","hometown_state":"MS"},{"name":"Zayion Cotton","year":2026,"position":"WR","stars":4,"rating_247":90.0,"committed_to":"Mississippi State","lat":33.7690049,"lng":-89.8084192,"hometown_city":"Grenada","hometown_state":"MS"},{"name":"Rodney Dunbar","year":2026,"position":"WR","stars":null,"rating_247":89.0,"committed_to":"Pittsburgh","lat":32.6415,"lng":-83.4426,"hometown_city":"Thomasville","hometown_state":"GA"},{"name":"Roderick Tezeno","year":2026,"position":"WR","stars":3,"rating_247":89.0,"committed_to":"Southern California","lat":30.5335302,"lng":-92.081509,"hometown_city":"Opelousas","hometown_state":"LA"},{"name":"Zion Crumpton","year":2026,"position":"WR","stars":3,"rating_247":89.0,"committed_to":"Mississippi State","lat":32.3669656,"lng":-86.3006485,"hometown_city":"Montgomery","hometown_state":"AL"},{"name":"Brayden Allen","year":2026,"position":"WR","stars":4,"rating_247":89.0,"committed_to":"Louisiana State","lat":30.2240897,"lng":-92.0198427,"hometown_city":"Lafayette","hometown_state":"LA"},{"name":"Maurice Mathis Jr.","year":2026,"position":"WR","stars":null,"rating_247":88.0,"committed_to":"Alabama","lat":32.6415,"lng":-83.4426,"hometown_city":"Warner Robins","hometown_state":"GA"},{"name":"Khamill Pruitt","year":2026,"position":"WR","stars":3,"rating_247":88.0,"committed_to":"Texas Christian","lat":32.701938999999996,"lng":-97.10562379033699,"hometown_city":"Arlington","hometown_state":"TX"},{"name":"O'Mari Johnson","year":2026,"position":"WR","stars":3,"rating_247":88.0,"committed_to":null,"lat":32.2990384,"lng":-90.1847691,"hometown_city":"Jackson","hometown_state":"MS"},{"name":"Dylan Cope","year":2026,"position":"WR","stars":3,"rating_247":88.0,"committed_to":"Virginia","lat":33.626629,"lng":-86.5549335251678,"hometown_city":"Trussville","hometown_state":"AL"},{"name":"Kamauri Austin","year":2026,"position":"WR","stars":3,"rating_247":88.0,"committed_to":"Appalachian State","lat":34.5959265,"lng":-92.4890469,"hometown_city":"Bryant","hometown_state":"AR"},{"name":"Mike Brown","year":2026,"position":"WR","stars":3,"rating_247":88.0,"committed_to":"Texas A&M","lat":30.0798826,"lng":-95.4172549,"hometown_city":"Spring","hometown_state":"TX"},{"name":"Tatum Bell Jr.","year":2026,"position":"WR","stars":3,"rating_247":88.0,"committed_to":"Nevada, Las Vegas","lat":33.046233,"lng":-96.994174,"hometown_city":"Lewisville","hometown_state":"TX"},{"name":"Brady Marchese","year":2026,"position":"WR","stars":4,"rating_247":88.0,"committed_to":"Auburn","lat":34.1650972,"lng":-84.7999383,"hometown_city":"Cartersville","hometown_state":"GA"},{"name":"Keymian Henderson Jr.","year":2026,"position":"WR","stars":3,"rating_247":88.0,"committed_to":"Mississippi State","lat":32.1570412,"lng":-94.338114,"hometown_city":"Carthage","hometown_state":"TX"},{"name":"Xavier Green","year":2026,"position":"WR","stars":3,"rating_247":88.0,"committed_to":"Tulsa","lat":33.0890094,"lng":-96.8863922,"hometown_city":"The Colony","hometown_state":"TX"},{"name":"Deshaun Fedd","year":2026,"position":"WR","stars":null,"rating_247":88.0,"committed_to":"Arkansas State","lat":32.6415,"lng":-83.4426,"hometown_city":"Cordele","hometown_state":"GA"},{"name":"Keon Hutchins","year":2026,"position":"WR","stars":null,"rating_247":88.0,"committed_to":"West Virginia","lat":32.7364,"lng":-89.6678,"hometown_city":"Senatobia","hometown_state":"MS"},{"name":"Brock Boyd","year":2026,"position":"WR","stars":3,"rating_247":87.0,"committed_to":"Ohio State","lat":32.9412363,"lng":-97.1341783,"hometown_city":"Southlake","hometown_state":"TX"},{"name":"Larry Miles","year":2026,"position":"WR","stars":3,"rating_247":87.0,"committed_to":"Nebraska","lat":28.5421109,"lng":-81.3790304,"hometown_city":"Orlando","hometown_state":"FL"},{"name":"Nalin Scott","year":2026,"position":"WR","stars":3,"rating_247":87.0,"committed_to":"Nebraska","lat":33.8595492,"lng":-84.683824,"hometown_city":"Powder Springs","hometown_state":"GA"},{"name":"Robert Oliver","year":2026,"position":"WR","stars":3,"rating_247":87.0,"committed_to":"West Virginia","lat":30.5168639,"lng":-86.482172,"hometown_city":"Niceville","hometown_state":"FL"},{"name":"Ty'lan Fortune","year":2026,"position":"WR","stars":3,"rating_247":87.0,"committed_to":"Arkansas State","lat":32.7326356,"lng":-89.5361825,"hometown_city":"Carthage","hometown_state":"MS"},{"name":"Kentrell Davis","year":2026,"position":"WR","stars":3,"rating_247":87.0,"committed_to":"Georgia Tech","lat":33.5206824,"lng":-86.8024326,"hometown_city":"Birmingham","hometown_state":"AL"},{"name":"Dawson Quarterman","year":2026,"position":"WR","stars":3,"rating_247":87.0,"committed_to":"East Carolina","lat":33.8389977,"lng":-83.9007382,"hometown_city":"Loganville","hometown_state":"GA"},{"name":"DJ Broughton Jr.","year":2026,"position":"WR","stars":null,"rating_247":87.0,"committed_to":"Auburn","lat":32.7794,"lng":-86.8287,"hometown_city":"Semmes","hometown_state":"AL"},{"name":"William Pressley","year":2026,"position":"WR","stars":null,"rating_247":87.0,"committed_to":"Miami (OH)","lat":35.858,"lng":-86.3505,"hometown_city":"Oak Ridge","hometown_state":"TN"},{"name":"Kedrick Triplett","year":2026,"position":"WR","stars":null,"rating_247":87.0,"committed_to":"West Virginia","lat":32.7364,"lng":-89.6678,"hometown_city":"Poplarville","hometown_state":"MS"},{"name":"Zechariah Jenkins","year":2026,"position":"WR","stars":3,"rating_247":86.0,"committed_to":"Memphis","lat":31.74096,"lng":-89.13382003619111,"hometown_city":"Laurel","hometown_state":"MS"},{"name":"Kristion Brooks","year":2026,"position":"WR","stars":3,"rating_247":86.0,"committed_to":"Louisiana","lat":30.6485191,"lng":-91.1564961,"hometown_city":"Zachary","hometown_state":"LA"},{"name":"Robert Haynes IV","year":2026,"position":"WR","stars":3,"rating_247":86.0,"committed_to":"Hawaii","lat":29.6185669,"lng":-95.5377215,"hometown_city":"Missouri City","hometown_state":"TX"},{"name":"H'eij Jackson","year":2026,"position":"WR","stars":null,"rating_247":86.0,"committed_to":"Cincinnati","lat":31.0689,"lng":-91.9968,"hometown_city":"New Orleans","hometown_state":"LA"},{"name":"Hayden Moore","year":2026,"position":"WR","stars":3,"rating_247":86.0,"committed_to":"Minnesota","lat":29.6463535,"lng":-82.6065023,"hometown_city":"Newberry","hometown_state":"FL"},{"name":"Elijah West","year":2026,"position":"WR","stars":3,"rating_247":86.0,"committed_to":"Florida Atlantic","lat":30.605427,"lng":-87.344442,"hometown_city":"Cantonment","hometown_state":"FL"},{"name":"Barrett Schulz","year":2026,"position":"WR","stars":3,"rating_247":86.0,"committed_to":"Florida International","lat":28.756618000000003,"lng":-81.33888382214167,"hometown_city":"Lake Mary","hometown_state":"FL"},{"name":"Corbin Glasco","year":2026,"position":"WR","stars":3,"rating_247":86.0,"committed_to":"Kansas","lat":33.2150386,"lng":-97.1330516,"hometown_city":"Denton","hometown_state":"TX"},{"name":"Jaylin Taylor","year":2026,"position":"WR","stars":3,"rating_247":86.0,"committed_to":"Memphis","lat":33.5853695,"lng":-85.91428175037092,"hometown_city":"Oxford","hometown_state":"AL"},{"name":"Jeremiah Tabb","year":2026,"position":"WR","stars":3,"rating_247":86.0,"committed_to":"Kennesaw State","lat":33.3848933,"lng":-86.8070484,"hometown_city":"Hoover","hometown_state":"AL"},{"name":"Davis McCray","year":2026,"position":"WR","stars":3,"rating_247":86.0,"committed_to":"Kentucky","lat":29.4246002,"lng":-98.4951405,"hometown_city":"San Antonio","hometown_state":"TX"},{"name":"Jonathan Stafford Jr.","year":2026,"position":"WR","stars":3,"rating_247":86.0,"committed_to":"Western Kentucky","lat":33.8389977,"lng":-83.9007382,"hometown_city":"Loganville","hometown_state":"GA"},{"name":"Kobe Adeleke-Hokes","year":2026,"position":"WR","stars":3,"rating_247":86.0,"committed_to":"Wake Forest","lat":34.0514898,"lng":-84.0712997,"hometown_city":"Suwanee","hometown_state":"GA"},{"name":"Bryson Maddox","year":2026,"position":"WR","stars":3,"rating_247":86.0,"committed_to":"Middle Tennessee","lat":36.1034126,"lng":-84.1318632,"hometown_city":"Clinton","hometown_state":"TN"},{"name":"Zion Hudson","year":2026,"position":"WR","stars":3,"rating_247":86.0,"committed_to":"James Madison","lat":32.5537585,"lng":-83.8874084,"hometown_city":"Fort Valley","hometown_state":"GA"},{"name":"Josiah Warrior-Benson","year":2026,"position":"WR","stars":3,"rating_247":85.0,"committed_to":"Central Arkansas","lat":34.7464809,"lng":-92.2895948,"hometown_city":"Little Rock","hometown_state":"AR"},{"name":"Trace Burney","year":2026,"position":"WR","stars":3,"rating_247":85.0,"committed_to":"James Madison","lat":30.1654707,"lng":-81.7016346,"hometown_city":"Orange Park","hometown_state":"FL"},{"name":"Case Thomas","year":2026,"position":"WR","stars":3,"rating_247":85.0,"committed_to":"Mississippi","lat":32.4618086,"lng":-90.1153638,"hometown_city":"Madison","hometown_state":"MS"},{"name":"Imari Jehiel","year":2026,"position":"WR","stars":3,"rating_247":85.0,"committed_to":"Texas Tech","lat":32.747893,"lng":-96.4719289,"hometown_city":"Forney","hometown_state":"TX"},{"name":"Kena Rego","year":2026,"position":"WR","stars":3,"rating_247":85.0,"committed_to":"Arkansas State","lat":33.3848933,"lng":-86.8070484,"hometown_city":"Hoover","hometown_state":"AL"},{"name":"Braiden Stevens","year":2026,"position":"WR","stars":3,"rating_247":85.0,"committed_to":"Minnesota","lat":39.3703535,"lng":-94.781086,"hometown_city":"Platte City","hometown_state":"MO"},{"name":"Brandon Brown Jr.","year":2026,"position":"WR","stars":3,"rating_247":85.0,"committed_to":"Colorado State","lat":31.1171441,"lng":-97.727796,"hometown_city":"Killeen","hometown_state":"TX"},{"name":"Blair Irvin III","year":2026,"position":"WR","stars":3,"rating_247":85.0,"committed_to":"Arkansas","lat":36.3728538,"lng":-94.2088172,"hometown_city":"Bentonville","hometown_state":"AR"},{"name":"Jaylen Pile","year":2026,"position":"WR","stars":3,"rating_247":85.0,"committed_to":"Michigan","lat":32.7762719,"lng":-96.7968559,"hometown_city":"Dallas","hometown_state":"TX"},{"name":"Benny Okwura","year":2026,"position":"WR","stars":3,"rating_247":85.0,"committed_to":"Texas-El Paso","lat":29.690292,"lng":-95.8996261,"hometown_city":"Fulshear","hometown_state":"TX"},{"name":"Wyatt Villarreal","year":2026,"position":"WR","stars":3,"rating_247":85.0,"committed_to":"Pittsburgh","lat":33.3238976,"lng":-96.785342,"hometown_city":"Celina","hometown_state":"TX"},{"name":"Amarean Porter","year":2026,"position":"WR","stars":3,"rating_247":85.0,"committed_to":null,"lat":33.0151201,"lng":-96.5388789,"hometown_city":"Wylie","hometown_state":"TX"},{"name":"Mouhamadou Mane","year":2026,"position":"WR","stars":3,"rating_247":85.0,"committed_to":"Western Carolina","lat":32.495294,"lng":-83.6099696,"hometown_city":"Kathleen","hometown_state":"GA"},{"name":"Kabran Paul","year":2026,"position":"WR","stars":3,"rating_247":85.0,"committed_to":"Appalachian State","lat":30.4380832,"lng":-84.2809332,"hometown_city":"Tallahassee","hometown_state":"FL"},{"name":"Kelvin Brown","year":2026,"position":"WR","stars":3,"rating_247":85.0,"committed_to":"Boston College","lat":30.3321838,"lng":-81.655651,"hometown_city":"Jacksonville","hometown_state":"FL"},{"name":"Chavel Williams Jr.","year":2026,"position":"WR","stars":3,"rating_247":85.0,"committed_to":"Arkansas State","lat":31.3271189,"lng":-89.2903392,"hometown_city":"Hattiesburg","hometown_state":"MS"},{"name":"Dallas Boozer","year":2026,"position":"WR","stars":3,"rating_247":85.0,"committed_to":"Arkansas State","lat":33.2385763,"lng":-96.7866058,"hometown_city":"Prosper","hometown_state":"TX"},{"name":"Jaivyn Moore","year":2026,"position":"WR","stars":null,"rating_247":85.0,"committed_to":null,"lat":42.0751,"lng":-93.496,"hometown_city":"Council Bluffs","hometown_state":"IA"},{"name":"Blake McLane","year":2026,"position":"WR","stars":3,"rating_247":84.0,"committed_to":"Texas State","lat":33.1976496,"lng":-96.6154471,"hometown_city":"McKinney","hometown_state":"TX"},{"name":"Keidric Osunde-Brown","year":2026,"position":"WR","stars":3,"rating_247":84.0,"committed_to":"Louisiana-Monroe","lat":32.701938999999996,"lng":-97.10562379033699,"hometown_city":"Arlington","hometown_state":"TX"},{"name":"Quintin Roy","year":2026,"position":"WR","stars":3,"rating_247":84.0,"committed_to":null,"lat":34.2157064,"lng":-92.0140402,"hometown_city":"Pine Bluff","hometown_state":"AR"},{"name":"Carl Jean-Bart","year":2026,"position":"WR","stars":3,"rating_247":84.0,"committed_to":"Eastern Michigan","lat":28.5421109,"lng":-81.3790304,"hometown_city":"Orlando","hometown_state":"FL"},{"name":"Greg Wilfred","year":2026,"position":"WR","stars":3,"rating_247":84.0,"committed_to":"West Virginia","lat":29.9499323,"lng":-90.0701156,"hometown_city":"New Orleans","hometown_state":"LA"},{"name":"Elijah Lucas","year":2026,"position":"WR","stars":3,"rating_247":84.0,"committed_to":"Western Michigan","lat":38.6268039,"lng":-90.1994097,"hometown_city":"St. Louis","hometown_state":"MO"},{"name":"Kimauri Farmer","year":2026,"position":"WR","stars":3,"rating_247":84.0,"committed_to":null,"lat":33.5801103,"lng":-85.0766113,"hometown_city":"Carrollton","hometown_state":"GA"},{"name":"Courtney Lewis Jr.","year":2026,"position":"WR","stars":null,"rating_247":84.0,"committed_to":"Tulsa","lat":31.4757,"lng":-99.3312,"hometown_city":"Katy","hometown_state":"TX"},{"name":"Brandon Goliday","year":2026,"position":"WR","stars":3,"rating_247":84.0,"committed_to":"Arkansas State","lat":36.0806394,"lng":-83.7799037,"hometown_city":"Antioch","hometown_state":"TN"},{"name":"Champ Davis","year":2026,"position":"WR","stars":null,"rating_247":83.0,"committed_to":"Southern","lat":34.8938,"lng":-92.4426,"hometown_city":"Greenwood","hometown_state":"AR"},{"name":"Caleb Tucker","year":2026,"position":"WR","stars":3,"rating_247":83.0,"committed_to":"Charlotte","lat":34.5959265,"lng":-92.4890469,"hometown_city":"Bryant","hometown_state":"AR"},{"name":"Elijah Otieno","year":2026,"position":"WR","stars":3,"rating_247":83.0,"committed_to":"Wake Forest","lat":32.747893,"lng":-96.4719289,"hometown_city":"Forney","hometown_state":"TX"},{"name":"Cam Blivens","year":2026,"position":"WR","stars":3,"rating_247":83.0,"committed_to":"Clemson","lat":36.1622296,"lng":-86.7743531,"hometown_city":"Nashville","hometown_state":"TN"},{"name":"Prince Hall","year":2026,"position":"WR","stars":3,"rating_247":83.0,"committed_to":"Texas-San Antonio","lat":31.1171441,"lng":-97.727796,"hometown_city":"Killeen","hometown_state":"TX"},{"name":"Ty Sexton","year":2026,"position":"WR","stars":null,"rating_247":83.0,"committed_to":"Sam Houston","lat":31.4757,"lng":-99.3312,"hometown_city":"Fulshear","hometown_state":"TX"},{"name":"Quinn Martinez","year":2026,"position":"WR","stars":3,"rating_247":83.0,"committed_to":null,"lat":37.7986184,"lng":-121.2117148,"hometown_city":"Manteca","hometown_state":"CA"},{"name":"Preston Jackson","year":2026,"position":"WR","stars":3,"rating_247":82.0,"committed_to":"Rice","lat":32.747893,"lng":-96.4719289,"hometown_city":"Forney","hometown_state":"TX"},{"name":"Nick Hampton","year":2026,"position":"WR","stars":null,"rating_247":82.0,"committed_to":"Troy","lat":32.7794,"lng":-86.8287,"hometown_city":"Gulf Shores","hometown_state":"AL"},{"name":"Nate Branch","year":2026,"position":"WR","stars":null,"rating_247":82.0,"committed_to":"Appalachian State","lat":32.7364,"lng":-89.6678,"hometown_city":"Fulton","hometown_state":"MS"},{"name":"Jackson Hampton","year":2026,"position":"WR","stars":null,"rating_247":null,"committed_to":null,"lat":34.8938,"lng":-92.4426,"hometown_city":"Maumelle","hometown_state":"AR"},{"name":"Marcus Adam Carter Jr.","year":2026,"position":"WR","stars":null,"rating_247":null,"committed_to":null,"lat":32.6415,"lng":-83.4426,"hometown_city":"Douglasville","hometown_state":"GA"},{"name":"Tyion Jacobs","year":2026,"position":"WR","stars":null,"rating_247":null,"committed_to":null,"lat":28.6305,"lng":-82.4497,"hometown_city":"Cocoa","hometown_state":"FL"},{"name":"Hayden Morris","year":2026,"position":"WR","stars":null,"rating_247":null,"committed_to":null,"lat":33.9169,"lng":-80.8964,"hometown_city":"Columbia","hometown_state":"SC"},{"name":"Carlton Mims","year":2026,"position":"WR","stars":null,"rating_247":null,"committed_to":null,"lat":31.4757,"lng":-99.3312,"hometown_city":"Little Elm","hometown_state":"TX"},{"name":"Jeremiah Birdlow","year":2026,"position":"TE","stars":null,"rating_247":87.0,"committed_to":"Louisiana","lat":31.0689,"lng":-91.9968,"hometown_city":"Slidell","hometown_state":"LA"},{"name":"Parker Ord","year":2026,"position":"TE","stars":3,"rating_247":87.0,"committed_to":"BYU","lat":33.1506744,"lng":-96.8236116,"hometown_city":"Frisco","hometown_state":"TX"},{"name":"Adam Gehm","year":2026,"position":"TE","stars":3,"rating_247":87.0,"committed_to":"Vanderbilt","lat":40.8027772,"lng":-80.1280528,"hometown_city":"Harmony","hometown_state":"PA"},{"name":"Luke Hutchinson","year":2026,"position":"TE","stars":3,"rating_247":86.0,"committed_to":"Mississippi State","lat":36.1622296,"lng":-86.7743531,"hometown_city":"Nashville","hometown_state":"TN"},{"name":"Will Vala","year":2026,"position":"TE","stars":3,"rating_247":86.0,"committed_to":"Illinois","lat":41.7938195,"lng":-88.010376,"hometown_city":"Downers Grove","hometown_state":"IL"},{"name":"Brady Owens","year":2026,"position":"TE","stars":3,"rating_247":86.0,"committed_to":"Rutgers","lat":38.8903961,"lng":-77.0841585,"hometown_city":"Arlington","hometown_state":"VA"},{"name":"Kari Ashley","year":2026,"position":"TE","stars":null,"rating_247":86.0,"committed_to":"Texas Christian","lat":31.4757,"lng":-99.3312,"hometown_city":"Corsicana","hometown_state":"TX"},{"name":"Julius Mathis","year":2026,"position":"TE","stars":3,"rating_247":85.0,"committed_to":"South Alabama","lat":33.1131834,"lng":-90.0531408,"hometown_city":"Lexington","hometown_state":"MS"},{"name":"Parker Almanza","year":2026,"position":"TE","stars":3,"rating_247":85.0,"committed_to":"Baylor","lat":33.00367,"lng":-97.20303354151261,"hometown_city":"Trophy Club","hometown_state":"TX"},{"name":"Jude Cascone","year":2026,"position":"TE","stars":3,"rating_247":85.0,"committed_to":"Alabama","lat":33.9528472,"lng":-84.5496148,"hometown_city":"Marietta","hometown_state":"GA"},{"name":"Shane Kiley","year":2026,"position":"TE","stars":null,"rating_247":84.0,"committed_to":"San Jose State","lat":37.1841,"lng":-119.4696,"hometown_city":"San Clemente","hometown_state":"CA"},{"name":"William Mayes","year":2026,"position":"TE","stars":3,"rating_247":84.0,"committed_to":"Louisiana Tech","lat":29.7857853,"lng":-95.8243956,"hometown_city":"Katy","hometown_state":"TX"},{"name":"Adon Turner","year":2026,"position":"TE","stars":null,"rating_247":83.0,"committed_to":"Eastern Michigan","lat":37.1841,"lng":-119.4696,"hometown_city":"Oroville","hometown_state":"CA"},{"name":"Jack Berquist","year":2026,"position":"TE","stars":null,"rating_247":81.0,"committed_to":"Georgia Southern","lat":28.6305,"lng":-82.4497,"hometown_city":"Ponte Vedra Beach","hometown_state":"FL"},{"name":"Dawson McFadin","year":2026,"position":"TE","stars":3,"rating_247":80.0,"committed_to":"Arkansas State","lat":35.0886963,"lng":-92.4421011,"hometown_city":"Conway","hometown_state":"AR"},{"name":"Mason Riddle","year":2026,"position":"TE","stars":null,"rating_247":null,"committed_to":"Air Force","lat":28.6305,"lng":-82.4497,"hometown_city":"New Smyrna Beach","hometown_state":"FL"},{"name":"Dylan Harris","year":2026,"position":"TE","stars":null,"rating_247":null,"committed_to":null,"lat":28.6305,"lng":-82.4497,"hometown_city":"Ocala","hometown_state":"FL"},{"name":"Felix Ojo","year":2026,"position":"OT","stars":5,"rating_247":98.0,"committed_to":"Texas Tech","lat":32.5631924,"lng":-97.1416768,"hometown_city":"Mansfield","hometown_state":"TX"},{"name":"Evan Goodwin","year":2026,"position":"OT","stars":4,"rating_247":90.0,"committed_to":"SMU","lat":34.5556489,"lng":-92.5212702,"hometown_city":"Bauxite","hometown_state":"AR"},{"name":"Emanuel Tucker","year":2026,"position":"OT","stars":4,"rating_247":90.0,"committed_to":"Mississippi","lat":34.4942683,"lng":-89.0078418,"hometown_city":"New Albany","hometown_state":"MS"},{"name":"Javeion Cooper","year":2026,"position":"OT","stars":3,"rating_247":88.0,"committed_to":"Syracuse","lat":28.0836269,"lng":-80.6081089,"hometown_city":"Melbourne","hometown_state":"FL"},{"name":"Kole Seaton","year":2026,"position":"OT","stars":3,"rating_247":88.0,"committed_to":"Oklahoma State","lat":32.7666103,"lng":-96.599472,"hometown_city":"Mesquite","hometown_state":"TX"},{"name":"Brysen Wessell","year":2026,"position":"OT","stars":3,"rating_247":88.0,"committed_to":"Missouri","lat":37.3828316,"lng":-89.6684487,"hometown_city":"Jackson","hometown_state":"MO"},{"name":"Keegan Collins","year":2026,"position":"OT","stars":3,"rating_247":88.0,"committed_to":"Kansas State","lat":34.9798392,"lng":-101.9193395,"hometown_city":"Canyon","hometown_state":"TX"},{"name":"TJ Taylor","year":2026,"position":"OT","stars":null,"rating_247":88.0,"committed_to":"Illinois","lat":37.1841,"lng":-119.4696,"hometown_city":"Valencia","hometown_state":"CA"},{"name":"Richard Thigpen","year":2026,"position":"OT","stars":3,"rating_247":87.0,"committed_to":"Memphis","lat":36.1622296,"lng":-86.7743531,"hometown_city":"Nashville","hometown_state":"TN"},{"name":"Jacob Crow","year":2026,"position":"OT","stars":3,"rating_247":87.0,"committed_to":"Texas Tech","lat":35.7895271,"lng":-83.9737935,"hometown_city":"Alcoa","hometown_state":"TN"},{"name":"Hunter Sprangers","year":2026,"position":"OT","stars":3,"rating_247":86.0,"committed_to":null,"lat":44.2717086,"lng":-88.3400807,"hometown_city":"Kimberly","hometown_state":"WI"},{"name":"Xavier Payne","year":2026,"position":"OT","stars":3,"rating_247":86.0,"committed_to":"Colorado","lat":28.5421109,"lng":-81.3790304,"hometown_city":"Orlando","hometown_state":"FL"},{"name":"Jordan Burnett","year":2026,"position":"OT","stars":3,"rating_247":86.0,"committed_to":"Texas Christian","lat":29.6185669,"lng":-95.5377215,"hometown_city":"Missouri City","hometown_state":"TX"},{"name":"Khalil Sanogo","year":2026,"position":"OT","stars":3,"rating_247":86.0,"committed_to":"Arizona","lat":32.5631924,"lng":-97.1416768,"hometown_city":"Mansfield","hometown_state":"TX"},{"name":"Kasiyah Charlton","year":2026,"position":"OT","stars":3,"rating_247":86.0,"committed_to":"UCF","lat":31.1499528,"lng":-81.4914894,"hometown_city":"Brunswick","hometown_state":"GA"},{"name":"Jayden Ross","year":2026,"position":"OT","stars":3,"rating_247":86.0,"committed_to":"Mississippi State","lat":30.4112904,"lng":-88.8279165,"hometown_city":"Ocean Springs","hometown_state":"MS"},{"name":"Charles Humphrey","year":2026,"position":"OT","stars":3,"rating_247":86.0,"committed_to":"Southern","lat":35.9603948,"lng":-83.9210261,"hometown_city":"Knoxville","hometown_state":"TN"},{"name":"Mason Mathis","year":2026,"position":"OT","stars":3,"rating_247":86.0,"committed_to":"Auburn","lat":30.6324149,"lng":-87.0396881,"hometown_city":"Milton","hometown_state":"FL"},{"name":"Tucker Young","year":2026,"position":"OT","stars":3,"rating_247":86.0,"committed_to":"Arkansas","lat":34.5038393,"lng":-93.0552437,"hometown_city":"Hot Springs","hometown_state":"AR"},{"name":"Jai'Vale Mayes-Hudson","year":2026,"position":"OT","stars":null,"rating_247":86.0,"committed_to":"Louisiana","lat":32.7794,"lng":-86.8287,"hometown_city":"Daphne","hometown_state":"AL"},{"name":"Ben Corhei","year":2026,"position":"OT","stars":null,"rating_247":86.0,"committed_to":"Louisville","lat":32.6415,"lng":-83.4426,"hometown_city":"Valdosta","hometown_state":"GA"},{"name":"Jonah Rodriguez","year":2026,"position":"OT","stars":null,"rating_247":86.0,"committed_to":"North Carolina","lat":37.1841,"lng":-119.4696,"hometown_city":"Chula Vista","hometown_state":"CA"},{"name":"Barrett Maddox","year":2026,"position":"OT","stars":null,"rating_247":86.0,"committed_to":"UAB","lat":32.7364,"lng":-89.6678,"hometown_city":"Fulton","hometown_state":"MS"},{"name":"Amari Smith","year":2026,"position":"OT","stars":null,"rating_247":86.0,"committed_to":"Texas State","lat":32.7364,"lng":-89.6678,"hometown_city":"Senatobia","hometown_state":"MS"},{"name":"Steven Moore","year":2026,"position":"OT","stars":null,"rating_247":86.0,"committed_to":"Florida State","lat":38.4937,"lng":-98.3804,"hometown_city":"Garden City","hometown_state":"KS"},{"name":"Tre Glover","year":2026,"position":"OT","stars":3,"rating_247":85.0,"committed_to":"Appalachian State","lat":32.6200973,"lng":-83.606568,"hometown_city":"Warner Robins","hometown_state":"GA"},{"name":"Grant Kitchens","year":2026,"position":"OT","stars":3,"rating_247":85.0,"committed_to":"Southern Mississippi","lat":33.1237377,"lng":-89.0550624,"hometown_city":"Louisville","hometown_state":"MS"},{"name":"Hudson Reed","year":2026,"position":"OT","stars":3,"rating_247":85.0,"committed_to":"UAB","lat":33.5206824,"lng":-86.8024326,"hometown_city":"Birmingham","hometown_state":"AL"},{"name":"Joshua Battle","year":2026,"position":"OT","stars":null,"rating_247":85.0,"committed_to":"East Carolina","lat":32.6415,"lng":-83.4426,"hometown_city":"College Park","hometown_state":"GA"},{"name":"Asa Holbert","year":2026,"position":"OT","stars":3,"rating_247":85.0,"committed_to":"Western Kentucky","lat":34.1520406,"lng":-85.6788531,"hometown_city":"Centre","hometown_state":"AL"},{"name":"Leyonte Chandler","year":2026,"position":"OT","stars":3,"rating_247":84.0,"committed_to":"Rice","lat":32.8457865,"lng":-97.0667142473263,"hometown_city":"Euless","hometown_state":"TX"},{"name":"Kison Shepard","year":2026,"position":"OT","stars":null,"rating_247":84.0,"committed_to":"Mississippi State","lat":32.7364,"lng":-89.6678,"hometown_city":"Scooba","hometown_state":"MS"},{"name":"Nick Anciaux","year":2026,"position":"OT","stars":3,"rating_247":84.0,"committed_to":"Tulsa","lat":37.6922361,"lng":-97.3375448,"hometown_city":"Wichita","hometown_state":"KS"},{"name":"KC Ekwu","year":2026,"position":"OT","stars":3,"rating_247":83.0,"committed_to":"North Texas","lat":32.7965165,"lng":-96.5608242,"hometown_city":"Sunnyvale","hometown_state":"TX"},{"name":"Michael Bowens Jr.","year":2026,"position":"OT","stars":3,"rating_247":83.0,"committed_to":"Louisiana","lat":31.1051779,"lng":-87.0721918,"hometown_city":"Brewton","hometown_state":"AL"},{"name":"Kendrick Hall","year":2026,"position":"OT","stars":null,"rating_247":83.0,"committed_to":"Old Dominion","lat":38.4937,"lng":-98.3804,"hometown_city":"El Dorado","hometown_state":"KS"},{"name":"Tanner Welch","year":2026,"position":"OT","stars":null,"rating_247":83.0,"committed_to":"Arkansas State","lat":32.7364,"lng":-89.6678,"hometown_city":"Senatobia","hometown_state":"MS"},{"name":"Julius Dumas","year":2026,"position":"OT","stars":3,"rating_247":83.0,"committed_to":"Missouri State","lat":33.7514966,"lng":-84.7477136,"hometown_city":"Douglasville","hometown_state":"GA"},{"name":"Wesley Dallao-Kubik","year":2026,"position":"OT","stars":3,"rating_247":81.0,"committed_to":"Texas-El Paso","lat":32.8809603,"lng":-97.155012,"hometown_city":"Colleyville","hometown_state":"TX"},{"name":"Bryson Esser","year":2026,"position":"OT","stars":null,"rating_247":80.0,"committed_to":"East Carolina","lat":38.4937,"lng":-98.3804,"hometown_city":"Garden City","hometown_state":"KS"},{"name":"Terrance Brown","year":2026,"position":"OT","stars":3,"rating_247":80.0,"committed_to":"Texas State","lat":31.1171441,"lng":-97.727796,"hometown_city":"Killeen","hometown_state":"TX"},{"name":"Jahlon Harris","year":2026,"position":"OT","stars":3,"rating_247":80.0,"committed_to":"Appalachian State","lat":34.8667565,"lng":-92.4043219,"hometown_city":"Maumelle","hometown_state":"AR"},{"name":"Dylan Tabb","year":2026,"position":"OT","stars":null,"rating_247":null,"committed_to":null,"lat":32.7794,"lng":-86.8287,"hometown_city":"Orange Beach","hometown_state":"AL"},{"name":"Jaylyn Rainey","year":2026,"position":"OT","stars":null,"rating_247":null,"committed_to":null,"lat":32.7794,"lng":-86.8287,"hometown_city":"Birmingham","hometown_state":"AL"},{"name":"Kyren Green","year":2026,"position":"OT","stars":null,"rating_247":null,"committed_to":null,"lat":28.6305,"lng":-82.4497,"hometown_city":"Starke","hometown_state":"FL"},{"name":"Danny Beale III","year":2026,"position":"IOL","stars":null,"rating_247":94.0,"committed_to":"Arkansas","lat":34.8938,"lng":-92.4426,"hometown_city":"Cherry Valley","hometown_state":"AR"},{"name":"Tylan George","year":2026,"position":"IOL","stars":3,"rating_247":92.0,"committed_to":"Tulane","lat":32.5184775,"lng":-92.1476353,"hometown_city":"West Monroe","hometown_state":"LA"},{"name":"Tyreek Jemison","year":2026,"position":"IOL","stars":4,"rating_247":91.0,"committed_to":"Georgia","lat":33.9237141,"lng":-84.8407732,"hometown_city":"Dallas","hometown_state":"GA"},{"name":"Brandon Anderson","year":2026,"position":"IOL","stars":3,"rating_247":89.0,"committed_to":"Missouri","lat":34.0234337,"lng":-84.6154897,"hometown_city":"Kennesaw","hometown_state":"GA"},{"name":"Tyler Chukuyem","year":2026,"position":"IOL","stars":4,"rating_247":89.0,"committed_to":"Florida","lat":33.7514966,"lng":-84.7477136,"hometown_city":"Douglasville","hometown_state":"GA"},{"name":"Donel Robinson","year":2026,"position":"IOL","stars":4,"rating_247":89.0,"committed_to":"Baylor","lat":33.1131834,"lng":-90.0531408,"hometown_city":"Lexington","hometown_state":"MS"},{"name":"Donel Robinson","year":2026,"position":"IOL","stars":4,"rating_247":89.0,"committed_to":"Baylor","lat":33.1131834,"lng":-90.0531408,"hometown_city":"Lexington","hometown_state":"MS"},{"name":"Zach Lewis","year":2026,"position":"IOL","stars":null,"rating_247":88.0,"committed_to":"Georgia","lat":32.6415,"lng":-83.4426,"hometown_city":"Suwanee","hometown_state":"GA"},{"name":"Leon Noil Jr.","year":2026,"position":"IOL","stars":3,"rating_247":88.0,"committed_to":"Mississippi State","lat":29.9499323,"lng":-90.0701156,"hometown_city":"New Orleans","hometown_state":"LA"},{"name":"Braylon Ellison","year":2026,"position":"IOL","stars":3,"rating_247":88.0,"committed_to":"Missouri","lat":38.9751547,"lng":-92.7440277,"hometown_city":"Boonville","hometown_state":"MO"},{"name":"Mykall Lundy-Foster","year":2026,"position":"IOL","stars":null,"rating_247":87.0,"committed_to":"Auburn","lat":28.6305,"lng":-82.4497,"hometown_city":"Tallahassee","hometown_state":"FL"},{"name":"Katrell Webb","year":2026,"position":"IOL","stars":3,"rating_247":87.0,"committed_to":"Purdue","lat":34.0514898,"lng":-84.0712997,"hometown_city":"Suwanee","hometown_state":"GA"},{"name":"Kane Mankins","year":2026,"position":"IOL","stars":null,"rating_247":87.0,"committed_to":"Mississippi","lat":42.2596,"lng":-71.8083,"hometown_city":"Attleboro","hometown_state":"MA"},{"name":"Marques Uini","year":2026,"position":"IOL","stars":3,"rating_247":87.0,"committed_to":"Arizona State","lat":31.124062,"lng":-97.9030785,"hometown_city":"Copperas Cove","hometown_state":"TX"},{"name":"Hayden Ainsworth","year":2026,"position":"IOL","stars":3,"rating_247":87.0,"committed_to":"Nebraska","lat":30.374673,"lng":-88.84594333482862,"hometown_city":"Biloxi","hometown_state":"MS"},{"name":"Andre Amos Jr.","year":2026,"position":"IOL","stars":3,"rating_247":87.0,"committed_to":"Tulane","lat":35.0867577,"lng":-89.8100858,"hometown_city":"Germantown","hometown_state":"TN"},{"name":"Artem Korchagin Jr.","year":2026,"position":"IOL","stars":null,"rating_247":86.0,"committed_to":"South Alabama","lat":32.6415,"lng":-83.4426,"hometown_city":"Thomasville","hometown_state":"GA"},{"name":"Rowdy Pearce","year":2026,"position":"IOL","stars":3,"rating_247":86.0,"committed_to":"Utah","lat":31.9973662,"lng":-102.0779482,"hometown_city":"Midland","hometown_state":"TX"},{"name":"Cam'Ron Thompson","year":2026,"position":"IOL","stars":3,"rating_247":86.0,"committed_to":"South Alabama","lat":30.6255617,"lng":-84.4153769,"hometown_city":"Havana","hometown_state":"FL"},{"name":"Cody Taylor","year":2026,"position":"IOL","stars":3,"rating_247":86.0,"committed_to":"Charlotte","lat":35.2156489,"lng":-94.2557663,"hometown_city":"Greenwood","hometown_state":"AR"},{"name":"Deshawn Woods","year":2026,"position":"IOL","stars":null,"rating_247":86.0,"committed_to":"West Virginia","lat":38.4937,"lng":-98.3804,"hometown_city":"El Dorado","hometown_state":"KS"},{"name":"Lamarcus Barber","year":2026,"position":"IOL","stars":3,"rating_247":85.0,"committed_to":"Kansas State","lat":39.0416718,"lng":-94.7202376,"hometown_city":"Shawnee","hometown_state":"KS"},{"name":"Trinton Pritchett","year":2026,"position":"IOL","stars":3,"rating_247":85.0,"committed_to":"Troy","lat":32.6550905,"lng":-85.50364346309962,"hometown_city":"Auburn","hometown_state":"AL"},{"name":"Eddie Alford","year":2026,"position":"IOL","stars":3,"rating_247":85.0,"committed_to":"Memphis","lat":33.7514966,"lng":-84.7477136,"hometown_city":"Douglasville","hometown_state":"GA"},{"name":"Camden Goforth","year":2026,"position":"IOL","stars":3,"rating_247":85.0,"committed_to":"West Virginia","lat":35.4428864,"lng":-84.5930113,"hometown_city":"Athens","hometown_state":"TN"},{"name":"Jacob Rathbone","year":2026,"position":"IOL","stars":3,"rating_247":85.0,"committed_to":"Central Arkansas","lat":35.925193,"lng":-86.8689365,"hometown_city":"Franklin","hometown_state":"TN"},{"name":"Carey Clayton","year":2026,"position":"IOL","stars":3,"rating_247":85.0,"committed_to":"Arkansas","lat":32.9412363,"lng":-97.1341783,"hometown_city":"Southlake","hometown_state":"TX"},{"name":"Eddie Lartigue","year":2026,"position":"IOL","stars":3,"rating_247":85.0,"committed_to":"Texas-El Paso","lat":30.0798826,"lng":-95.4172549,"hometown_city":"Spring","hometown_state":"TX"},{"name":"Deontavis Cooper","year":2026,"position":"IOL","stars":3,"rating_247":84.0,"committed_to":"Tulane","lat":30.8365815,"lng":-83.9787808,"hometown_city":"Thomasville","hometown_state":"GA"},{"name":"Tr'e Williams","year":2026,"position":"IOL","stars":3,"rating_247":84.0,"committed_to":"Sam Houston","lat":30.7235263,"lng":-95.5507771,"hometown_city":"Huntsville","hometown_state":"TX"},{"name":"O'Ryan Mosley","year":2026,"position":"IOL","stars":3,"rating_247":84.0,"committed_to":"Oklahoma State","lat":29.5957696,"lng":-90.7195348,"hometown_city":"Houma","hometown_state":"LA"},{"name":"Nick Witherspoon","year":2026,"position":"IOL","stars":3,"rating_247":84.0,"committed_to":"Tulane","lat":33.2095614,"lng":-87.5675258,"hometown_city":"Tuscaloosa","hometown_state":"AL"},{"name":"Gunnar Goodwin","year":2026,"position":"IOL","stars":3,"rating_247":84.0,"committed_to":"Louisiana","lat":34.9343599,"lng":-88.5223353,"hometown_city":"Corinth","hometown_state":"MS"},{"name":"Chadrick Windham","year":2026,"position":"IOL","stars":3,"rating_247":84.0,"committed_to":"Jackson State","lat":33.1054039,"lng":-88.5608767,"hometown_city":"Macon","hometown_state":"MS"},{"name":"Elliott Chaney","year":2026,"position":"IOL","stars":3,"rating_247":84.0,"committed_to":"South Alabama","lat":34.3664127,"lng":-89.5187664,"hometown_city":"Oxford","hometown_state":"MS"},{"name":"Chase Richardson","year":2026,"position":"IOL","stars":3,"rating_247":84.0,"committed_to":"Kennesaw State","lat":31.1499528,"lng":-81.4914894,"hometown_city":"Brunswick","hometown_state":"GA"},{"name":"Jordan Knox","year":2026,"position":"IOL","stars":null,"rating_247":84.0,"committed_to":"Kentucky","lat":32.7364,"lng":-89.6678,"hometown_city":"Senatobia","hometown_state":"MS"},{"name":"Lucas Hickey","year":2026,"position":"IOL","stars":null,"rating_247":84.0,"committed_to":"UCLA","lat":31.4757,"lng":-99.3312,"hometown_city":"Prosper","hometown_state":"TX"},{"name":"Damien Chisum","year":2026,"position":"IOL","stars":3,"rating_247":83.0,"committed_to":"Southern Arkansas","lat":33.44628645,"lng":-94.07638067493534,"hometown_city":"Texarkana","hometown_state":"TX"},{"name":"Isaiah Bowman","year":2026,"position":"IOL","stars":3,"rating_247":83.0,"committed_to":"Oklahoma State","lat":35.0886963,"lng":-92.4421011,"hometown_city":"Conway","hometown_state":"AR"},{"name":"Joshua Austin","year":2026,"position":"IOL","stars":3,"rating_247":83.0,"committed_to":"Arkansas State","lat":30.4393696,"lng":-97.6200043,"hometown_city":"Pflugerville","hometown_state":"TX"},{"name":"Cooper Sherrod","year":2026,"position":"IOL","stars":3,"rating_247":83.0,"committed_to":"Arkansas State","lat":35.042036,"lng":-89.6645266,"hometown_city":"Collierville","hometown_state":"TN"},{"name":"JB Hoehn","year":2026,"position":"IOL","stars":3,"rating_247":82.0,"committed_to":"Arkansas State","lat":35.1490215,"lng":-90.0516285,"hometown_city":"Memphis","hometown_state":"TN"},{"name":"Wes Wiggins","year":2026,"position":"IOL","stars":null,"rating_247":82.0,"committed_to":"UAB","lat":32.7364,"lng":-89.6678,"hometown_city":"Smithville","hometown_state":"MS"},{"name":"Ben Myers","year":2026,"position":"IOL","stars":3,"rating_247":82.0,"committed_to":"Kentucky","lat":37.0833893,"lng":-88.6000478,"hometown_city":"Paducah","hometown_state":"KY"},{"name":"Kendarius Blair","year":2026,"position":"IOL","stars":3,"rating_247":82.0,"committed_to":"Jacksonville State","lat":33.5206824,"lng":-86.8024326,"hometown_city":"Birmingham","hometown_state":"AL"},{"name":"Will Cooper","year":2026,"position":"IOL","stars":3,"rating_247":82.0,"committed_to":"Jacksonville State","lat":30.507956,"lng":-87.89742922432941,"hometown_city":"Fairhope","hometown_state":"AL"},{"name":"Grant Lott","year":2026,"position":"IOL","stars":3,"rating_247":81.0,"committed_to":"Wyoming","lat":38.791612,"lng":-90.5958468,"hometown_city":"St. Peters","hometown_state":"MO"},{"name":"Jordan Jensen","year":2026,"position":"IOL","stars":null,"rating_247":80.0,"committed_to":"Kansas State","lat":42.0751,"lng":-93.496,"hometown_city":"Fort Dodge","hometown_state":"IA"},{"name":"Reginhard Pierre-Nau","year":2026,"position":"IOL","stars":null,"rating_247":79.0,"committed_to":"Charlotte","lat":32.7364,"lng":-89.6678,"hometown_city":"Senatobia","hometown_state":"MS"},{"name":"Cape Johnson","year":2026,"position":"IOL","stars":null,"rating_247":79.0,"committed_to":"Arkansas State","lat":38.4937,"lng":-98.3804,"hometown_city":"El Dorado","hometown_state":"KS"},{"name":"Chaden Sullivan","year":2026,"position":"IOL","stars":null,"rating_247":79.0,"committed_to":"Tulsa","lat":38.4937,"lng":-98.3804,"hometown_city":"El Dorado","hometown_state":"KS"},{"name":"Corbett Yarbrough","year":2026,"position":"IOL","stars":null,"rating_247":null,"committed_to":"Florida A&M","lat":28.6305,"lng":-82.4497,"hometown_city":"Orange Park","hometown_state":"FL"},{"name":"Roderick Williams, Jr.","year":2026,"position":"IOL","stars":null,"rating_247":null,"committed_to":null,"lat":34.8938,"lng":-92.4426,"hometown_city":"Cherry Valley","hometown_state":"AR"},{"name":"Landon Barnes","year":2026,"position":"Edge","stars":4,"rating_247":94.0,"committed_to":"Mississippi","lat":32.6518004,"lng":-96.9083366,"hometown_city":"Duncanville","hometown_state":"TX"},{"name":"Khamari Brooks","year":2026,"position":"Edge","stars":4,"rating_247":91.0,"committed_to":"Georgia","lat":33.949281,"lng":-83.534608,"hometown_city":"Bogart","hometown_state":"GA"},{"name":"Breeze Carter","year":2026,"position":"Edge","stars":null,"rating_247":91.0,"committed_to":"Tennessee","lat":32.6415,"lng":-83.4426,"hometown_city":"Douglasville","hometown_state":"GA"},{"name":"Jalen Anderson","year":2026,"position":"Edge","stars":null,"rating_247":90.0,"committed_to":"Florida State","lat":32.7364,"lng":-89.6678,"hometown_city":"Poplarville","hometown_state":"MS"},{"name":"Hezekiah Harris","year":2026,"position":"Edge","stars":4,"rating_247":89.0,"committed_to":"Tennessee","lat":34.729847,"lng":-86.5859011,"hometown_city":"Huntsville","hometown_state":"AL"},{"name":"Chris Addison","year":2026,"position":"Edge","stars":3,"rating_247":89.0,"committed_to":"Mississippi State","lat":32.1632079,"lng":-91.720681,"hometown_city":"Winnsboro","hometown_state":"LA"},{"name":"Matthew Nelson","year":2026,"position":"Edge","stars":4,"rating_247":89.0,"committed_to":"Oklahoma","lat":34.5959265,"lng":-92.4890469,"hometown_city":"Bryant","hometown_state":"AR"},{"name":"Malique Franklin","year":2026,"position":"Edge","stars":3,"rating_247":89.0,"committed_to":"Alabama","lat":30.6035255,"lng":-87.9036047,"hometown_city":"Daphne","hometown_state":"AL"},{"name":"Cullen Thompson","year":2026,"position":"Edge","stars":3,"rating_247":88.0,"committed_to":"Texas State","lat":30.0798826,"lng":-95.4172549,"hometown_city":"Spring","hometown_state":"TX"},{"name":"Tristan Lyles","year":2026,"position":"Edge","stars":3,"rating_247":88.0,"committed_to":"Jacksonville State","lat":32.4709761,"lng":-85.0007653,"hometown_city":"Phenix City","hometown_state":"AL"},{"name":"Jacob Lopez-Veasey","year":2026,"position":"Edge","stars":3,"rating_247":87.0,"committed_to":"Texas-San Antonio","lat":29.4246002,"lng":-98.4951405,"hometown_city":"San Antonio","hometown_state":"TX"},{"name":"Alijah Lash","year":2026,"position":"Edge","stars":3,"rating_247":87.0,"committed_to":"San Diego State","lat":32.96116000000001,"lng":-97.34228157049023,"hometown_city":"Haslet","hometown_state":"TX"},{"name":"Taylor Schaefer","year":2026,"position":"Edge","stars":null,"rating_247":87.0,"committed_to":"Wisconsin","lat":42.0751,"lng":-93.496,"hometown_city":"Fort Dodge","hometown_state":"IA"},{"name":"Darius Wiley","year":2026,"position":"Edge","stars":null,"rating_247":87.0,"committed_to":"West Virginia","lat":38.4937,"lng":-98.3804,"hometown_city":"Hutchinson","hometown_state":"KS"},{"name":"Kingston Shaw","year":2026,"position":"Edge","stars":3,"rating_247":86.0,"committed_to":"Illinois","lat":28.5421109,"lng":-81.3790304,"hometown_city":"Orlando","hometown_state":"FL"},{"name":"Tyrone Morgan","year":2026,"position":"Edge","stars":3,"rating_247":86.0,"committed_to":"Baylor","lat":30.4459596,"lng":-91.18738,"hometown_city":"Baton Rouge","hometown_state":"LA"},{"name":"JR Hardrick","year":2026,"position":"Edge","stars":3,"rating_247":86.0,"committed_to":"Clemson","lat":35.0122635,"lng":-85.7058445,"hometown_city":"South Pittsburg","hometown_state":"TN"},{"name":"Brahim Wynn","year":2026,"position":"Edge","stars":null,"rating_247":86.0,"committed_to":null,"lat":38.4937,"lng":-98.3804,"hometown_city":"El Dorado","hometown_state":"KS"},{"name":"Sager Quinn","year":2026,"position":"Edge","stars":null,"rating_247":85.0,"committed_to":"South Florida","lat":32.6415,"lng":-83.4426,"hometown_city":"Calhoun","hometown_state":"GA"},{"name":"Brooks Hall","year":2026,"position":"Edge","stars":3,"rating_247":85.0,"committed_to":"UCF","lat":39.3703535,"lng":-94.781086,"hometown_city":"Platte City","hometown_state":"MO"},{"name":"Lawrence Brown Jr.","year":2026,"position":"Edge","stars":null,"rating_247":85.0,"committed_to":"North Carolina State","lat":32.6415,"lng":-83.4426,"hometown_city":"Loganville","hometown_state":"GA"},{"name":"Colin Bussey","year":2026,"position":"Edge","stars":3,"rating_247":85.0,"committed_to":"Charlotte","lat":33.7514966,"lng":-84.7477136,"hometown_city":"Douglasville","hometown_state":"GA"},{"name":"Peter Ramil","year":2026,"position":"Edge","stars":3,"rating_247":85.0,"committed_to":"South Florida","lat":33.2442813,"lng":-86.8163773,"hometown_city":"Alabaster","hometown_state":"AL"},{"name":"Connor Coxwell","year":2026,"position":"Edge","stars":3,"rating_247":85.0,"committed_to":"Kennesaw State","lat":34.0514898,"lng":-84.0712997,"hometown_city":"Suwanee","hometown_state":"GA"},{"name":"Mckinley McShan","year":2026,"position":"Edge","stars":3,"rating_247":85.0,"committed_to":"Arkansas State","lat":33.8389977,"lng":-83.9007382,"hometown_city":"Loganville","hometown_state":"GA"},{"name":"Keegan Horn","year":2026,"position":"Edge","stars":3,"rating_247":85.0,"committed_to":"Cincinnati","lat":33.4512197,"lng":-86.9966606,"hometown_city":"Hueytown","hometown_state":"AL"},{"name":"J'Lynn Allen","year":2026,"position":"Edge","stars":null,"rating_247":85.0,"committed_to":"Arkansas","lat":38.4937,"lng":-98.3804,"hometown_city":"Hutchinson","hometown_state":"KS"},{"name":"Lonnie Smith","year":2026,"position":"Edge","stars":null,"rating_247":85.0,"committed_to":"Troy","lat":32.7364,"lng":-89.6678,"hometown_city":"Wesson","hometown_state":"MS"},{"name":"Tyrique Harris","year":2026,"position":"Edge","stars":3,"rating_247":84.0,"committed_to":"Connecticut","lat":27.9658533,"lng":-82.8001026,"hometown_city":"Clearwater","hometown_state":"FL"},{"name":"JaKambry Brown","year":2026,"position":"Edge","stars":3,"rating_247":84.0,"committed_to":"West Georgia","lat":32.6200973,"lng":-83.606568,"hometown_city":"Warner Robins","hometown_state":"GA"},{"name":"Montra Sanford","year":2026,"position":"Edge","stars":null,"rating_247":84.0,"committed_to":"Kennesaw State","lat":32.7364,"lng":-89.6678,"hometown_city":"Senatobia","hometown_state":"MS"},{"name":"Quincy Tchikou","year":2026,"position":"Edge","stars":3,"rating_247":83.0,"committed_to":"Rice","lat":29.9691116,"lng":-95.6971686,"hometown_city":"Cypress","hometown_state":"TX"},{"name":"Jerious Singletary","year":2026,"position":"Edge","stars":3,"rating_247":83.0,"committed_to":"North Texas","lat":30.7235263,"lng":-95.5507771,"hometown_city":"Huntsville","hometown_state":"TX"},{"name":"Chris Thomas","year":2026,"position":"Edge","stars":null,"rating_247":83.0,"committed_to":"Florida State","lat":32.7364,"lng":-89.6678,"hometown_city":"Senatobia","hometown_state":"MS"},{"name":"Cameron Simmons","year":2026,"position":"Edge","stars":null,"rating_247":83.0,"committed_to":"Bowling Green","lat":32.6415,"lng":-83.4426,"hometown_city":"Buford","hometown_state":"GA"},{"name":"Srlondo Whiley","year":2026,"position":"Edge","stars":3,"rating_247":82.0,"committed_to":"West Florida","lat":28.5421109,"lng":-81.3790304,"hometown_city":"Orlando","hometown_state":"FL"},{"name":"Khalid Feliz","year":2026,"position":"Edge","stars":3,"rating_247":82.0,"committed_to":"Georgia State","lat":28.5421109,"lng":-81.3790304,"hometown_city":"Orlando","hometown_state":"FL"},{"name":"Alijah Lacey","year":2026,"position":"Edge","stars":null,"rating_247":80.0,"committed_to":"Eastern Michigan","lat":32.6415,"lng":-83.4426,"hometown_city":"Milledgeville","hometown_state":"GA"},{"name":"Jonah Were","year":2026,"position":"Edge","stars":null,"rating_247":null,"committed_to":"Southern Illinois","lat":38.3566,"lng":-92.458,"hometown_city":"Kansas City","hometown_state":"MO"},{"name":"Donovan Ughanze","year":2026,"position":"Edge","stars":null,"rating_247":null,"committed_to":null,"lat":31.4757,"lng":-99.3312,"hometown_city":"Fort Worth","hometown_state":"TX"},{"name":"Ryder Garcia","year":2026,"position":"Edge","stars":null,"rating_247":null,"committed_to":"Air Force","lat":31.4757,"lng":-99.3312,"hometown_city":"Denton","hometown_state":"TX"},{"name":"Jurwone Irvin","year":2026,"position":"Edge","stars":null,"rating_247":null,"committed_to":null,"lat":31.4757,"lng":-99.3312,"hometown_city":"Fort Worth","hometown_state":"TX"},{"name":"Ryder Barnes","year":2026,"position":"Edge","stars":null,"rating_247":null,"committed_to":"Cal Poly","lat":37.1841,"lng":-119.4696,"hometown_city":"Irvine","hometown_state":"CA"},{"name":"Devyn Phillip","year":2026,"position":"Edge","stars":null,"rating_247":null,"committed_to":null,"lat":31.4757,"lng":-99.3312,"hometown_city":"Missouri City","hometown_state":"TX"},{"name":"Richard Anderson","year":2026,"position":"DL","stars":5,"rating_247":98.0,"committed_to":"Louisiana State","lat":29.9499323,"lng":-90.0701156,"hometown_city":"New Orleans","hometown_state":"LA"},{"name":"Deuce Geralds","year":2026,"position":"DL","stars":4,"rating_247":96.0,"committed_to":"Louisiana State","lat":34.0514898,"lng":-84.0712997,"hometown_city":"Suwanee","hometown_state":"GA"},{"name":"Keshawn Stancil","year":2026,"position":"DL","stars":4,"rating_247":95.0,"committed_to":"Miami","lat":35.650711,"lng":-78.4563914,"hometown_city":"Clayton","hometown_state":"NC"},{"name":"Trenton Henderson","year":2026,"position":"DL","stars":4,"rating_247":95.0,"committed_to":"Louisiana State","lat":30.421309,"lng":-87.2169149,"hometown_city":"Pensacola","hometown_state":"FL"},{"name":"Emanuel Ruffin","year":2026,"position":"DL","stars":4,"rating_247":93.0,"committed_to":"Ohio State","lat":33.3823635,"lng":-86.91720475,"hometown_city":"Bessemer","hometown_state":"AL"},{"name":"Jae'Lin Battle","year":2026,"position":"DL","stars":4,"rating_247":93.0,"committed_to":"Baylor","lat":35.6571367,"lng":-97.4649038,"hometown_city":"Edmond","hometown_state":"OK"},{"name":"Dereon Albert","year":2026,"position":"DL","stars":4,"rating_247":91.0,"committed_to":"Tennessee","lat":32.2990384,"lng":-90.1847691,"hometown_city":"Jackson","hometown_state":"MS"},{"name":"Djidjou Bah","year":2026,"position":"DL","stars":3,"rating_247":90.0,"committed_to":"Wisconsin","lat":35.0867577,"lng":-89.8100858,"hometown_city":"Germantown","hometown_state":"TN"},{"name":"Amier Clarke","year":2026,"position":"DL","stars":3,"rating_247":89.0,"committed_to":"Georgia Tech","lat":28.2918995,"lng":-81.4075838,"hometown_city":"Kissimmee","hometown_state":"FL"},{"name":"Carter Luckie","year":2026,"position":"DL","stars":4,"rating_247":89.0,"committed_to":"Georgia","lat":33.9412127,"lng":-84.2135309,"hometown_city":"Norcross","hometown_state":"GA"},{"name":"AJ Lonon Jr.","year":2026,"position":"DL","stars":null,"rating_247":89.0,"committed_to":"Georgia","lat":32.6415,"lng":-83.4426,"hometown_city":"Athens","hometown_state":"GA"},{"name":"Ari Slocum","year":2026,"position":"DL","stars":3,"rating_247":88.0,"committed_to":"Southern Mississippi","lat":32.7734728,"lng":-92.4056986,"hometown_city":"Farmerville","hometown_state":"LA"},{"name":"Daryl Campbell","year":2026,"position":"DL","stars":3,"rating_247":88.0,"committed_to":"Vanderbilt","lat":29.7857853,"lng":-95.8243956,"hometown_city":"Katy","hometown_state":"TX"},{"name":"Kaleb Walker","year":2026,"position":"DL","stars":3,"rating_247":88.0,"committed_to":"Houston","lat":32.5156971,"lng":-95.4093998,"hometown_city":"Lindale","hometown_state":"TX"},{"name":"Jayden Curtis","year":2026,"position":"DL","stars":3,"rating_247":88.0,"committed_to":"Mississippi","lat":30.4112904,"lng":-88.8279165,"hometown_city":"Ocean Springs","hometown_state":"MS"},{"name":"Carnell Jackson","year":2026,"position":"DL","stars":3,"rating_247":88.0,"committed_to":"Kansas State","lat":32.6550905,"lng":-85.50364346309962,"hometown_city":"Auburn","hometown_state":"AL"},{"name":"Ayden Johnson","year":2026,"position":"DL","stars":3,"rating_247":88.0,"committed_to":"Texas Tech","lat":33.1570582,"lng":-94.9694007,"hometown_city":"Mount Pleasant","hometown_state":"TX"},{"name":"Andy Burburija","year":2026,"position":"DL","stars":null,"rating_247":88.0,"committed_to":"Clemson","lat":42.0751,"lng":-93.496,"hometown_city":"Council Bluffs","hometown_state":"IA"},{"name":"Duncan McGhee","year":2026,"position":"DL","stars":3,"rating_247":87.0,"committed_to":"Texas Christian","lat":33.44628645,"lng":-94.07638067493534,"hometown_city":"Texarkana","hometown_state":"TX"},{"name":"Lucas Smalls-Allen","year":2026,"position":"DL","stars":3,"rating_247":87.0,"committed_to":"Wake Forest","lat":34.02332,"lng":-84.360022,"hometown_city":"Roswell","hometown_state":"GA"},{"name":"Brian Harris","year":2026,"position":"DL","stars":3,"rating_247":87.0,"committed_to":"Oklahoma","lat":27.3027501,"lng":-80.4026589,"hometown_city":"St. Johns","hometown_state":"FL"},{"name":"Jocques Felix","year":2026,"position":"DL","stars":null,"rating_247":87.0,"committed_to":"Missouri","lat":38.3566,"lng":-92.458,"hometown_city":"St. Louis","hometown_state":"MO"},{"name":"Tavon Bell","year":2026,"position":"DL","stars":3,"rating_247":87.0,"committed_to":"Arkansas State","lat":32.1632079,"lng":-91.720681,"hometown_city":"Winnsboro","hometown_state":"LA"},{"name":"Ayden Cain","year":2026,"position":"DL","stars":3,"rating_247":87.0,"committed_to":"Duke","lat":34.2978794,"lng":-83.8240663,"hometown_city":"Gainesville","hometown_state":"GA"},{"name":"Cam Mallory","year":2026,"position":"DL","stars":null,"rating_247":87.0,"committed_to":"West Virginia","lat":32.7794,"lng":-86.8287,"hometown_city":"Moody","hometown_state":"AL"},{"name":"AJ Westfield","year":2026,"position":"DL","stars":3,"rating_247":87.0,"committed_to":"Tulane","lat":35.1595182,"lng":-84.8766115,"hometown_city":"Cleveland","hometown_state":"TN"},{"name":"Jaylen Thomas","year":2026,"position":"DL","stars":null,"rating_247":87.0,"committed_to":"West Virginia","lat":32.7364,"lng":-89.6678,"hometown_city":"Senatobia","hometown_state":"MS"},{"name":"Xavier Fleming","year":2026,"position":"DL","stars":3,"rating_247":86.0,"committed_to":"Houston","lat":33.046233,"lng":-96.994174,"hometown_city":"Lewisville","hometown_state":"TX"},{"name":"Ronald Derrick III","year":2026,"position":"DL","stars":null,"rating_247":86.0,"committed_to":"Northwestern","lat":31.4757,"lng":-99.3312,"hometown_city":"Waco","hometown_state":"TX"},{"name":"Kaden Scherer","year":2026,"position":"DL","stars":3,"rating_247":86.0,"committed_to":"Texas","lat":30.671598,"lng":-97.65500660120435,"hometown_city":"Georgetown","hometown_state":"TX"},{"name":"Tyson Bacon","year":2026,"position":"DL","stars":3,"rating_247":86.0,"committed_to":"Miami","lat":33.3848933,"lng":-86.8070484,"hometown_city":"Hoover","hometown_state":"AL"},{"name":"Kaleb Morris","year":2026,"position":"DL","stars":3,"rating_247":86.0,"committed_to":"Mississippi State","lat":30.778688,"lng":-88.2588427,"hometown_city":"Semmes","hometown_state":"AL"},{"name":"Dontaye Bush","year":2026,"position":"DL","stars":3,"rating_247":86.0,"committed_to":"Troy","lat":30.6943566,"lng":-88.0430541,"hometown_city":"Mobile","hometown_state":"AL"},{"name":"Nate Fleming","year":2026,"position":"DL","stars":3,"rating_247":86.0,"committed_to":"Vanderbilt","lat":35.925193,"lng":-86.8689365,"hometown_city":"Franklin","hometown_state":"TN"},{"name":"Iverson Garcia-Ponce","year":2026,"position":"DL","stars":3,"rating_247":86.0,"committed_to":"South Florida","lat":36.0317472,"lng":-84.0279677,"hometown_city":"Powell","hometown_state":"TN"},{"name":"Kevin Moorer","year":2026,"position":"DL","stars":null,"rating_247":86.0,"committed_to":"Arizona","lat":38.4937,"lng":-98.3804,"hometown_city":"Hutchinson","hometown_state":"KS"},{"name":"TJ Spann","year":2026,"position":"DL","stars":null,"rating_247":86.0,"committed_to":"Arkansas State","lat":32.7364,"lng":-89.6678,"hometown_city":"Senatobia","hometown_state":"MS"},{"name":"Darrius Simmons","year":2026,"position":"DL","stars":3,"rating_247":85.0,"committed_to":"Cincinnati","lat":30.6255617,"lng":-84.4153769,"hometown_city":"Havana","hometown_state":"FL"},{"name":"Jarvis Spires","year":2026,"position":"DL","stars":3,"rating_247":85.0,"committed_to":null,"lat":29.9691116,"lng":-95.6971686,"hometown_city":"Cypress","hometown_state":"TX"},{"name":"Cayden Dees","year":2026,"position":"DL","stars":3,"rating_247":85.0,"committed_to":"Tulane","lat":32.3669656,"lng":-86.3006485,"hometown_city":"Montgomery","hometown_state":"AL"},{"name":"Jakohri Johnson","year":2026,"position":"DL","stars":3,"rating_247":85.0,"committed_to":"Arkansas State","lat":32.6518004,"lng":-96.9083366,"hometown_city":"Duncanville","hometown_state":"TX"},{"name":"Joseph Terry","year":2026,"position":"DL","stars":3,"rating_247":85.0,"committed_to":null,"lat":33.5016932,"lng":-117.6625509,"hometown_city":"San Juan Capistrano","hometown_state":"CA"},{"name":"Cameron McGee","year":2026,"position":"DL","stars":3,"rating_247":85.0,"committed_to":"Boston College","lat":33.8389977,"lng":-83.9007382,"hometown_city":"Loganville","hometown_state":"GA"},{"name":"Jamarion Owens","year":2026,"position":"DL","stars":3,"rating_247":85.0,"committed_to":"Mississippi","lat":32.033488,"lng":-89.5222911,"hometown_city":"Raleigh","hometown_state":"MS"},{"name":"Trent Mapp","year":2026,"position":"DL","stars":null,"rating_247":85.0,"committed_to":"Arkansas State","lat":32.6415,"lng":-83.4426,"hometown_city":"Milledgeville","hometown_state":"GA"},{"name":"Zakir Abdul-Salaam","year":2026,"position":"DL","stars":3,"rating_247":85.0,"committed_to":"Kennesaw State","lat":33.8595492,"lng":-84.683824,"hometown_city":"Powder Springs","hometown_state":"GA"},{"name":"Jeffrey Manns","year":2026,"position":"DL","stars":null,"rating_247":85.0,"committed_to":"Arizona State","lat":38.4937,"lng":-98.3804,"hometown_city":"Hutchinson","hometown_state":"KS"},{"name":"TJ Grant","year":2026,"position":"DL","stars":null,"rating_247":85.0,"committed_to":"Arkansas State","lat":32.7364,"lng":-89.6678,"hometown_city":"Raymond","hometown_state":"MS"},{"name":"Micah Fils-Aime","year":2026,"position":"DL","stars":null,"rating_247":84.0,"committed_to":"Toledo","lat":28.6305,"lng":-82.4497,"hometown_city":"Naples","hometown_state":"FL"},{"name":"Jayden Arenas-Michel","year":2026,"position":"DL","stars":3,"rating_247":84.0,"committed_to":"Middle Tennessee","lat":35.0457219,"lng":-85.3094883,"hometown_city":"Chattanooga","hometown_state":"TN"},{"name":"Cam Christian","year":2026,"position":"DL","stars":null,"rating_247":84.0,"committed_to":"Texas State","lat":31.4757,"lng":-99.3312,"hometown_city":"Kilgore","hometown_state":"TX"},{"name":"Jussiah Ali","year":2026,"position":"DL","stars":null,"rating_247":84.0,"committed_to":"Texas State","lat":31.4757,"lng":-99.3312,"hometown_city":"Athens","hometown_state":"TX"},{"name":"Tyler Bailey","year":2026,"position":"DL","stars":null,"rating_247":84.0,"committed_to":"Oregon State","lat":32.7364,"lng":-89.6678,"hometown_city":"Perkinston","hometown_state":"MS"},{"name":"Broderick Peters","year":2026,"position":"DL","stars":3,"rating_247":83.0,"committed_to":"Southern Mississippi","lat":31.2437872,"lng":-90.4531536,"hometown_city":"McComb","hometown_state":"MS"},{"name":"Kore Thomas","year":2026,"position":"DL","stars":3,"rating_247":83.0,"committed_to":"Bowling Green","lat":32.7762719,"lng":-96.7968559,"hometown_city":"Dallas","hometown_state":"TX"},{"name":"Xavier Jackson","year":2026,"position":"DL","stars":3,"rating_247":82.0,"committed_to":"Wyoming","lat":38.7910374,"lng":-90.7039107,"hometown_city":"O'Fallon","hometown_state":"MO"},{"name":"Nygel Farsee","year":2026,"position":"DL","stars":3,"rating_247":82.0,"committed_to":"Oklahoma State","lat":34.7464809,"lng":-92.2895948,"hometown_city":"Little Rock","hometown_state":"AR"},{"name":"Bryston Dixon","year":2026,"position":"DL","stars":null,"rating_247":82.0,"committed_to":"Northwestern State","lat":32.7364,"lng":-89.6678,"hometown_city":"Ellisville","hometown_state":"MS"},{"name":"Trey Bridges","year":2026,"position":"DL","stars":3,"rating_247":82.0,"committed_to":"Arkansas State","lat":31.3465627,"lng":-89.2600605,"hometown_city":"Petal","hometown_state":"MS"},{"name":"RaKeem Davis","year":2026,"position":"DL","stars":null,"rating_247":80.0,"committed_to":"Troy","lat":32.7364,"lng":-89.6678,"hometown_city":"Wesson","hometown_state":"MS"},{"name":"Jonathan Keys","year":2026,"position":"DL","stars":null,"rating_247":79.0,"committed_to":"Kennesaw State","lat":32.7364,"lng":-89.6678,"hometown_city":"Perkinston","hometown_state":"MS"},{"name":"Isaac Beaver","year":2026,"position":"DL","stars":null,"rating_247":null,"committed_to":"North Dakota","lat":38.3566,"lng":-92.458,"hometown_city":"Kearney","hometown_state":"MO"},{"name":"Keevon Jacobs","year":2026,"position":"DL","stars":null,"rating_247":null,"committed_to":null,"lat":32.7364,"lng":-89.6678,"hometown_city":"Jackson","hometown_state":"MS"},{"name":"Jorden Rush","year":2026,"position":"DL","stars":null,"rating_247":null,"committed_to":null,"lat":32.7364,"lng":-89.6678,"hometown_city":"West Point","hometown_state":"MS"},{"name":"Cedric Mickens","year":2026,"position":"DL","stars":null,"rating_247":null,"committed_to":null,"lat":28.6305,"lng":-82.4497,"hometown_city":"Wellington","hometown_state":"FL"},{"name":"Semaj Fluellyn","year":2026,"position":"DL","stars":null,"rating_247":null,"committed_to":null,"lat":32.6415,"lng":-83.4426,"hometown_city":"Suwanee","hometown_state":"GA"},{"name":"TJ White","year":2026,"position":"LB","stars":4,"rating_247":97.0,"committed_to":"Tennessee","lat":32.2990384,"lng":-90.1847691,"hometown_city":"Jackson","hometown_state":"MS"},{"name":"Tyler Atkinson","year":2026,"position":"LB","stars":5,"rating_247":97.0,"committed_to":"Texas","lat":33.8389977,"lng":-83.9007382,"hometown_city":"Loganville","hometown_state":"GA"},{"name":"Jordan Campbell","year":2026,"position":"LB","stars":4,"rating_247":93.0,"committed_to":"Miami","lat":25.896733849999997,"lng":-80.25949640850294,"hometown_city":"Opa Locka","hometown_state":"FL"},{"name":"Carson Crawford","year":2026,"position":"LB","stars":3,"rating_247":92.0,"committed_to":"Colorado","lat":32.1570412,"lng":-94.338114,"hometown_city":"Carthage","hometown_state":"TX"},{"name":"Simeon Caldwell","year":2026,"position":"LB","stars":4,"rating_247":91.0,"committed_to":"Ohio State","lat":30.3321838,"lng":-81.655651,"hometown_city":"Jacksonville","hometown_state":"FL"},{"name":"JJ Bush","year":2026,"position":"LB","stars":4,"rating_247":90.0,"committed_to":"Missouri","lat":30.547295,"lng":-88.18020367595204,"hometown_city":"Theodore","hometown_state":"AL"},{"name":"Lawson McGraw","year":2026,"position":"LB","stars":3,"rating_247":90.0,"committed_to":"Kansas State","lat":38.7691755,"lng":-94.6563454,"hometown_city":"Stilwell","hometown_state":"KS"},{"name":"Julian Burns","year":2026,"position":"LB","stars":3,"rating_247":88.0,"committed_to":"North Carolina","lat":32.5093109,"lng":-92.1193012,"hometown_city":"Monroe","hometown_state":"LA"},{"name":"Billy Weivoda","year":2026,"position":"LB","stars":3,"rating_247":88.0,"committed_to":"Iowa","lat":34.0709576,"lng":-84.2747329,"hometown_city":"Alpharetta","hometown_state":"GA"},{"name":"Braxton Lindsey","year":2026,"position":"LB","stars":3,"rating_247":88.0,"committed_to":"BYU","lat":36.3320197,"lng":-94.1185366,"hometown_city":"Rogers","hometown_state":"AR"},{"name":"Caleb Triplett","year":2026,"position":"LB","stars":3,"rating_247":87.0,"committed_to":"Southern Mississippi","lat":30.4263092,"lng":-88.8908638,"hometown_city":"Diberville","hometown_state":"MS"},{"name":"Bryson Castile","year":2026,"position":"LB","stars":3,"rating_247":87.0,"committed_to":"Houston","lat":32.701938999999996,"lng":-97.10562379033699,"hometown_city":"Arlington","hometown_state":"TX"},{"name":"Johnmichael Fountain","year":2026,"position":"LB","stars":3,"rating_247":87.0,"committed_to":null,"lat":37.6922361,"lng":-97.3375448,"hometown_city":"Wichita","hometown_state":"KS"},{"name":"Damari Drake","year":2026,"position":"LB","stars":3,"rating_247":86.0,"committed_to":"Nicholls","lat":32.5221828,"lng":-93.7651944,"hometown_city":"Shreveport","hometown_state":"LA"},{"name":"Preston Hall","year":2026,"position":"LB","stars":3,"rating_247":86.0,"committed_to":"UCF","lat":29.6185669,"lng":-95.5377215,"hometown_city":"Missouri City","hometown_state":"TX"},{"name":"Tre'Kievion Ellis","year":2026,"position":"LB","stars":null,"rating_247":86.0,"committed_to":"Mississippi","lat":32.7364,"lng":-89.6678,"hometown_city":"Georgetown","hometown_state":"MS"},{"name":"Dennis King III","year":2026,"position":"LB","stars":3,"rating_247":86.0,"committed_to":"South Florida","lat":29.2108147,"lng":-81.0228331,"hometown_city":"Daytona Beach","hometown_state":"FL"},{"name":"Braylon Outlaw","year":2026,"position":"LB","stars":3,"rating_247":86.0,"committed_to":"Georgia Tech","lat":32.272931,"lng":-86.15018999518217,"hometown_city":"Pike Road","hometown_state":"AL"},{"name":"Devin Pettway","year":2026,"position":"LB","stars":3,"rating_247":86.0,"committed_to":"Jacksonville State","lat":30.778688,"lng":-88.2588427,"hometown_city":"Semmes","hometown_state":"AL"},{"name":"Zay Hall","year":2026,"position":"LB","stars":3,"rating_247":86.0,"committed_to":"Alabama","lat":33.2095614,"lng":-87.5675258,"hometown_city":"Tuscaloosa","hometown_state":"AL"},{"name":"BJ Payton","year":2026,"position":"LB","stars":3,"rating_247":86.0,"committed_to":null,"lat":33.1054039,"lng":-88.5608767,"hometown_city":"Macon","hometown_state":"MS"},{"name":"Kaden Catchings","year":2026,"position":"LB","stars":3,"rating_247":86.0,"committed_to":"Michigan","lat":32.3095903,"lng":-90.1389757,"hometown_city":"Flowood","hometown_state":"MS"},{"name":"Bryce Robinson","year":2026,"position":"LB","stars":3,"rating_247":86.0,"committed_to":"Nevada, Las Vegas","lat":33.9528472,"lng":-84.5496148,"hometown_city":"Marietta","hometown_state":"GA"},{"name":"Tyray Darensburg","year":2026,"position":"LB","stars":3,"rating_247":85.0,"committed_to":"South Alabama","lat":29.9427892,"lng":-89.9629372,"hometown_city":"Chalmette","hometown_state":"LA"},{"name":"Westen Ard","year":2026,"position":"LB","stars":3,"rating_247":85.0,"committed_to":"Western Kentucky","lat":32.6200973,"lng":-83.606568,"hometown_city":"Warner Robins","hometown_state":"GA"},{"name":"Michael McClenton","year":2026,"position":"LB","stars":3,"rating_247":85.0,"committed_to":"Appalachian State","lat":28.5421109,"lng":-81.3790304,"hometown_city":"Orlando","hometown_state":"FL"},{"name":"Omari Stephenson","year":2026,"position":"LB","stars":3,"rating_247":85.0,"committed_to":"Kennesaw State","lat":30.8365815,"lng":-83.9787808,"hometown_city":"Thomasville","hometown_state":"GA"},{"name":"Ashton Moore","year":2026,"position":"LB","stars":3,"rating_247":85.0,"committed_to":"Arkansas State","lat":32.2731475,"lng":-89.9868058,"hometown_city":"Brandon","hometown_state":"MS"},{"name":"Miles Khatri","year":2026,"position":"LB","stars":3,"rating_247":85.0,"committed_to":"West Virginia","lat":32.272931,"lng":-86.15018999518217,"hometown_city":"Pike Road","hometown_state":"AL"},{"name":"Kendarius Reynolds","year":2026,"position":"LB","stars":3,"rating_247":85.0,"committed_to":"Troy","lat":32.3669656,"lng":-86.3006485,"hometown_city":"Montgomery","hometown_state":"AL"},{"name":"Malachi Character","year":2026,"position":"LB","stars":null,"rating_247":85.0,"committed_to":"UAB","lat":32.6415,"lng":-83.4426,"hometown_city":"Thomaston","hometown_state":"GA"},{"name":"Hayden Roy","year":2026,"position":"LB","stars":null,"rating_247":85.0,"committed_to":"Toledo","lat":32.6415,"lng":-83.4426,"hometown_city":"Lyons","hometown_state":"GA"},{"name":"Japrei Wafer","year":2026,"position":"LB","stars":3,"rating_247":84.0,"committed_to":"Texas-El Paso","lat":33.1031744,"lng":-96.6705503,"hometown_city":"Allen","hometown_state":"TX"},{"name":"Harrison Kidder","year":2026,"position":"LB","stars":null,"rating_247":84.0,"committed_to":"Louisiana","lat":31.0689,"lng":-91.9968,"hometown_city":"Baton Rouge","hometown_state":"LA"},{"name":"Jerimia Collier","year":2026,"position":"LB","stars":3,"rating_247":84.0,"committed_to":"Alabama State","lat":33.5215013,"lng":-84.3538128,"hometown_city":"Jonesboro","hometown_state":"GA"},{"name":"Ayden Combs","year":2026,"position":"LB","stars":3,"rating_247":84.0,"committed_to":"Louisiana Tech","lat":29.9691116,"lng":-95.6971686,"hometown_city":"Cypress","hometown_state":"TX"},{"name":"Kru Casey","year":2026,"position":"LB","stars":3,"rating_247":84.0,"committed_to":"Georgia Southern","lat":30.2396865,"lng":-81.3856384,"hometown_city":"Ponte Vedra Beach","hometown_state":"FL"},{"name":"Anwar Witherspoon Jr.","year":2026,"position":"LB","stars":3,"rating_247":84.0,"committed_to":"Buffalo","lat":40.5382375,"lng":-74.39451734508772,"hometown_city":"Edison","hometown_state":"NJ"},{"name":"Jerry Wall III","year":2026,"position":"LB","stars":null,"rating_247":84.0,"committed_to":"Charlotte","lat":32.7364,"lng":-89.6678,"hometown_city":"Senatobia","hometown_state":"MS"},{"name":"Landen Jones","year":2026,"position":"LB","stars":3,"rating_247":83.0,"committed_to":null,"lat":33.2860549,"lng":-96.5725952,"hometown_city":"Melissa","hometown_state":"TX"},{"name":"Noah Hamlin","year":2026,"position":"LB","stars":3,"rating_247":83.0,"committed_to":"Arkansas State","lat":30.6324149,"lng":-87.0396881,"hometown_city":"Milton","hometown_state":"FL"},{"name":"Rasheem Turner","year":2026,"position":"LB","stars":3,"rating_247":83.0,"committed_to":"Arkansas State","lat":28.8117297,"lng":-81.2680345,"hometown_city":"Sanford","hometown_state":"FL"},{"name":"Keoni Denny","year":2026,"position":"LB","stars":null,"rating_247":83.0,"committed_to":"Arkansas State","lat":32.7364,"lng":-89.6678,"hometown_city":"Decatur","hometown_state":"MS"},{"name":"Makhi Brazier","year":2026,"position":"LB","stars":3,"rating_247":83.0,"committed_to":"Western Kentucky","lat":33.8389977,"lng":-83.9007382,"hometown_city":"Loganville","hometown_state":"GA"},{"name":"Jeremiah Smith","year":2026,"position":"LB","stars":3,"rating_247":83.0,"committed_to":"Louisiana Tech","lat":29.7857853,"lng":-95.8243956,"hometown_city":"Katy","hometown_state":"TX"},{"name":"Mario Alloway","year":2026,"position":"LB","stars":null,"rating_247":83.0,"committed_to":"Jacksonville State","lat":28.6305,"lng":-82.4497,"hometown_city":"Fort Walton Beach","hometown_state":"FL"},{"name":"Kailer Pettijohn","year":2026,"position":"LB","stars":null,"rating_247":82.0,"committed_to":"North Texas","lat":31.4757,"lng":-99.3312,"hometown_city":"McKinney","hometown_state":"TX"},{"name":"Jiah Walls","year":2026,"position":"LB","stars":null,"rating_247":82.0,"committed_to":"Sacramento State","lat":28.6305,"lng":-82.4497,"hometown_city":"Orlando","hometown_state":"FL"},{"name":"Talan Babin","year":2026,"position":"LB","stars":3,"rating_247":81.0,"committed_to":"Old Dominion","lat":30.2396865,"lng":-81.3856384,"hometown_city":"Ponte Vedra Beach","hometown_state":"FL"},{"name":"Rickey Banks","year":2026,"position":"LB","stars":null,"rating_247":79.0,"committed_to":"Louisiana-Monroe","lat":32.7364,"lng":-89.6678,"hometown_city":"Booneville","hometown_state":"MS"},{"name":"Demarco Daniels","year":2026,"position":"LB","stars":null,"rating_247":79.0,"committed_to":"Delaware","lat":28.6305,"lng":-82.4497,"hometown_city":"Gainesville","hometown_state":"FL"},{"name":"Giavani Baker","year":2026,"position":"LB","stars":null,"rating_247":null,"committed_to":null,"lat":31.4757,"lng":-99.3312,"hometown_city":"Pearland","hometown_state":"TX"},{"name":"Jeremy Bibbs","year":2026,"position":"LB","stars":null,"rating_247":null,"committed_to":null,"lat":32.7364,"lng":-89.6678,"hometown_city":"Brookhaven","hometown_state":"MS"},{"name":"Omeiza Daniyan","year":2026,"position":"LB","stars":null,"rating_247":null,"committed_to":"Army","lat":35.858,"lng":-86.3505,"hometown_city":"Mt. Juliet","hometown_state":"TN"},{"name":"Omeiza Daniyan","year":2026,"position":"LB","stars":null,"rating_247":null,"committed_to":null,"lat":35.858,"lng":-86.3505,"hometown_city":"Mt. Juliet","hometown_state":"TN"},{"name":"Landon Everett","year":2026,"position":"LB","stars":null,"rating_247":null,"committed_to":"Army","lat":32.7794,"lng":-86.8287,"hometown_city":"Gulf Shores","hometown_state":"AL"},{"name":"Jarone Bell","year":2026,"position":"LB","stars":null,"rating_247":null,"committed_to":null,"lat":31.4757,"lng":-99.3312,"hometown_city":"Pearland","hometown_state":"TX"},{"name":"Deion Miller","year":2026,"position":"LB","stars":null,"rating_247":null,"committed_to":"Army","lat":32.6415,"lng":-83.4426,"hometown_city":"Buford","hometown_state":"GA"},{"name":"Michael Dent III","year":2026,"position":"LB","stars":null,"rating_247":null,"committed_to":"Lafayette","lat":31.4757,"lng":-99.3312,"hometown_city":"Pflugerville","hometown_state":"TX"},{"name":"Parker Maiers","year":2026,"position":"LB","stars":null,"rating_247":null,"committed_to":"Dartmouth","lat":39.8942,"lng":-86.2816,"hometown_city":"Indianapolis","hometown_state":"IN"},{"name":"Cohen Grissom","year":2026,"position":"LB","stars":null,"rating_247":null,"committed_to":"Air Force","lat":35.858,"lng":-86.3505,"hometown_city":"Franklin","hometown_state":"TN"},{"name":"Broderick Sublet Jr.","year":2026,"position":"LB","stars":null,"rating_247":null,"committed_to":null,"lat":31.4757,"lng":-99.3312,"hometown_city":"Nevada","hometown_state":"TX"},{"name":"Joaquin Martinez","year":2026,"position":"LB","stars":null,"rating_247":null,"committed_to":null,"lat":31.4757,"lng":-99.3312,"hometown_city":"Waco","hometown_state":"TX"},{"name":"Danny Odem III","year":2026,"position":"CB","stars":null,"rating_247":98.0,"committed_to":"Nebraska","lat":28.6305,"lng":-82.4497,"hometown_city":"Orlando","hometown_state":"FL"},{"name":"Trae Stevenson Jr.","year":2026,"position":"CB","stars":null,"rating_247":90.0,"committed_to":"Georgia Tech","lat":32.6415,"lng":-83.4426,"hometown_city":"Quitman","hometown_state":"GA"},{"name":"Iverson McCoy","year":2026,"position":"CB","stars":3,"rating_247":90.0,"committed_to":"Mississippi","lat":34.2576067,"lng":-88.7033859,"hometown_city":"Tupelo","hometown_state":"MS"},{"name":"Justin Hopkins","year":2026,"position":"CB","stars":3,"rating_247":89.0,"committed_to":"Minnesota","lat":36.1622296,"lng":-86.7743531,"hometown_city":"Nashville","hometown_state":"TN"},{"name":"Zach Taylor","year":2026,"position":"CB","stars":null,"rating_247":89.0,"committed_to":"Texas Christian","lat":31.4757,"lng":-99.3312,"hometown_city":"Fulshear","hometown_state":"TX"},{"name":"Isaiah Williams","year":2026,"position":"CB","stars":3,"rating_247":88.0,"committed_to":"Illinois","lat":38.6779591,"lng":-121.1760583,"hometown_city":"Folsom","hometown_state":"CA"},{"name":"Chauncey Davis Jr.","year":2026,"position":"CB","stars":null,"rating_247":88.0,"committed_to":"Southern Mississippi","lat":32.6415,"lng":-83.4426,"hometown_city":"Suwanee","hometown_state":"GA"},{"name":"Paul Risper","year":2026,"position":"CB","stars":null,"rating_247":88.0,"committed_to":"Arkansas State","lat":32.6415,"lng":-83.4426,"hometown_city":"Macon","hometown_state":"GA"},{"name":"Jakwon Morris","year":2026,"position":"CB","stars":null,"rating_247":88.0,"committed_to":"Illinois","lat":32.7364,"lng":-89.6678,"hometown_city":"Senatobia","hometown_state":"MS"},{"name":"Camron Brown","year":2026,"position":"CB","stars":3,"rating_247":87.0,"committed_to":"Mississippi State","lat":30.8327022,"lng":-83.2784851,"hometown_city":"Valdosta","hometown_state":"GA"},{"name":"Raderrion Daniels","year":2026,"position":"CB","stars":3,"rating_247":87.0,"committed_to":"Purdue","lat":34.9042635,"lng":-90.2145395,"hometown_city":"Lake Cormorant","hometown_state":"MS"},{"name":"Jalon Copeland","year":2026,"position":"CB","stars":3,"rating_247":87.0,"committed_to":"Arkansas","lat":30.8327022,"lng":-83.2784851,"hometown_city":"Valdosta","hometown_state":"GA"},{"name":"Isaiah McMillian","year":2026,"position":"CB","stars":3,"rating_247":87.0,"committed_to":"Kentucky","lat":29.7857853,"lng":-95.8243956,"hometown_city":"Katy","hometown_state":"TX"},{"name":"Emari Peterson","year":2026,"position":"CB","stars":3,"rating_247":86.0,"committed_to":"Louisiana State","lat":28.5421109,"lng":-81.3790304,"hometown_city":"Orlando","hometown_state":"FL"},{"name":"Braylen Williams","year":2026,"position":"CB","stars":3,"rating_247":86.0,"committed_to":"Mississippi","lat":34.2576067,"lng":-88.7033859,"hometown_city":"Tupelo","hometown_state":"MS"},{"name":"Prince Jean","year":2026,"position":"CB","stars":3,"rating_247":86.0,"committed_to":"Kentucky","lat":30.8327022,"lng":-83.2784851,"hometown_city":"Valdosta","hometown_state":"GA"},{"name":"Johnny Moody","year":2026,"position":"CB","stars":3,"rating_247":86.0,"committed_to":"Memphis","lat":33.5206824,"lng":-86.8024326,"hometown_city":"Birmingham","hometown_state":"AL"},{"name":"Jaden Vaughn","year":2026,"position":"CB","stars":3,"rating_247":86.0,"committed_to":"Northwestern","lat":29.9691116,"lng":-95.6971686,"hometown_city":"Cypress","hometown_state":"TX"},{"name":"Dylan Waters","year":2026,"position":"CB","stars":3,"rating_247":86.0,"committed_to":"Utah","lat":29.6185669,"lng":-95.5377215,"hometown_city":"Missouri City","hometown_state":"TX"},{"name":"James Henderson III","year":2026,"position":"CB","stars":3,"rating_247":86.0,"committed_to":"Houston","lat":29.7589382,"lng":-95.3676974,"hometown_city":"Houston","hometown_state":"TX"},{"name":"Kris Brunson","year":2026,"position":"CB","stars":3,"rating_247":86.0,"committed_to":"Louisville","lat":33.857328,"lng":-84.0199108,"hometown_city":"Snellville","hometown_state":"GA"},{"name":"Josiah Brown","year":2026,"position":"CB","stars":3,"rating_247":86.0,"committed_to":"Memphis","lat":30.421309,"lng":-87.2169149,"hometown_city":"Pensacola","hometown_state":"FL"},{"name":"Edrick Williams","year":2026,"position":"CB","stars":3,"rating_247":86.0,"committed_to":"Louisiana","lat":30.6035255,"lng":-87.9036047,"hometown_city":"Daphne","hometown_state":"AL"},{"name":"Toe Sanders","year":2026,"position":"CB","stars":null,"rating_247":86.0,"committed_to":"Iowa State","lat":31.0689,"lng":-91.9968,"hometown_city":"New Orleans","hometown_state":"LA"},{"name":"Micheal Graham Jr.","year":2026,"position":"CB","stars":null,"rating_247":86.0,"committed_to":"Kansas State","lat":38.4937,"lng":-98.3804,"hometown_city":"Hutchinson","hometown_state":"KS"},{"name":"Mojo Williams Jr.","year":2026,"position":"CB","stars":null,"rating_247":85.0,"committed_to":"Colorado","lat":31.0689,"lng":-91.9968,"hometown_city":"New Orleans","hometown_state":"LA"},{"name":"Jeremy Garner II","year":2026,"position":"CB","stars":3,"rating_247":85.0,"committed_to":"Vanderbilt","lat":29.3521203,"lng":-95.460341,"hometown_city":"Rosharon","hometown_state":"TX"},{"name":"Brandon Ford","year":2026,"position":"CB","stars":3,"rating_247":85.0,"committed_to":"Arkansas","lat":32.5782835,"lng":-97.3609829,"hometown_city":"Crowley","hometown_state":"TX"},{"name":"Jordan Holmes","year":2026,"position":"CB","stars":3,"rating_247":85.0,"committed_to":"Kennesaw State","lat":32.272931,"lng":-86.15018999518217,"hometown_city":"Pike Road","hometown_state":"AL"},{"name":"Shondell Harris","year":2026,"position":"CB","stars":3,"rating_247":85.0,"committed_to":"Jacksonville State","lat":30.778688,"lng":-88.2588427,"hometown_city":"Semmes","hometown_state":"AL"},{"name":"Deon Callins","year":2026,"position":"CB","stars":3,"rating_247":85.0,"committed_to":"South Alabama","lat":33.706205,"lng":-86.67007895992774,"hometown_city":"Pinson","hometown_state":"AL"},{"name":"KeAndre Gibson","year":2026,"position":"CB","stars":3,"rating_247":85.0,"committed_to":"Arkansas State","lat":36.1622296,"lng":-86.7743531,"hometown_city":"Nashville","hometown_state":"TN"},{"name":"DJ Hairston","year":2026,"position":"CB","stars":null,"rating_247":85.0,"committed_to":"Arkansas","lat":32.7364,"lng":-89.6678,"hometown_city":"Raymond","hometown_state":"MS"},{"name":"Omari Bledsoe","year":2026,"position":"CB","stars":3,"rating_247":84.0,"committed_to":"West Georgia","lat":35.9828413,"lng":-86.5186045,"hometown_city":"Smyrna","hometown_state":"TN"},{"name":"Jordan Turner","year":2026,"position":"CB","stars":null,"rating_247":84.0,"committed_to":"Troy","lat":32.6415,"lng":-83.4426,"hometown_city":"Milledgeville","hometown_state":"GA"},{"name":"Eddie Guerra","year":2026,"position":"CB","stars":3,"rating_247":84.0,"committed_to":"Old Dominion","lat":30.8365815,"lng":-83.9787808,"hometown_city":"Thomasville","hometown_state":"GA"},{"name":"RJ Isaac","year":2026,"position":"CB","stars":null,"rating_247":84.0,"committed_to":"Georgia Southern","lat":32.6415,"lng":-83.4426,"hometown_city":"Loganville","hometown_state":"GA"},{"name":"Tylin Drakeford","year":2026,"position":"CB","stars":3,"rating_247":84.0,"committed_to":"Georgia Southern","lat":34.2465393,"lng":-80.6070238,"hometown_city":"Camden","hometown_state":"SC"},{"name":"Johnathan Joseph Jr.","year":2026,"position":"CB","stars":null,"rating_247":84.0,"committed_to":"Houston","lat":31.4757,"lng":-99.3312,"hometown_city":"Houston","hometown_state":"TX"},{"name":"Keshawn Mills","year":2026,"position":"CB","stars":3,"rating_247":83.0,"committed_to":null,"lat":35.9603948,"lng":-83.9210261,"hometown_city":"Knoxville","hometown_state":"TN"},{"name":"Thomas Cook Jr.","year":2026,"position":"CB","stars":3,"rating_247":83.0,"committed_to":"Colorado State","lat":32.753177,"lng":-97.3327459,"hometown_city":"Fort Worth","hometown_state":"TX"},{"name":"Gavin Yates-Lyons","year":2026,"position":"CB","stars":null,"rating_247":83.0,"committed_to":"Ball State","lat":32.6415,"lng":-83.4426,"hometown_city":"Valdosta","hometown_state":"GA"},{"name":"Amare Mack","year":2026,"position":"CB","stars":3,"rating_247":83.0,"committed_to":"East Carolina","lat":30.3321838,"lng":-81.655651,"hometown_city":"Jacksonville","hometown_state":"FL"},{"name":"Rukevwe Eruvwetaghware","year":2026,"position":"CB","stars":3,"rating_247":83.0,"committed_to":"Arkansas State","lat":33.0151201,"lng":-96.5388789,"hometown_city":"Wylie","hometown_state":"TX"},{"name":"Tai Terrell","year":2026,"position":"CB","stars":null,"rating_247":83.0,"committed_to":"Troy","lat":32.7364,"lng":-89.6678,"hometown_city":"Decatur","hometown_state":"MS"},{"name":"Shareef Jackson","year":2026,"position":"CB","stars":null,"rating_247":82.0,"committed_to":"Mercer","lat":28.6305,"lng":-82.4497,"hometown_city":"Jacksonville","hometown_state":"FL"},{"name":"Keshawn Alexis","year":2026,"position":"CB","stars":null,"rating_247":null,"committed_to":"Gardner-Webb","lat":32.6415,"lng":-83.4426,"hometown_city":"Kennesaw","hometown_state":"GA"},{"name":"Lahare Bolls","year":2026,"position":"CB","stars":null,"rating_247":null,"committed_to":null,"lat":32.7364,"lng":-89.6678,"hometown_city":"Brandon","hometown_state":"MS"},{"name":"Camare Jackson","year":2026,"position":"CB","stars":null,"rating_247":null,"committed_to":null,"lat":32.7794,"lng":-86.8287,"hometown_city":"Montgomery","hometown_state":"AL"},{"name":"Camren Smith","year":2026,"position":"CB","stars":null,"rating_247":null,"committed_to":null,"lat":40.0417,"lng":-89.1965,"hometown_city":"Plainfield","hometown_state":"IL"},{"name":"Joquez Beck","year":2026,"position":"CB","stars":null,"rating_247":null,"committed_to":"Northern Iowa","lat":38.3566,"lng":-92.458,"hometown_city":"St. Louis","hometown_state":"MO"},{"name":"Parker Stewart","year":2026,"position":"CB","stars":null,"rating_247":null,"committed_to":null,"lat":31.4757,"lng":-99.3312,"hometown_city":"The Woodlands","hometown_state":"TX"},{"name":"Devin Duplessis","year":2026,"position":"CB","stars":null,"rating_247":null,"committed_to":"Southern","lat":31.0689,"lng":-91.9968,"hometown_city":"New Orleans","hometown_state":"LA"},{"name":"Devin Duplessis","year":2026,"position":"CB","stars":null,"rating_247":null,"committed_to":null,"lat":31.0689,"lng":-91.9968,"hometown_city":"New Orleans","hometown_state":"LA"},{"name":"Tylan Wilson","year":2026,"position":"S","stars":4,"rating_247":92.0,"committed_to":"Texas A&M","lat":30.3646795,"lng":-88.5585995,"hometown_city":"Pascagoula","hometown_state":"MS"},{"name":"Collin Flanigan","year":2026,"position":"S","stars":3,"rating_247":90.0,"committed_to":"Vanderbilt","lat":34.3664127,"lng":-89.5187664,"hometown_city":"Oxford","hometown_state":"MS"},{"name":"Jacob Curry","year":2026,"position":"S","stars":4,"rating_247":88.0,"committed_to":"Oklahoma","lat":30.2396865,"lng":-81.3856384,"hometown_city":"Ponte Vedra Beach","hometown_state":"FL"},{"name":"Cortez Redding","year":2026,"position":"S","stars":4,"rating_247":88.0,"committed_to":"Miami","lat":33.5215013,"lng":-84.3538128,"hometown_city":"Jonesboro","hometown_state":"GA"},{"name":"Daijon Gaines","year":2026,"position":"S","stars":3,"rating_247":88.0,"committed_to":"Pittsburg State","lat":36.1556805,"lng":-95.9929113,"hometown_city":"Tulsa","hometown_state":"OK"},