{"2026":[{"name":"Terry Walker III","year":2026,"position":"QB","stars":3,"rating_247":88.0,"committed_to":"Duke","lat":39.9555928,"lng":-86.0138729,"hometown_city":"Fishers","hometown_state":"IN"},{"name":"Bo Polston","year":2026,"position":"QB","stars":3,"rating_247":85.0,"committed_to":"Connecticut","lat":39.7683331,"lng":-86.1583502,"hometown_city":"Indianapolis","hometown_state":"IN"},{"name":"Mason Atkins","year":2026,"position":"QB","stars":3,"rating_247":85.0,"committed_to":"Ball State","lat":41.7571701,"lng":-88.3147539,"hometown_city":"Aurora","hometown_state":"IL"},{"name":"Brady Palmer","year":2026,"position":"QB","stars":3,"rating_247":83.0,"committed_to":"Temple","lat":26.1223084,"lng":-80.1433786,"hometown_city":"Fort Lauderdale","hometown_state":"FL"},{"name":"Carter Quinn","year":2026,"position":"QB","stars":null,"rating_247":null,"committed_to":null,"lat":28.6305,"lng":-82.4497,"hometown_city":"Naples","hometown_state":"FL"},{"name":"Colton Bath","year":2026,"position":"QB","stars":null,"rating_247":null,"committed_to":null,"lat":39.8942,"lng":-86.2816,"hometown_city":"Brazil","hometown_state":"IN"},{"name":"Shahn Alston","year":2026,"position":"RB","stars":4,"rating_247":93.0,"committed_to":"Southern California","lat":41.7244885,"lng":-81.245657,"hometown_city":"Painesville","hometown_state":"OH"},{"name":"SirPaul Cheeks","year":2026,"position":"RB","stars":3,"rating_247":89.0,"committed_to":"West Virginia","lat":37.5385087,"lng":-77.43428,"hometown_city":"Richmond","hometown_state":"VA"},{"name":"Kory Amachree","year":2026,"position":"RB","stars":null,"rating_247":88.0,"committed_to":"Kansas","lat":44.3467,"lng":-85.4102,"hometown_city":"Haslett","hometown_state":"MI"},{"name":"Braydon Johnson","year":2026,"position":"RB","stars":3,"rating_247":87.0,"committed_to":null,"lat":39.3303357,"lng":-84.408275,"hometown_city":"West Chester","hometown_state":"OH"},{"name":"Jordan Taylor","year":2026,"position":"RB","stars":3,"rating_247":86.0,"committed_to":"Lindenwood","lat":38.6268039,"lng":-90.1994097,"hometown_city":"St. Louis","hometown_state":"MO"},{"name":"Robert Lathon Jr.","year":2026,"position":"RB","stars":null,"rating_247":85.0,"committed_to":"Middle Tennessee","lat":40.2862,"lng":-82.7937,"hometown_city":"Columbus","hometown_state":"OH"},{"name":"Zamarcus Lindley","year":2026,"position":"RB","stars":3,"rating_247":85.0,"committed_to":"Samford","lat":33.7514966,"lng":-84.7477136,"hometown_city":"Douglasville","hometown_state":"GA"},{"name":"Anthony McMullen","year":2026,"position":"RB","stars":null,"rating_247":84.0,"committed_to":"Ball State","lat":40.2862,"lng":-82.7937,"hometown_city":"Massillon","hometown_state":"OH"},{"name":"Myles McLaughlin","year":2026,"position":"RB","stars":3,"rating_247":83.0,"committed_to":"Murray State","lat":41.2958751,"lng":-86.6250139,"hometown_city":"Knox","hometown_state":"IN"},{"name":"Jahan Abubakar","year":2026,"position":"RB","stars":null,"rating_247":null,"committed_to":"South Dakota","lat":40.0417,"lng":-89.1965,"hometown_city":"New Lenox","hometown_state":"IL"},{"name":"Milan Parris","year":2026,"position":"WR","stars":4,"rating_247":96.0,"committed_to":"Miami","lat":41.1596261,"lng":-81.4406258,"hometown_city":"Stow","hometown_state":"OH"},{"name":"Jerquaden Guilford","year":2026,"position":"WR","stars":4,"rating_247":96.0,"committed_to":"Ohio State","lat":41.0799898,"lng":-85.1386015,"hometown_city":"Fort Wayne","hometown_state":"IN"},{"name":"Zay Anderson","year":2026,"position":"WR","stars":4,"rating_247":91.0,"committed_to":"Tennessee","lat":36.1631575,"lng":-82.8309861,"hometown_city":"Greeneville","hometown_state":"TN"},{"name":"Jacob Eberhart","year":2026,"position":"WR","stars":4,"rating_247":89.0,"committed_to":"Illinois","lat":38.6268039,"lng":-90.1994097,"hometown_city":"St. Louis","hometown_state":"MO"},{"name":"Jaeden Ricketts","year":2026,"position":"WR","stars":4,"rating_247":88.0,"committed_to":"Ohio State","lat":39.9956193,"lng":-82.6743341,"hometown_city":"Pataskala","hometown_state":"OH"},{"name":"Tayshon Bardo","year":2026,"position":"WR","stars":3,"rating_247":87.0,"committed_to":"Ball State","lat":41.6619927,"lng":-86.1586156,"hometown_city":"Mishawaka","hometown_state":"IN"},{"name":"Larry Miles","year":2026,"position":"WR","stars":3,"rating_247":87.0,"committed_to":"Nebraska","lat":28.5421109,"lng":-81.3790304,"hometown_city":"Orlando","hometown_state":"FL"},{"name":"Rhys Dorsey","year":2026,"position":"WR","stars":3,"rating_247":87.0,"committed_to":"Louisville","lat":34.6928726,"lng":-86.7511427,"hometown_city":"Madison","hometown_state":"AL"},{"name":"Dawson Quarterman","year":2026,"position":"WR","stars":3,"rating_247":87.0,"committed_to":"East Carolina","lat":33.8389977,"lng":-83.9007382,"hometown_city":"Loganville","hometown_state":"GA"},{"name":"Elijah West","year":2026,"position":"WR","stars":3,"rating_247":86.0,"committed_to":"Florida Atlantic","lat":30.605427,"lng":-87.344442,"hometown_city":"Cantonment","hometown_state":"FL"},{"name":"Kobe Adeleke-Hokes","year":2026,"position":"WR","stars":3,"rating_247":86.0,"committed_to":"Wake Forest","lat":34.0514898,"lng":-84.0712997,"hometown_city":"Suwanee","hometown_state":"GA"},{"name":"Bryson Maddox","year":2026,"position":"WR","stars":3,"rating_247":86.0,"committed_to":"Middle Tennessee","lat":36.1034126,"lng":-84.1318632,"hometown_city":"Clinton","hometown_state":"TN"},{"name":"Kai Owens","year":2026,"position":"WR","stars":null,"rating_247":86.0,"committed_to":"Massachusetts","lat":40.0417,"lng":-89.1965,"hometown_city":"Mundelein","hometown_state":"IL"},{"name":"Ace Cooper","year":2026,"position":"WR","stars":null,"rating_247":86.0,"committed_to":"Ball State","lat":40.2862,"lng":-82.7937,"hometown_city":"Middletown","hometown_state":"OH"},{"name":"JJ Harrell","year":2026,"position":"WR","stars":null,"rating_247":86.0,"committed_to":"Old Dominion","lat":32.7364,"lng":-89.6678,"hometown_city":"Goodman","hometown_state":"MS"},{"name":"Jani Weir","year":2026,"position":"WR","stars":null,"rating_247":86.0,"committed_to":"Oklahoma State","lat":37.1841,"lng":-119.4696,"hometown_city":"Fullerton","hometown_state":"CA"},{"name":"Mark Hanniford","year":2026,"position":"WR","stars":3,"rating_247":85.0,"committed_to":"Ball State","lat":26.3586885,"lng":-80.0830984,"hometown_city":"Boca Raton","hometown_state":"FL"},{"name":"Jaidon VanPelt","year":2026,"position":"WR","stars":3,"rating_247":85.0,"committed_to":"Indiana","lat":41.0799898,"lng":-85.1386015,"hometown_city":"Fort Wayne","hometown_state":"IN"},{"name":"Char'rese Breveard","year":2026,"position":"WR","stars":null,"rating_247":85.0,"committed_to":"Ball State","lat":39.8942,"lng":-86.2816,"hometown_city":"Elkhart","hometown_state":"IN"},{"name":"Jamari Brown","year":2026,"position":"WR","stars":3,"rating_247":84.0,"committed_to":null,"lat":41.8755616,"lng":-87.6244212,"hometown_city":"Chicago","hometown_state":"IL"},{"name":"Pauly Sadler","year":2026,"position":"WR","stars":3,"rating_247":83.0,"committed_to":"Bowling Green","lat":41.5051613,"lng":-81.6934446,"hometown_city":"Cleveland","hometown_state":"OH"},{"name":"Omar Williams Jr.","year":2026,"position":"WR","stars":3,"rating_247":82.0,"committed_to":"Northern Illinois","lat":40.4167022,"lng":-86.8752869,"hometown_city":"Lafayette","hometown_state":"IN"},{"name":"MC Walker","year":2026,"position":"WR","stars":null,"rating_247":null,"committed_to":null,"lat":40.2862,"lng":-82.7937,"hometown_city":"Lewis Center","hometown_state":"OH"},{"name":"Azuri Jackson","year":2026,"position":"WR","stars":null,"rating_247":null,"committed_to":null,"lat":28.6305,"lng":-82.4497,"hometown_city":"Tampa","hometown_state":"FL"},{"name":"Jack Janda","year":2026,"position":"TE","stars":3,"rating_247":87.0,"committed_to":"Iowa","lat":42.5869558,"lng":-83.36895696372882,"hometown_city":"Orchard Lake","hometown_state":"MI"},{"name":"Cooper McCutchan","year":2026,"position":"TE","stars":3,"rating_247":86.0,"committed_to":"Purdue","lat":39.1014537,"lng":-84.5124602,"hometown_city":"Cincinnati","hometown_state":"OH"},{"name":"Will Vala","year":2026,"position":"TE","stars":3,"rating_247":86.0,"committed_to":"Illinois","lat":41.7938195,"lng":-88.010376,"hometown_city":"Downers Grove","hometown_state":"IL"},{"name":"Owen Pollock","year":2026,"position":"TE","stars":3,"rating_247":85.0,"committed_to":"Florida Atlantic","lat":40.2425623,"lng":-82.8590673,"hometown_city":"Sunbury","hometown_state":"OH"},{"name":"Brice Williamson","year":2026,"position":"TE","stars":3,"rating_247":83.0,"committed_to":"Appalachian State","lat":33.949281,"lng":-83.534608,"hometown_city":"Bogart","hometown_state":"GA"},{"name":"Cole Albers","year":2026,"position":"TE","stars":3,"rating_247":83.0,"committed_to":null,"lat":40.3931033,"lng":-84.3760612,"hometown_city":"Minster","hometown_state":"OH"},{"name":"Cole Coonrod","year":2026,"position":"TE","stars":null,"rating_247":79.0,"committed_to":"Ball State","lat":38.4937,"lng":-98.3804,"hometown_city":"Hutchinson","hometown_state":"KS"},{"name":"Darius Gray","year":2026,"position":"OT","stars":4,"rating_247":98.0,"committed_to":"South Carolina","lat":37.5385087,"lng":-77.43428,"hometown_city":"Richmond","hometown_state":"VA"},{"name":"Ben Novak","year":2026,"position":"OT","stars":null,"rating_247":87.0,"committed_to":"Indiana","lat":39.8942,"lng":-86.2816,"hometown_city":"Merrillville","hometown_state":"IN"},{"name":"Lucas Tielsch","year":2026,"position":"OT","stars":3,"rating_247":86.0,"committed_to":"Minnesota","lat":41.083064,"lng":-81.518485,"hometown_city":"Akron","hometown_state":"OH"},{"name":"Jonah Rodriguez","year":2026,"position":"OT","stars":null,"rating_247":86.0,"committed_to":"North Carolina","lat":37.1841,"lng":-119.4696,"hometown_city":"Chula Vista","hometown_state":"CA"},{"name":"Cameron Miller Jr.","year":2026,"position":"OT","stars":null,"rating_247":85.0,"committed_to":"Kentucky","lat":39.8942,"lng":-86.2816,"hometown_city":"Hammond","hometown_state":"IN"},{"name":"Jake Palucki","year":2026,"position":"OT","stars":3,"rating_247":84.0,"committed_to":"Toledo","lat":41.7003302,"lng":-88.0717708,"hometown_city":"Bolingbrook","hometown_state":"IL"},{"name":"Brady Weber","year":2026,"position":"OT","stars":3,"rating_247":83.0,"committed_to":"Ball State","lat":39.6136578,"lng":-86.1066526,"hometown_city":"Greenwood","hometown_state":"IN"},{"name":"Bennett Fraser","year":2026,"position":"IOL","stars":null,"rating_247":88.0,"committed_to":"Kansas State","lat":38.3566,"lng":-92.458,"hometown_city":"Kirksville","hometown_state":"MO"},{"name":"Braylon Ellison","year":2026,"position":"IOL","stars":3,"rating_247":88.0,"committed_to":"Missouri","lat":38.9751547,"lng":-92.7440277,"hometown_city":"Boonville","hometown_state":"MO"},{"name":"Brock Brownfield","year":2026,"position":"IOL","stars":3,"rating_247":87.0,"committed_to":"Purdue","lat":39.7219882,"lng":-85.8891471,"hometown_city":"New Palestine","hometown_state":"IN"},{"name":"Alan Pond","year":2026,"position":"IOL","stars":null,"rating_247":87.0,"committed_to":"Tulsa","lat":42.0751,"lng":-93.496,"hometown_city":"Fort Dodge","hometown_state":"IA"},{"name":"Justyn Lyles","year":2026,"position":"IOL","stars":3,"rating_247":86.0,"committed_to":"Marshall","lat":39.1014537,"lng":-84.5124602,"hometown_city":"Cincinnati","hometown_state":"OH"},{"name":"Owen Jakubczak","year":2026,"position":"IOL","stars":3,"rating_247":85.0,"committed_to":"Northwestern","lat":42.1105779,"lng":-88.0336888,"hometown_city":"Palatine","hometown_state":"IL"},{"name":"Evan Downer","year":2026,"position":"IOL","stars":3,"rating_247":85.0,"committed_to":"Ball State","lat":42.1105779,"lng":-88.0336888,"hometown_city":"Palatine","hometown_state":"IL"},{"name":"Luke Collins","year":2026,"position":"IOL","stars":3,"rating_247":85.0,"committed_to":"Cincinnati","lat":39.9622601,"lng":-83.0007065,"hometown_city":"Columbus","hometown_state":"OH"},{"name":"Jacob Rathbone","year":2026,"position":"IOL","stars":3,"rating_247":85.0,"committed_to":"Central Arkansas","lat":35.925193,"lng":-86.8689365,"hometown_city":"Franklin","hometown_state":"TN"},{"name":"Langston Hogg","year":2026,"position":"IOL","stars":3,"rating_247":84.0,"committed_to":"Wake Forest","lat":34.1650972,"lng":-84.7999383,"hometown_city":"Cartersville","hometown_state":"GA"},{"name":"Nathan Zappitelli","year":2026,"position":"IOL","stars":3,"rating_247":84.0,"committed_to":"Cincinnati","lat":41.6661573,"lng":-81.339552,"hometown_city":"Mentor","hometown_state":"OH"},{"name":"Danzel Newell","year":2026,"position":"IOL","stars":3,"rating_247":84.0,"committed_to":"New Mexico","lat":41.8755616,"lng":-87.6244212,"hometown_city":"Chicago","hometown_state":"IL"},{"name":"Zion Haney","year":2026,"position":"IOL","stars":3,"rating_247":83.0,"committed_to":"Ball State","lat":39.7683331,"lng":-86.1583502,"hometown_city":"Indianapolis","hometown_state":"IN"},{"name":"Nolan Cicero","year":2026,"position":"IOL","stars":3,"rating_247":82.0,"committed_to":"Ball State","lat":41.4169806,"lng":-87.3653136,"hometown_city":"Crown Point","hometown_state":"IN"},{"name":"Jordan Jensen","year":2026,"position":"IOL","stars":null,"rating_247":80.0,"committed_to":"Kansas State","lat":42.0751,"lng":-93.496,"hometown_city":"Fort Dodge","hometown_state":"IA"},{"name":"Gavin Dauby","year":2026,"position":"IOL","stars":null,"rating_247":null,"committed_to":"Navy","lat":38.3566,"lng":-92.458,"hometown_city":"St. Louis","hometown_state":"MO"},{"name":"Drew Schiefer","year":2026,"position":"IOL","stars":null,"rating_247":null,"committed_to":null,"lat":39.8942,"lng":-86.2816,"hometown_city":"Columbus","hometown_state":"IN"},{"name":"Aaden Aytch","year":2026,"position":"Edge","stars":4,"rating_247":90.0,"committed_to":"Minnesota","lat":40.4167022,"lng":-86.8752869,"hometown_city":"Lafayette","hometown_state":"IN"},{"name":"Malachi Ervin","year":2026,"position":"Edge","stars":3,"rating_247":90.0,"committed_to":"Buffalo","lat":39.896277299999994,"lng":-82.77319049748806,"hometown_city":"Pickerington","hometown_state":"OH"},{"name":"Corey Howard Jr.","year":2026,"position":"Edge","stars":null,"rating_247":89.0,"committed_to":"Alabama","lat":32.6415,"lng":-83.4426,"hometown_city":"Valdosta","hometown_state":"GA"},{"name":"Chris Carbin","year":2026,"position":"Edge","stars":3,"rating_247":88.0,"committed_to":"Florida State","lat":33.8595492,"lng":-84.683824,"hometown_city":"Powder Springs","hometown_state":"GA"},{"name":"Taylor Schaefer","year":2026,"position":"Edge","stars":null,"rating_247":87.0,"committed_to":"Wisconsin","lat":42.0751,"lng":-93.496,"hometown_city":"Fort Dodge","hometown_state":"IA"},{"name":"Elijah Durham-Smith","year":2026,"position":"Edge","stars":3,"rating_247":86.0,"committed_to":"Bowling Green","lat":39.896277299999994,"lng":-82.77319049748806,"hometown_city":"Pickerington","hometown_state":"OH"},{"name":"JD Singletary","year":2026,"position":"Edge","stars":3,"rating_247":85.0,"committed_to":"Rice","lat":39.5150576,"lng":-84.3982763,"hometown_city":"Middletown","hometown_state":"OH"},{"name":"Preston Lunsford","year":2026,"position":"Edge","stars":3,"rating_247":81.0,"committed_to":"Buffalo","lat":40.0581205,"lng":-82.4012643,"hometown_city":"Newark","hometown_state":"OH"},{"name":"Colby Archie","year":2026,"position":"Edge","stars":null,"rating_247":81.0,"committed_to":"UAB","lat":38.4937,"lng":-98.3804,"hometown_city":"Dodge City","hometown_state":"KS"},{"name":"Zayvion Hayes","year":2026,"position":"Edge","stars":null,"rating_247":80.0,"committed_to":"Presbyterian","lat":28.6305,"lng":-82.4497,"hometown_city":"Delray Beach","hometown_state":"FL"},{"name":"Mike Adams","year":2026,"position":"Edge","stars":null,"rating_247":null,"committed_to":null,"lat":32.7794,"lng":-86.8287,"hometown_city":"Huntsville","hometown_state":"AL"},{"name":"Carmelow Reed","year":2026,"position":"DL","stars":3,"rating_247":92.0,"committed_to":"Mississippi","lat":41.8755616,"lng":-87.6244212,"hometown_city":"Chicago","hometown_state":"IL"},{"name":"AJ Lonon Jr.","year":2026,"position":"DL","stars":null,"rating_247":89.0,"committed_to":"Georgia","lat":32.6415,"lng":-83.4426,"hometown_city":"Athens","hometown_state":"GA"},{"name":"G'Nivre Carr","year":2026,"position":"DL","stars":3,"rating_247":88.0,"committed_to":"Florida","lat":27.4989278,"lng":-82.5748194,"hometown_city":"Bradenton","hometown_state":"FL"},{"name":"JaMarcus Whyce","year":2026,"position":"DL","stars":3,"rating_247":88.0,"committed_to":"Maryland","lat":39.7589478,"lng":-84.1916069,"hometown_city":"Dayton","hometown_state":"OH"},{"name":"Tre Hoskins","year":2026,"position":"DL","stars":3,"rating_247":88.0,"committed_to":"Northwestern","lat":39.7082498,"lng":-91.3587413,"hometown_city":"Hannibal","hometown_state":"MO"},{"name":"Carnell Jackson","year":2026,"position":"DL","stars":3,"rating_247":88.0,"committed_to":"Kansas State","lat":32.6550905,"lng":-85.50364346309962,"hometown_city":"Auburn","hometown_state":"AL"},{"name":"Jocques Felix","year":2026,"position":"DL","stars":null,"rating_247":87.0,"committed_to":"Missouri","lat":38.3566,"lng":-92.458,"hometown_city":"St. Louis","hometown_state":"MO"},{"name":"King Liggins","year":2026,"position":"DL","stars":3,"rating_247":87.0,"committed_to":"Illinois","lat":41.8755616,"lng":-87.6244212,"hometown_city":"Chicago","hometown_state":"IL"},{"name":"Blake Smythe","year":2026,"position":"DL","stars":3,"rating_247":87.0,"committed_to":"Indiana","lat":39.4806056,"lng":-86.0549863,"hometown_city":"Franklin","hometown_state":"IN"},{"name":"KJ Henson","year":2026,"position":"DL","stars":null,"rating_247":87.0,"committed_to":"West Virginia","lat":38.4937,"lng":-98.3804,"hometown_city":"Hutchinson","hometown_state":"KS"},{"name":"Jaden Weaver","year":2026,"position":"DL","stars":null,"rating_247":86.0,"committed_to":"Iowa State","lat":40.0417,"lng":-89.1965,"hometown_city":"Orland Park","hometown_state":"IL"},{"name":"Nate Fleming","year":2026,"position":"DL","stars":3,"rating_247":86.0,"committed_to":"Vanderbilt","lat":35.925193,"lng":-86.8689365,"hometown_city":"Franklin","hometown_state":"TN"},{"name":"Gavin Neil","year":2026,"position":"DL","stars":3,"rating_247":86.0,"committed_to":"Boston College","lat":41.5062834,"lng":-87.6357079,"hometown_city":"Chicago Heights","hometown_state":"IL"},{"name":"Nuk Simmons","year":2026,"position":"DL","stars":null,"rating_247":86.0,"committed_to":"Tennessee","lat":32.6415,"lng":-83.4426,"hometown_city":"Columbus","hometown_state":"GA"},{"name":"Christian Harris","year":2026,"position":"DL","stars":3,"rating_247":85.0,"committed_to":"Wake Forest","lat":39.1014537,"lng":-84.5124602,"hometown_city":"Cincinnati","hometown_state":"OH"},{"name":"Joseph Terry","year":2026,"position":"DL","stars":3,"rating_247":85.0,"committed_to":null,"lat":33.5016932,"lng":-117.6625509,"hometown_city":"San Juan Capistrano","hometown_state":"CA"},{"name":"Aiden Solecki","year":2026,"position":"DL","stars":3,"rating_247":85.0,"committed_to":"Purdue","lat":41.7938195,"lng":-88.010376,"hometown_city":"Downers Grove","hometown_state":"IL"},{"name":"Royce Rogers","year":2026,"position":"DL","stars":3,"rating_247":85.0,"committed_to":"Buffalo","lat":39.9242266,"lng":-83.8088172,"hometown_city":"Springfield","hometown_state":"OH"},{"name":"Dominic Infelise","year":2026,"position":"DL","stars":null,"rating_247":83.0,"committed_to":"Ball State","lat":40.0417,"lng":-89.1965,"hometown_city":"New Lenox","hometown_state":"IL"},{"name":"Jimyll Lundy","year":2026,"position":"DL","stars":3,"rating_247":82.0,"committed_to":"Georgia State","lat":30.8327022,"lng":-83.2784851,"hometown_city":"Valdosta","hometown_state":"GA"},{"name":"Xavier Jackson","year":2026,"position":"DL","stars":3,"rating_247":82.0,"committed_to":"Wyoming","lat":38.7910374,"lng":-90.7039107,"hometown_city":"O'Fallon","hometown_state":"MO"},{"name":"Mason Holbrook","year":2026,"position":"DL","stars":3,"rating_247":81.0,"committed_to":"Ball State","lat":39.3995067,"lng":-84.5613428,"hometown_city":"Hamilton","hometown_state":"OH"},{"name":"Myles Hancock","year":2026,"position":"DL","stars":null,"rating_247":80.0,"committed_to":"Ball State","lat":37.1841,"lng":-119.4696,"hometown_city":"Riverside","hometown_state":"CA"},{"name":"Semaj Fluellyn","year":2026,"position":"DL","stars":null,"rating_247":null,"committed_to":null,"lat":32.6415,"lng":-83.4426,"hometown_city":"Suwanee","hometown_state":"GA"},{"name":"Jonathan Carter","year":2026,"position":"DL","stars":null,"rating_247":null,"committed_to":null,"lat":40.2862,"lng":-82.7937,"hometown_city":"Portsmouth","hometown_state":"OH"},{"name":"Cedric Mickens","year":2026,"position":"DL","stars":null,"rating_247":null,"committed_to":null,"lat":28.6305,"lng":-82.4497,"hometown_city":"Wellington","hometown_state":"FL"},{"name":"Trevor Gibbs","year":2026,"position":"LB","stars":3,"rating_247":89.0,"committed_to":"Indiana","lat":41.4169806,"lng":-87.3653136,"hometown_city":"Crown Point","hometown_state":"IN"},{"name":"Billy Weivoda","year":2026,"position":"LB","stars":3,"rating_247":88.0,"committed_to":"Iowa","lat":34.0709576,"lng":-84.2747329,"hometown_city":"Alpharetta","hometown_state":"GA"},{"name":"Jameson McCollough","year":2026,"position":"LB","stars":null,"rating_247":86.0,"committed_to":"Jacksonville State","lat":32.6415,"lng":-83.4426,"hometown_city":"Powder Springs","hometown_state":"GA"},{"name":"La'Trell Sellers","year":2026,"position":"LB","stars":null,"rating_247":85.0,"committed_to":"Charlotte","lat":32.6415,"lng":-83.4426,"hometown_city":"Hazlehurst","hometown_state":"GA"},{"name":"Omari Stephenson","year":2026,"position":"LB","stars":3,"rating_247":85.0,"committed_to":"Kennesaw State","lat":30.8365815,"lng":-83.9787808,"hometown_city":"Thomasville","hometown_state":"GA"},{"name":"Japrei Wafer","year":2026,"position":"LB","stars":3,"rating_247":84.0,"committed_to":"Texas-El Paso","lat":33.1031744,"lng":-96.6705503,"hometown_city":"Allen","hometown_state":"TX"},{"name":"Gannon Knowles","year":2026,"position":"LB","stars":3,"rating_247":83.0,"committed_to":"Ball State","lat":39.7683331,"lng":-86.1583502,"hometown_city":"Indianapolis","hometown_state":"IN"},{"name":"Kaleb Stewart","year":2026,"position":"LB","stars":null,"rating_247":82.0,"committed_to":"Ball State","lat":38.4937,"lng":-98.3804,"hometown_city":"Coffeyville","hometown_state":"KS"},{"name":"Kailer Pettijohn","year":2026,"position":"LB","stars":null,"rating_247":82.0,"committed_to":"North Texas","lat":31.4757,"lng":-99.3312,"hometown_city":"McKinney","hometown_state":"TX"},{"name":"Omeiza Daniyan","year":2026,"position":"LB","stars":null,"rating_247":null,"committed_to":null,"lat":35.858,"lng":-86.3505,"hometown_city":"Mt. Juliet","hometown_state":"TN"},{"name":"Omeiza Daniyan","year":2026,"position":"LB","stars":null,"rating_247":null,"committed_to":"Army","lat":35.858,"lng":-86.3505,"hometown_city":"Mt. Juliet","hometown_state":"TN"},{"name":"Kasmir Hicks","year":2026,"position":"CB","stars":4,"rating_247":90.0,"committed_to":"Indiana","lat":39.7683331,"lng":-86.1583502,"hometown_city":"Indianapolis","hometown_state":"IN"},{"name":"Carsen Eloms","year":2026,"position":"CB","stars":3,"rating_247":88.0,"committed_to":"Wisconsin","lat":39.9555928,"lng":-86.0138729,"hometown_city":"Fishers","hometown_state":"IN"},{"name":"Jalon Copeland","year":2026,"position":"CB","stars":3,"rating_247":87.0,"committed_to":"Arkansas","lat":30.8327022,"lng":-83.2784851,"hometown_city":"Valdosta","hometown_state":"GA"},{"name":"DaQuwan Dunn","year":2026,"position":"CB","stars":3,"rating_247":87.0,"committed_to":"Arizona State","lat":32.9481789,"lng":-96.7297206,"hometown_city":"Richardson","hometown_state":"TX"},{"name":"Jordyn Best","year":2026,"position":"CB","stars":3,"rating_247":87.0,"committed_to":"North Carolina State","lat":34.0007493,"lng":-81.0343313,"hometown_city":"Columbia","hometown_state":"SC"},{"name":"Stone Perkins","year":2026,"position":"CB","stars":3,"rating_247":85.0,"committed_to":"Ball State","lat":38.2542376,"lng":-85.759407,"hometown_city":"Louisville","hometown_state":"KY"},{"name":"Tim Roberson","year":2026,"position":"CB","stars":null,"rating_247":85.0,"committed_to":"West Virginia","lat":42.0751,"lng":-93.496,"hometown_city":"Council Bluffs","hometown_state":"IA"},{"name":"Syncere Berry","year":2026,"position":"CB","stars":3,"rating_247":84.0,"committed_to":"Appalachian State","lat":33.7490987,"lng":-84.3901849,"hometown_city":"Atlanta","hometown_state":"GA"},{"name":"Trevon Collard","year":2026,"position":"CB","stars":null,"rating_247":84.0,"committed_to":"Western Michigan","lat":38.3566,"lng":-92.458,"hometown_city":"St. Louis","hometown_state":"MO"},{"name":"Gavin Yates-Lyons","year":2026,"position":"CB","stars":null,"rating_247":83.0,"committed_to":"Ball State","lat":32.6415,"lng":-83.4426,"hometown_city":"Valdosta","hometown_state":"GA"},{"name":"David Williams","year":2026,"position":"CB","stars":3,"rating_247":83.0,"committed_to":"Central Michigan","lat":42.4932575,"lng":-83.0062746,"hometown_city":"Warren","hometown_state":"MI"},{"name":"Sebastian Moore","year":2026,"position":"CB","stars":null,"rating_247":null,"committed_to":"Ball State","lat":39.8942,"lng":-86.2816,"hometown_city":"Fort Wayne","hometown_state":"IN"},{"name":"Devin Jackson","year":2026,"position":"S","stars":4,"rating_247":95.0,"committed_to":"Oregon","lat":28.5421109,"lng":-81.3790304,"hometown_city":"Orlando","hometown_state":"FL"},{"name":"Keenan Harris","year":2026,"position":"S","stars":3,"rating_247":89.0,"committed_to":"Missouri","lat":38.6268039,"lng":-90.1994097,"hometown_city":"St. Louis","hometown_state":"MO"},{"name":"Eliyjah Caldwell","year":2026,"position":"S","stars":null,"rating_247":88.0,"committed_to":"Michigan State","lat":28.6305,"lng":-82.4497,"hometown_city":"Jacksonville","hometown_state":"FL"},{"name":"Jordan Vann","year":2026,"position":"S","stars":3,"rating_247":88.0,"committed_to":"Louisville","lat":39.5150576,"lng":-84.3982763,"hometown_city":"Middletown","hometown_state":"OH"},{"name":"Chino Aguirre","year":2026,"position":"S","stars":null,"rating_247":88.0,"committed_to":"North Carolina State","lat":32.6415,"lng":-83.4426,"hometown_city":"Locust Grove","hometown_state":"GA"},{"name":"Antavius Watts","year":2026,"position":"S","stars":3,"rating_247":86.0,"committed_to":"Mississippi State","lat":32.4609764,"lng":-84.9877094,"hometown_city":"Columbus","hometown_state":"GA"},{"name":"Knight Wilson","year":2026,"position":"S","stars":3,"rating_247":86.0,"committed_to":"Air Force","lat":35.925193,"lng":-86.8689365,"hometown_city":"Franklin","hometown_state":"TN"},{"name":"Ta'Vari Hampton","year":2026,"position":"S","stars":null,"rating_247":85.0,"committed_to":"Purdue","lat":35.5889,"lng":-97.4943,"hometown_city":"Miami","hometown_state":"OK"},{"name":"RJ Holland","year":2026,"position":"S","stars":3,"rating_247":84.0,"committed_to":"Central State","lat":39.896277299999994,"lng":-82.77319049748806,"hometown_city":"Pickerington","hometown_state":"OH"},{"name":"Zyon Hill","year":2026,"position":"S","stars":null,"rating_247":84.0,"committed_to":"Ball State","lat":39.8942,"lng":-86.2816,"hometown_city":"Indianapolis","hometown_state":"IN"},{"name":"Gary Mann","year":2026,"position":"S","stars":null,"rating_247":null,"committed_to":null,"lat":28.6305,"lng":-82.4497,"hometown_city":"Belle Glade","hometown_state":"FL"},{"name":"Sammy Shepherd","year":2026,"position":"S","stars":null,"rating_247":null,"committed_to":null,"lat":31.4757,"lng":-99.3312,"hometown_city":"Lancaster","hometown_state":"TX"},{"name":"Chase Dexter","year":2026,"position":"S","stars":null,"rating_247":null,"committed_to":null,"lat":31.4757,"lng":-99.3312,"hometown_city":"Kilgore","hometown_state":"TX"},{"name":"Brayden Rouse","year":2026,"position":"ATH","stars":4,"rating_247":96.0,"committed_to":"Tennessee","lat":33.9528472,"lng":-84.5496148,"hometown_city":"Marietta","hometown_state":"GA"},{"name":"Nas Rankin","year":2026,"position":"ATH","stars":null,"rating_247":91.0,"committed_to":"Illinois","lat":40.0417,"lng":-89.1965,"hometown_city":"Chicago","hometown_state":"IL"},{"name":"Marcello Vitti","year":2026,"position":"ATH","stars":4,"rating_247":91.0,"committed_to":"Iowa","lat":42.3222599,"lng":-83.1763145,"hometown_city":"Dearborn","hometown_state":"MI"},{"name":"Devonte Anderson","year":2026,"position":"ATH","stars":3,"rating_247":90.0,"committed_to":"Rutgers","lat":28.5656649,"lng":-81.5856742,"hometown_city":"Winter Garden","hometown_state":"FL"},{"name":"KJ Deriso","year":2026,"position":"ATH","stars":3,"rating_247":89.0,"committed_to":"Michigan State","lat":33.4487257,"lng":-84.4549262,"hometown_city":"Fayetteville","hometown_state":"GA"},{"name":"Cameron Thomas","year":2026,"position":"ATH","stars":null,"rating_247":88.0,"committed_to":"Illinois","lat":40.2862,"lng":-82.7937,"hometown_city":"West Chester","hometown_state":"OH"},{"name":"Brandon Jenkins","year":2026,"position":"ATH","stars":3,"rating_247":88.0,"committed_to":"Ohio","lat":42.0811563,"lng":-87.9802164,"hometown_city":"Arlington Heights","hometown_state":"IL"},{"name":"Mykul Campbell","year":2026,"position":"ATH","stars":3,"rating_247":87.0,"committed_to":"Chicago State","lat":39.7683331,"lng":-86.1583502,"hometown_city":"Indianapolis","hometown_state":"IN"},{"name":"Somad Eaddy","year":2026,"position":"ATH","stars":3,"rating_247":87.0,"committed_to":"Wake Forest","lat":34.9381361,"lng":-82.2272119,"hometown_city":"Greer","hometown_state":"SC"},{"name":"Carson Sneed","year":2026,"position":"ATH","stars":3,"rating_247":86.0,"committed_to":"North Carolina","lat":36.1622296,"lng":-86.7743531,"hometown_city":"Nashville","hometown_state":"TN"},{"name":"Emoni Smith","year":2026,"position":"ATH","stars":3,"rating_247":86.0,"committed_to":"Purdue","lat":39.9139207,"lng":-83.1633336,"hometown_city":"Galloway","hometown_state":"OH"},{"name":"Charlie Jilek","year":2026,"position":"ATH","stars":3,"rating_247":86.0,"committed_to":"Texas","lat":42.2011538,"lng":-85.5800022,"hometown_city":"Portage","hometown_state":"MI"},{"name":"Jayden Rush","year":2026,"position":"ATH","stars":3,"rating_247":86.0,"committed_to":"Chattanooga","lat":36.1622296,"lng":-86.7743531,"hometown_city":"Nashville","hometown_state":"TN"},{"name":"Brady Ballart","year":2026,"position":"ATH","stars":null,"rating_247":86.0,"committed_to":"Louisville","lat":39.8942,"lng":-86.2816,"hometown_city":"Aurora","hometown_state":"IN"},{"name":"Chris Newell Jr.","year":2026,"position":"ATH","stars":3,"rating_247":85.0,"committed_to":"Bowling Green","lat":41.5051613,"lng":-81.6934446,"hometown_city":"Cleveland","hometown_state":"OH"},{"name":"Adam Kirtley","year":2026,"position":"ATH","stars":3,"rating_247":84.0,"committed_to":"Cincinnati","lat":39.1014537,"lng":-84.5124602,"hometown_city":"Cincinnati","hometown_state":"OH"},{"name":"Zach Becker","year":2026,"position":"ATH","stars":3,"rating_247":84.0,"committed_to":"Ball State","lat":42.1900249,"lng":-87.9084039,"hometown_city":"Lincolnshire","hometown_state":"IL"},{"name":"Braylon Toliver","year":2026,"position":"ATH","stars":3,"rating_247":83.0,"committed_to":"North Dakota State","lat":40.0146297,"lng":-105.10395109684542,"hometown_city":"Erie","hometown_state":"CO"},{"name":"Jamarcus Jones","year":2026,"position":"ATH","stars":3,"rating_247":82.0,"committed_to":"Buffalo","lat":39.9622601,"lng":-83.0007065,"hometown_city":"Columbus","hometown_state":"OH"},{"name":"Tre'Von Pringle","year":2026,"position":"ATH","stars":null,"rating_247":82.0,"committed_to":"Jacksonville State","lat":32.6415,"lng":-83.4426,"hometown_city":"Thomasville","hometown_state":"GA"},{"name":"Nick Burden","year":2026,"position":"ATH","stars":3,"rating_247":82.0,"committed_to":"Memphis","lat":33.3870578,"lng":-84.2829784,"hometown_city":"Hampton","hometown_state":"GA"},{"name":"AJ Seymour","year":2026,"position":"ATH","stars":null,"rating_247":81.0,"committed_to":"Ball State","lat":44.6243,"lng":-89.9941,"hometown_city":"Brookfield","hometown_state":"WI"},{"name":"Jayden McCaster","year":2026,"position":"ATH","stars":null,"rating_247":null,"committed_to":"Southern Illinois","lat":38.3566,"lng":-92.458,"hometown_city":"Nixa","hometown_state":"MO"},{"name":"Amari Williams","year":2026,"position":"ATH","stars":null,"rating_247":null,"committed_to":"South Dakota State","lat":38.3566,"lng":-92.458,"hometown_city":"St. Louis","hometown_state":"MO"},{"name":"Cornell Conely","year":2026,"position":"ATH","stars":null,"rating_247":null,"committed_to":"Western Illinois","lat":40.0417,"lng":-89.1965,"hometown_city":"Chicago","hometown_state":"IL"}],"2027":[{"name":"Kade Goodin","year":2027,"position":"QB","stars":null,"rating_247":85.0,"committed_to":"Ball State","lat":37.5347,"lng":-85.3021,"hometown_city":"Shelbyville","hometown_state":"KY"},{"name":"Joseph Allen","year":2027,"position":"QB","stars":null,"rating_247":null,"committed_to":null,"lat":28.6305,"lng":-82.4497,"hometown_city":"Melbourne","hometown_state":"FL"},{"name":"Keyon Thomas","year":2027,"position":"RB","stars":null,"rating_247":86.0,"committed_to":null,"lat":39.8942,"lng":-86.2816,"hometown_city":"Indianapolis","hometown_state":"IN"},{"name":"Omari St. Fort","year":2027,"position":"RB","stars":null,"rating_247":null,"committed_to":null,"lat":28.6305,"lng":-82.4497,"hometown_city":"Delray Beach","hometown_state":"FL"},{"name":"Monshun Sales","year":2027,"position":"WR","stars":null,"rating_247":98.0,"committed_to":null,"lat":39.8942,"lng":-86.2816,"hometown_city":"Indianapolis","hometown_state":"IN"},{"name":"Lawrence Carr","year":2027,"position":"WR","stars":null,"rating_247":88.0,"committed_to":null,"lat":40.0417,"lng":-89.1965,"hometown_city":"Chicago","hometown_state":"IL"},{"name":"Ryan Ferdinand","year":2027,"position":"WR","stars":null,"rating_247":85.0,"committed_to":null,"lat":28.6305,"lng":-82.4497,"hometown_city":"West Palm Beach","hometown_state":"FL"},{"name":"Jhalil Anderson","year":2027,"position":"WR","stars":null,"rating_247":85.0,"committed_to":null,"lat":38.9101,"lng":-77.0147,"hometown_city":"Washington","hometown_state":"DC"},{"name":"Andrew Lyman","year":2027,"position":"WR","stars":null,"rating_247":null,"committed_to":"Ball State","lat":40.2862,"lng":-82.7937,"hometown_city":"Kings Mills","hometown_state":"OH"},{"name":"Jamarion Flowers","year":2027,"position":"WR","stars":null,"rating_247":null,"committed_to":"Missouri State","lat":40.0417,"lng":-89.1965,"hometown_city":"East St. Louis","hometown_state":"IL"},{"name":"Lorenzo Barber","year":2027,"position":"WR","stars":null,"rating_247":null,"committed_to":null,"lat":44.3467,"lng":-85.4102,"hometown_city":"Orchard Lake","hometown_state":"MI"},{"name":"Joshua Pettigrew","year":2027,"position":"TE","stars":null,"rating_247":87.0,"committed_to":"Georgia Tech","lat":32.6415,"lng":-83.4426,"hometown_city":"Warner Robins","hometown_state":"GA"},{"name":"Anderson Keller","year":2027,"position":"TE","stars":null,"rating_247":null,"committed_to":"Central Michigan","lat":39.8942,"lng":-86.2816,"hometown_city":"Crown Point","hometown_state":"IN"},{"name":"Dre'Keim Abercrombie","year":2027,"position":"TE","stars":null,"rating_247":null,"committed_to":null,"lat":40.2862,"lng":-82.7937,"hometown_city":"East Liverpool","hometown_state":"OH"},{"name":"Jack Stivers","year":2027,"position":"TE","stars":null,"rating_247":null,"committed_to":"Western Kentucky","lat":37.5347,"lng":-85.3021,"hometown_city":"Louisville","hometown_state":"KY"},{"name":"Caleb Johnson","year":2027,"position":"OT","stars":null,"rating_247":90.0,"committed_to":null,"lat":39.8942,"lng":-86.2816,"hometown_city":"Noblesville","hometown_state":"IN"},{"name":"Patrick O'Brien","year":2027,"position":"OT","stars":null,"rating_247":87.0,"committed_to":"Purdue","lat":40.2862,"lng":-82.7937,"hometown_city":"Cincinnati","hometown_state":"OH"},{"name":"Jack Marquard","year":2027,"position":"OT","stars":null,"rating_247":86.0,"committed_to":"Missouri","lat":40.2862,"lng":-82.7937,"hometown_city":"Lakewood","hometown_state":"OH"},{"name":"Krystian Oakley","year":2027,"position":"OT","stars":null,"rating_247":85.0,"committed_to":null,"lat":39.8942,"lng":-86.2816,"hometown_city":"Indianapolis","hometown_state":"IN"},{"name":"Nick Vecrumba","year":2027,"position":"OT","stars":null,"rating_247":85.0,"committed_to":"Kansas","lat":39.8942,"lng":-86.2816,"hometown_city":"Brownsburg","hometown_state":"IN"},{"name":"Drake Dorsey","year":2027,"position":"OT","stars":null,"rating_247":null,"committed_to":"Princeton","lat":40.2862,"lng":-82.7937,"hometown_city":"Columbus","hometown_state":"OH"},{"name":"Nicholas Schurman","year":2027,"position":"IOL","stars":null,"rating_247":87.0,"committed_to":null,"lat":39.8942,"lng":-86.2816,"hometown_city":"Westfield","hometown_state":"IN"},{"name":"Caleb Williams","year":2027,"position":"IOL","stars":null,"rating_247":null,"committed_to":"Buffalo","lat":40.2862,"lng":-82.7937,"hometown_city":"Akron","hometown_state":"OH"},{"name":"Andrew Ryder Anderson","year":2027,"position":"IOL","stars":null,"rating_247":null,"committed_to":"Miami (OH)","lat":40.2862,"lng":-82.7937,"hometown_city":"Grove City","hometown_state":"OH"},{"name":"Orville Blohm","year":2027,"position":"IOL","stars":null,"rating_247":null,"committed_to":"Western Michigan","lat":44.6243,"lng":-89.9941,"hometown_city":"Fond Du Lac","hometown_state":"WI"},{"name":"Jack Schuler","year":2027,"position":"Edge","stars":null,"rating_247":86.0,"committed_to":"Michigan State","lat":40.2862,"lng":-82.7937,"hometown_city":"Columbus","hometown_state":"OH"},{"name":"Griffin Benke","year":2027,"position":"Edge","stars":null,"rating_247":null,"committed_to":"Ohio","lat":37.5347,"lng":-85.3021,"hometown_city":"Fort Thomas","hometown_state":"KY"},{"name":"Cooper Benke","year":2027,"position":"Edge","stars":null,"rating_247":null,"committed_to":"Ball State","lat":37.5347,"lng":-85.3021,"hometown_city":"Fort Thomas","hometown_state":"KY"},{"name":"Sincere Harris","year":2027,"position":"Edge","stars":null,"rating_247":null,"committed_to":null,"lat":40.0417,"lng":-89.1965,"hometown_city":"Chicago","hometown_state":"IL"},{"name":"Damion King","year":2027,"position":"Edge","stars":null,"rating_247":null,"committed_to":null,"lat":40.2862,"lng":-82.7937,"hometown_city":"Westerville","hometown_state":"OH"},{"name":"Zai'Vion Meads","year":2027,"position":"DL","stars":null,"rating_247":86.0,"committed_to":"West Virginia","lat":37.5347,"lng":-85.3021,"hometown_city":"Louisville","hometown_state":"KY"},{"name":"Jake Godfree","year":2027,"position":"LB","stars":null,"rating_247":87.0,"committed_to":"North Carolina State","lat":32.6415,"lng":-83.4426,"hometown_city":"Suwanee","hometown_state":"GA"},{"name":"Ethan Reyna","year":2027,"position":"LB","stars":null,"rating_247":86.0,"committed_to":"Purdue","lat":39.8942,"lng":-86.2816,"hometown_city":"Merrillville","hometown_state":"IN"},{"name":"Cam Pettijohn","year":2027,"position":"LB","stars":null,"rating_247":85.0,"committed_to":null,"lat":31.4757,"lng":-99.3312,"hometown_city":"Anna","hometown_state":"TX"},{"name":"Jayden Gibson","year":2027,"position":"CB","stars":null,"rating_247":null,"committed_to":null,"lat":32.6415,"lng":-83.4426,"hometown_city":"Saint Simons Island","hometown_state":"GA"},{"name":"Mehki Jessie","year":2027,"position":"CB","stars":null,"rating_247":null,"committed_to":null,"lat":31.4757,"lng":-99.3312,"hometown_city":"Richardson","hometown_state":"TX"},{"name":"Errol Kerns III","year":2027,"position":"S","stars":null,"rating_247":88.0,"committed_to":"Texas A&M","lat":39.8942,"lng":-86.2816,"hometown_city":"Indianapolis","hometown_state":"IN"},{"name":"Keontay Toomer","year":2027,"position":"S","stars":null,"rating_247":87.0,"committed_to":"Louisville","lat":39.8942,"lng":-86.2816,"hometown_city":"Indianapolis","hometown_state":"IN"},{"name":"James Johnson","year":2027,"position":"S","stars":null,"rating_247":87.0,"committed_to":"Cincinnati","lat":40.0417,"lng":-89.1965,"hometown_city":"Belleville","hometown_state":"IL"},{"name":"Chancelor Adams","year":2027,"position":"S","stars":null,"rating_247":null,"committed_to":"Bowling Green","lat":39.8942,"lng":-86.2816,"hometown_city":"Brownsburg","hometown_state":"IN"},{"name":"Ka'vion Campbell-Walker","year":2027,"position":"S","stars":null,"rating_247":null,"committed_to":"Ball State","lat":39.8942,"lng":-86.2816,"hometown_city":"Lafayette","hometown_state":"IN"},{"name":"Jamier Brown","year":2027,"position":"ATH","stars":null,"rating_247":98.0,"committed_to":"Ohio State","lat":40.2862,"lng":-82.7937,"hometown_city":"Sunbury","hometown_state":"OH"},{"name":"Omarii Sanders","year":2027,"position":"ATH","stars":null,"rating_247":94.0,"committed_to":"Vanderbilt","lat":35.858,"lng":-86.3505,"hometown_city":"Nashville","hometown_state":"TN"},{"name":"Darryl Flemister","year":2027,"position":"ATH","stars":null,"rating_247":86.0,"committed_to":null,"lat":44.3467,"lng":-85.4102,"hometown_city":"Detroit","hometown_state":"MI"},{"name":"Timmy Emongo","year":2027,"position":"ATH","stars":null,"rating_247":null,"committed_to":"Ball State","lat":37.5347,"lng":-85.3021,"hometown_city":"Georgetown","hometown_state":"KY"},{"name":"Owen Pitzer","year":2027,"position":"ATH","stars":null,"rating_247":null,"committed_to":"Ball State","lat":37.5347,"lng":-85.3021,"hometown_city":"Alexandria","hometown_state":"KY"},{"name":"Demond Green","year":2027,"position":"ATH","stars":null,"rating_247":null,"committed_to":"Ball State","lat":37.5347,"lng":-85.3021,"hometown_city":"Lexington","hometown_state":"KY"},{"name":"Darius Dennis","year":2027,"position":"ATH","stars":null,"rating_247":null,"committed_to":null,"lat":40.2862,"lng":-82.7937,"hometown_city":"Dayton","hometown_state":"OH"},{"name":"Zechariah Wallace","year":2027,"position":"ATH","stars":null,"rating_247":null,"committed_to":"Western Michigan","lat":39.8942,"lng":-86.2816,"hometown_city":"Indianapolis","hometown_state":"IN"},{"name":"Nolan Buirley","year":2027,"position":"ATH","stars":null,"rating_247":null,"committed_to":"Northwestern","lat":40.2862,"lng":-82.7937,"hometown_city":"Sunbury","hometown_state":"OH"},{"name":"Devon Williams","year":2027,"position":"ATH","stars":null,"rating_247":null,"committed_to":"South Dakota State","lat":44.6243,"lng":-89.9941,"hometown_city":"Waukesha","hometown_state":"WI"}],"2028":[{"name":"Corderro Bennett","year":2028,"position":"WR","stars":null,"rating_247":88.0,"committed_to":null,"lat":39.8942,"lng":-86.2816,"hometown_city":"Hammond","hometown_state":"IN"},{"name":"Jemir Lynum","year":2028,"position":"WR","stars":null,"rating_247":null,"committed_to":null,"lat":44.3467,"lng":-85.4102,"hometown_city":"Redford","hometown_state":"MI"},{"name":"Cordell Ball","year":2028,"position":"WR","stars":null,"rating_247":null,"committed_to":null,"lat":40.2862,"lng":-82.7937,"hometown_city":"Cincinnati","hometown_state":"OH"},{"name":"Sean Sherman","year":2028,"position":"OT","stars":null,"rating_247":null,"committed_to":null,"lat":31.4757,"lng":-99.3312,"hometown_city":"Anna","hometown_state":"TX"},{"name":"Damontae Butler","year":2028,"position":"CB","stars":null,"rating_247":88.0,"committed_to":null,"lat":40.2862,"lng":-82.7937,"hometown_city":"Pickerington","hometown_state":"OH"},{"name":"Tyler Trusel","year":2028,"position":"ATH","stars":null,"rating_247":88.0,"committed_to":null,"lat":44.3467,"lng":-85.4102,"hometown_city":"Bloomfield Hills","hometown_state":"MI"}]}