{"2026":[{"name":"Tradon Bessinger","year":2026,"position":"QB","stars":4,"rating_247":92.0,"committed_to":"Iowa","lat":41.0349847,"lng":-111.9383931,"hometown_city":"Kaysville","hometown_state":"UT"},{"name":"Bryson Beaver","year":2026,"position":"QB","stars":4,"rating_247":91.0,"committed_to":"Oregon","lat":33.577752399999994,"lng":-117.18845420205307,"hometown_city":"Murrieta","hometown_state":"CA"},{"name":"Cash Herrera","year":2026,"position":"QB","stars":3,"rating_247":88.0,"committed_to":"Boise State","lat":32.83259,"lng":-117.2716839,"hometown_city":"La Jolla","hometown_state":"CA"},{"name":"Jackson Taylor","year":2026,"position":"QB","stars":3,"rating_247":87.0,"committed_to":"Boise State","lat":34.1460234,"lng":-118.8061794,"hometown_city":"Westlake Village","hometown_state":"CA"},{"name":"Deagan Rose","year":2026,"position":"QB","stars":3,"rating_247":87.0,"committed_to":"Fresno State","lat":36.8252277,"lng":-119.7029194,"hometown_city":"Clovis","hometown_state":"CA"},{"name":"Tayden-Evan Kaawa","year":2026,"position":"QB","stars":null,"rating_247":86.0,"committed_to":"Alabama","lat":39.321,"lng":-111.0937,"hometown_city":"Orem","hometown_state":"UT"},{"name":"Jackson Presley","year":2026,"position":"QB","stars":3,"rating_247":84.0,"committed_to":"Portland State","lat":48.2022563,"lng":-114.3167117,"hometown_city":"Kalispell","hometown_state":"MT"},{"name":"Greyson Miller","year":2026,"position":"QB","stars":null,"rating_247":null,"committed_to":null,"lat":34.8938,"lng":-92.4426,"hometown_city":"West Helena","hometown_state":"AR"},{"name":"Victor Santino","year":2026,"position":"RB","stars":4,"rating_247":89.0,"committed_to":"California","lat":25.7742658,"lng":-80.1936589,"hometown_city":"Miami","hometown_state":"FL"},{"name":"LaMarcus Bell","year":2026,"position":"RB","stars":3,"rating_247":89.0,"committed_to":"Utah","lat":45.4206749,"lng":-122.6706498,"hometown_city":"Lake Oswego","hometown_state":"OR"},{"name":"Keilan Chavies","year":2026,"position":"RB","stars":3,"rating_247":88.0,"committed_to":"Boise State","lat":30.5427638,"lng":-97.5468898,"hometown_city":"Hutto","hometown_state":"TX"},{"name":"Trae'shawn Brown","year":2026,"position":"RB","stars":3,"rating_247":88.0,"committed_to":"Alabama","lat":30.7235263,"lng":-95.5507771,"hometown_city":"Huntsville","hometown_state":"TX"},{"name":"Sean Morris II","year":2026,"position":"RB","stars":3,"rating_247":87.0,"committed_to":"Northwestern","lat":33.7872568,"lng":-117.8503088,"hometown_city":"Orange","hometown_state":"CA"},{"name":"Jayden Fox","year":2026,"position":"RB","stars":3,"rating_247":87.0,"committed_to":"UCLA","lat":39.6482059,"lng":-104.9879641,"hometown_city":"Englewood","hometown_state":"CO"},{"name":"Juntavious Harris","year":2026,"position":"RB","stars":3,"rating_247":85.0,"committed_to":"Texas State","lat":32.8457865,"lng":-97.0667142473263,"hometown_city":"Euless","hometown_state":"TX"},{"name":"Izayah Lee","year":2026,"position":"RB","stars":3,"rating_247":85.0,"committed_to":"Vanderbilt","lat":32.5920798,"lng":-96.7561083,"hometown_city":"Lancaster","hometown_state":"TX"},{"name":"Mariyon Sloan","year":2026,"position":"RB","stars":3,"rating_247":85.0,"committed_to":"Boise State","lat":35.5005139,"lng":-119.2717761,"hometown_city":"Shafter","hometown_state":"CA"},{"name":"Kyshawn Robinson","year":2026,"position":"RB","stars":3,"rating_247":84.0,"committed_to":null,"lat":25.7742658,"lng":-80.1936589,"hometown_city":"Miami","hometown_state":"FL"},{"name":"Killian Sombe","year":2026,"position":"RB","stars":3,"rating_247":82.0,"committed_to":"Oregon","lat":45.5202471,"lng":-122.6741949,"hometown_city":"Portland","hometown_state":"OR"},{"name":"Terrious Favors","year":2026,"position":"WR","stars":4,"rating_247":90.0,"committed_to":"Boise State","lat":33.7490987,"lng":-84.3901849,"hometown_city":"Atlanta","hometown_state":"GA"},{"name":"Cynai Thomas","year":2026,"position":"WR","stars":3,"rating_247":89.0,"committed_to":"Oregon State","lat":37.7790262,"lng":-122.4199061,"hometown_city":"San Francisco","hometown_state":"CA"},{"name":"Rasean Jones","year":2026,"position":"WR","stars":3,"rating_247":88.0,"committed_to":"Boise State","lat":43.6086295,"lng":-116.392326,"hometown_city":"Meridian","hometown_state":"ID"},{"name":"Kai Meza","year":2026,"position":"WR","stars":3,"rating_247":88.0,"committed_to":"California","lat":40.5246711,"lng":-111.8638226,"hometown_city":"Draper","hometown_state":"UT"},{"name":"Derrick Salley Jr.","year":2026,"position":"WR","stars":null,"rating_247":88.0,"committed_to":"Kansas State","lat":38.4937,"lng":-98.3804,"hometown_city":"Hutchinson","hometown_state":"KS"},{"name":"Kaue Akana","year":2026,"position":"WR","stars":3,"rating_247":87.0,"committed_to":"BYU","lat":40.2971825,"lng":-111.694943,"hometown_city":"Orem","hometown_state":"UT"},{"name":"Jude Nelson","year":2026,"position":"WR","stars":3,"rating_247":87.0,"committed_to":"Utah State","lat":33.7690164,"lng":-118.1916048,"hometown_city":"Long Beach","hometown_state":"CA"},{"name":"AJ Logan","year":2026,"position":"WR","stars":3,"rating_247":86.0,"committed_to":"Boise State","lat":39.0800023,"lng":-122.5963989,"hometown_city":"Spring Valley","hometown_state":"CA"},{"name":"Major Pride","year":2026,"position":"WR","stars":3,"rating_247":85.0,"committed_to":"UCLA","lat":33.8358492,"lng":-118.3406288,"hometown_city":"Torrance","hometown_state":"CA"},{"name":"Chaz Gilbreath","year":2026,"position":"WR","stars":3,"rating_247":83.0,"committed_to":"UC Davis","lat":33.8503463,"lng":-118.1171914,"hometown_city":"Lakewood","hometown_state":"CA"},{"name":"Akeem Wright","year":2026,"position":"WR","stars":null,"rating_247":82.0,"committed_to":"Boise State","lat":37.1841,"lng":-119.4696,"hometown_city":"Cupertino","hometown_state":"CA"},{"name":"Kenyon Shabazz","year":2026,"position":"WR","stars":null,"rating_247":81.0,"committed_to":"Sacramento State","lat":37.1841,"lng":-119.4696,"hometown_city":"San Mateo","hometown_state":"CA"},{"name":"Lester Falatea","year":2026,"position":"WR","stars":null,"rating_247":null,"committed_to":null,"lat":39.321,"lng":-111.0937,"hometown_city":"Salt Lake City","hometown_state":"UT"},{"name":"Matt Ludwig","year":2026,"position":"TE","stars":4,"rating_247":91.0,"committed_to":"Texas Tech","lat":45.7874957,"lng":-108.49607,"hometown_city":"Billings","hometown_state":"MT"},{"name":"Jack Sievers","year":2026,"position":"TE","stars":3,"rating_247":88.0,"committed_to":"Wisconsin","lat":47.9673056,"lng":-122.2013998,"hometown_city":"Everett","hometown_state":"WA"},{"name":"Keawe Browne","year":2026,"position":"TE","stars":3,"rating_247":88.0,"committed_to":"Boise State","lat":33.8752945,"lng":-117.5664449,"hometown_city":"Corona","hometown_state":"CA"},{"name":"Kai Wesley","year":2026,"position":"TE","stars":3,"rating_247":88.0,"committed_to":"Baylor","lat":40.2971825,"lng":-111.694943,"hometown_city":"Orem","hometown_state":"UT"},{"name":"Josiah Jefferson","year":2026,"position":"TE","stars":null,"rating_247":88.0,"committed_to":"Southern California","lat":37.1841,"lng":-119.4696,"hometown_city":"Chula Vista","hometown_state":"CA"},{"name":"Ryan Brekke","year":2026,"position":"TE","stars":3,"rating_247":87.0,"committed_to":"Boise State","lat":43.6086295,"lng":-116.392326,"hometown_city":"Meridian","hometown_state":"ID"},{"name":"Beckham Hofland","year":2026,"position":"TE","stars":3,"rating_247":82.0,"committed_to":"Boise State","lat":33.8038865,"lng":-118.0772433,"hometown_city":"Los Alamitos","hometown_state":"CA"},{"name":"Kelvin Obot","year":2026,"position":"OT","stars":5,"rating_247":97.0,"committed_to":"Utah","lat":44.0076639,"lng":-116.9165461,"hometown_city":"Fruitland","hometown_state":"ID"},{"name":"Vlad Dyakonov","year":2026,"position":"OT","stars":4,"rating_247":94.0,"committed_to":"Southern California","lat":38.6779591,"lng":-121.1760583,"hometown_city":"Folsom","hometown_state":"CA"},{"name":"Mataalii Benjamin","year":2026,"position":"OT","stars":4,"rating_247":92.0,"committed_to":"Utah","lat":40.3880902,"lng":-111.8491619,"hometown_city":"Lehi","hometown_state":"UT"},{"name":"Malachi Joyner","year":2026,"position":"OT","stars":4,"rating_247":91.0,"committed_to":"Arizona","lat":33.3527632,"lng":-111.7890373,"hometown_city":"Gilbert","hometown_state":"AZ"},{"name":"Kole Cronin","year":2026,"position":"OT","stars":3,"rating_247":90.0,"committed_to":"Boise State","lat":39.5261206,"lng":-119.8126581,"hometown_city":"Reno","hometown_state":"NV"},{"name":"Keegan Collins","year":2026,"position":"OT","stars":3,"rating_247":88.0,"committed_to":"Kansas State","lat":34.9798392,"lng":-101.9193395,"hometown_city":"Canyon","hometown_state":"TX"},{"name":"TJ Taylor","year":2026,"position":"OT","stars":null,"rating_247":88.0,"committed_to":"Illinois","lat":37.1841,"lng":-119.4696,"hometown_city":"Valencia","hometown_state":"CA"},{"name":"Rex Waterman","year":2026,"position":"OT","stars":3,"rating_247":87.0,"committed_to":"Nebraska","lat":33.3062223,"lng":-111.8413317,"hometown_city":"Chandler","hometown_state":"AZ"},{"name":"Esaiah Wong","year":2026,"position":"OT","stars":3,"rating_247":87.0,"committed_to":"California","lat":21.394833,"lng":-157.72989134661873,"hometown_city":"Kailua","hometown_state":"HI"},{"name":"Quinn Buckey","year":2026,"position":"OT","stars":3,"rating_247":87.0,"committed_to":"UCLA","lat":35.3738712,"lng":-119.0194639,"hometown_city":"Bakersfield","hometown_state":"CA"},{"name":"Connor LaGrow","year":2026,"position":"OT","stars":3,"rating_247":86.0,"committed_to":"Boise State","lat":45.3838546,"lng":-122.7663518,"hometown_city":"Tualatin","hometown_state":"OR"},{"name":"Hakeim Smalls","year":2026,"position":"OT","stars":3,"rating_247":85.0,"committed_to":"Boise State","lat":47.9673056,"lng":-122.2013998,"hometown_city":"Everett","hometown_state":"WA"},{"name":"Ashton Mozone","year":2026,"position":"OT","stars":null,"rating_247":85.0,"committed_to":"South Carolina","lat":42.0751,"lng":-93.496,"hometown_city":"Council Bluffs","hometown_state":"IA"},{"name":"Iosua Faleagafua","year":2026,"position":"OT","stars":3,"rating_247":84.0,"committed_to":"Boise State","lat":39.0800023,"lng":-122.5963989,"hometown_city":"Spring Valley","hometown_state":"CA"},{"name":"Ashton Kershner","year":2026,"position":"OT","stars":null,"rating_247":80.0,"committed_to":"Boise State","lat":37.1841,"lng":-119.4696,"hometown_city":"San Jose","hometown_state":"CA"},{"name":"Jax Tanner","year":2026,"position":"IOL","stars":4,"rating_247":89.0,"committed_to":"BYU","lat":43.6086295,"lng":-116.392326,"hometown_city":"Meridian","hometown_state":"ID"},{"name":"Maika Matelau","year":2026,"position":"IOL","stars":null,"rating_247":87.0,"committed_to":"Illinois","lat":37.1841,"lng":-119.4696,"hometown_city":"Walnut","hometown_state":"CA"},{"name":"Derek Worden","year":2026,"position":"IOL","stars":3,"rating_247":85.0,"committed_to":"Iowa State","lat":33.2483858,"lng":-111.6341585,"hometown_city":"Queen Creek","hometown_state":"AZ"},{"name":"Khary Wilder","year":2026,"position":"Edge","stars":4,"rating_247":95.0,"committed_to":"Ohio State","lat":33.8963593,"lng":-118.3053037,"hometown_city":"Gardena","hometown_state":"CA"},{"name":"Landon Barnes","year":2026,"position":"Edge","stars":4,"rating_247":94.0,"committed_to":"Mississippi","lat":32.6518004,"lng":-96.9083366,"hometown_city":"Duncanville","hometown_state":"TX"},{"name":"Tucker Ashford","year":2026,"position":"Edge","stars":3,"rating_247":87.0,"committed_to":"Kansas State","lat":32.8342952,"lng":-97.2289029,"hometown_city":"North Richland Hills","hometown_state":"TX"},{"name":"Prin Fox","year":2026,"position":"Edge","stars":null,"rating_247":87.0,"committed_to":"Nevada, Las Vegas","lat":47.3826,"lng":-120.4472,"hometown_city":"Cashmere","hometown_state":"WA"},{"name":"Robby Lavata'i","year":2026,"position":"Edge","stars":3,"rating_247":87.0,"committed_to":"San Diego State","lat":47.2495798,"lng":-122.4398746,"hometown_city":"Tacoma","hometown_state":"WA"},{"name":"Corey Webb Jr.","year":2026,"position":"Edge","stars":null,"rating_247":87.0,"committed_to":"Boise State","lat":34.2744,"lng":-111.6602,"hometown_city":"Tonopah","hometown_state":"AZ"},{"name":"Darius Wiley","year":2026,"position":"Edge","stars":null,"rating_247":87.0,"committed_to":"West Virginia","lat":38.4937,"lng":-98.3804,"hometown_city":"Hutchinson","hometown_state":"KS"},{"name":"Adel Dorr","year":2026,"position":"Edge","stars":3,"rating_247":86.0,"committed_to":"Oregon State","lat":47.5348778,"lng":-122.0432974,"hometown_city":"Issaquah","hometown_state":"WA"},{"name":"Mickey Williams","year":2026,"position":"Edge","stars":3,"rating_247":85.0,"committed_to":"Colorado State","lat":37.7790262,"lng":-122.4199061,"hometown_city":"San Francisco","hometown_state":"CA"},{"name":"Sinei Tengei","year":2026,"position":"Edge","stars":3,"rating_247":85.0,"committed_to":"Arizona State","lat":33.4151117,"lng":-111.8314773,"hometown_city":"Mesa","hometown_state":"AZ"},{"name":"Walter Moore","year":2026,"position":"Edge","stars":3,"rating_247":84.0,"committed_to":"New Mexico","lat":34.3435092,"lng":-119.29560423163717,"hometown_city":"Ventura","hometown_state":"CA"},{"name":"Cooper Willoughby","year":2026,"position":"Edge","stars":3,"rating_247":83.0,"committed_to":"Fresno State","lat":40.8894611,"lng":-111.8804817,"hometown_city":"Bountiful","hometown_state":"UT"},{"name":"Donovan Ughanze","year":2026,"position":"Edge","stars":null,"rating_247":null,"committed_to":null,"lat":31.4757,"lng":-99.3312,"hometown_city":"Fort Worth","hometown_state":"TX"},{"name":"Prince Tavizon","year":2026,"position":"DL","stars":4,"rating_247":90.0,"committed_to":"Oregon","lat":32.7174209,"lng":-117.1627714,"hometown_city":"San Diego","hometown_state":"CA"},{"name":"Andy Burburija","year":2026,"position":"DL","stars":null,"rating_247":88.0,"committed_to":"Clemson","lat":42.0751,"lng":-93.496,"hometown_city":"Council Bluffs","hometown_state":"IA"},{"name":"Dakota Dickson","year":2026,"position":"DL","stars":3,"rating_247":87.0,"committed_to":"SMU","lat":37.8215929,"lng":-121.9999606,"hometown_city":"Danville","hometown_state":"CA"},{"name":"Kordae Houston","year":2026,"position":"DL","stars":3,"rating_247":87.0,"committed_to":"Syracuse","lat":32.7762719,"lng":-96.7968559,"hometown_city":"Dallas","hometown_state":"TX"},{"name":"Jaylen Thomas","year":2026,"position":"DL","stars":null,"rating_247":87.0,"committed_to":"West Virginia","lat":32.7364,"lng":-89.6678,"hometown_city":"Senatobia","hometown_state":"MS"},{"name":"Paz St. John","year":2026,"position":"DL","stars":null,"rating_247":86.0,"committed_to":"Boise State","lat":34.2744,"lng":-111.6602,"hometown_city":"Globe","hometown_state":"AZ"},{"name":"Deuce Alailefaleula","year":2026,"position":"DL","stars":3,"rating_247":86.0,"committed_to":"Boise State","lat":61.2163129,"lng":-149.8948523,"hometown_city":"Anchorage","hometown_state":"AK"},{"name":"Frank Fanua Jr.","year":2026,"position":"DL","stars":null,"rating_247":86.0,"committed_to":"California","lat":37.1841,"lng":-119.4696,"hometown_city":"Spring Valley","hometown_state":"CA"},{"name":"Seven Cloud","year":2026,"position":"DL","stars":null,"rating_247":86.0,"committed_to":null,"lat":38.4937,"lng":-98.3804,"hometown_city":"El Dorado","hometown_state":"KS"},{"name":"TJ Spann","year":2026,"position":"DL","stars":null,"rating_247":86.0,"committed_to":"Arkansas State","lat":32.7364,"lng":-89.6678,"hometown_city":"Senatobia","hometown_state":"MS"},{"name":"Nicholas Igwe","year":2026,"position":"DL","stars":null,"rating_247":86.0,"committed_to":"Utah","lat":31.4757,"lng":-99.3312,"hometown_city":"Kilgore","hometown_state":"TX"},{"name":"Rowan Rupp","year":2026,"position":"DL","stars":3,"rating_247":85.0,"committed_to":"Boise State","lat":43.6086295,"lng":-116.392326,"hometown_city":"Meridian","hometown_state":"ID"},{"name":"Josiah Anyansi","year":2026,"position":"DL","stars":3,"rating_247":85.0,"committed_to":"Minnesota","lat":33.577752399999994,"lng":-117.18845420205307,"hometown_city":"Murrieta","hometown_state":"CA"},{"name":"Ta'a Malu","year":2026,"position":"DL","stars":3,"rating_247":85.0,"committed_to":"Washington","lat":47.2495798,"lng":-122.4398746,"hometown_city":"Tacoma","hometown_state":"WA"},{"name":"Chris Knauls","year":2026,"position":"DL","stars":null,"rating_247":85.0,"committed_to":"Rice","lat":31.4757,"lng":-99.3312,"hometown_city":"Frisco","hometown_state":"TX"},{"name":"Jake Jones","year":2026,"position":"DL","stars":3,"rating_247":85.0,"committed_to":"Iowa State","lat":33.3527632,"lng":-111.7890373,"hometown_city":"Gilbert","hometown_state":"AZ"},{"name":"Ejay Tapeni","year":2026,"position":"DL","stars":3,"rating_247":83.0,"committed_to":null,"lat":21.4508308,"lng":-158.0095783,"hometown_city":"Mililani","hometown_state":"HI"},{"name":"Adonte Medley","year":2026,"position":"DL","stars":null,"rating_247":82.0,"committed_to":"Boise State","lat":37.1841,"lng":-119.4696,"hometown_city":"Valencia","hometown_state":"CA"},{"name":"Andrew Rheubottom","year":2026,"position":"DL","stars":null,"rating_247":80.0,"committed_to":"Boise State","lat":37.1841,"lng":-119.4696,"hometown_city":"Cupertino","hometown_state":"CA"},{"name":"Adam Bywater","year":2026,"position":"LB","stars":3,"rating_247":94.0,"committed_to":"BYU","lat":40.7596198,"lng":-111.8867975,"hometown_city":"Salt Lake City","hometown_state":"UT"},{"name":"Ramzak Fruean","year":2026,"position":"LB","stars":3,"rating_247":92.0,"committed_to":"Washington","lat":47.0979462,"lng":-122.4243422,"hometown_city":"Spanaway","hometown_state":"WA"},{"name":"Adam Auston","year":2026,"position":"LB","stars":3,"rating_247":88.0,"committed_to":"Boise State","lat":34.6086854,"lng":-98.3903305,"hometown_city":"Lawton","hometown_state":"OK"},{"name":"JD McKinley","year":2026,"position":"LB","stars":null,"rating_247":88.0,"committed_to":"California","lat":37.1841,"lng":-119.4696,"hometown_city":"Corona","hometown_state":"CA"},{"name":"Malaki Soliai-Tui","year":2026,"position":"LB","stars":3,"rating_247":87.0,"committed_to":"UCLA","lat":21.679124,"lng":-157.94838,"hometown_city":"Kahuku","hometown_state":"HI"},{"name":"Trehsyn Fesili","year":2026,"position":"LB","stars":3,"rating_247":87.0,"committed_to":"Idaho State","lat":21.4508308,"lng":-158.0095783,"hometown_city":"Mililani","hometown_state":"HI"},{"name":"LaGary Mitchell","year":2026,"position":"LB","stars":3,"rating_247":87.0,"committed_to":"Utah","lat":43.6086295,"lng":-116.392326,"hometown_city":"Meridian","hometown_state":"ID"},{"name":"Beau Jandreau","year":2026,"position":"LB","stars":3,"rating_247":86.0,"committed_to":"Oklahoma","lat":33.3062223,"lng":-111.8413317,"hometown_city":"Chandler","hometown_state":"AZ"},{"name":"Bryce Robinson","year":2026,"position":"LB","stars":3,"rating_247":86.0,"committed_to":"Nevada, Las Vegas","lat":33.9528472,"lng":-84.5496148,"hometown_city":"Marietta","hometown_state":"GA"},{"name":"Rocky Dunn","year":2026,"position":"LB","stars":3,"rating_247":85.0,"committed_to":"Boise State","lat":33.2860549,"lng":-96.5725952,"hometown_city":"Melissa","hometown_state":"TX"},{"name":"Oscar Aguilar Jr.","year":2026,"position":"LB","stars":null,"rating_247":85.0,"committed_to":"Arizona State","lat":37.1841,"lng":-119.4696,"hometown_city":"Downey","hometown_state":"CA"},{"name":"Jayden Cupitt","year":2026,"position":"LB","stars":3,"rating_247":85.0,"committed_to":"Rice","lat":32.5631924,"lng":-97.1416768,"hometown_city":"Mansfield","hometown_state":"TX"},{"name":"Tau Mareko","year":2026,"position":"LB","stars":3,"rating_247":84.0,"committed_to":"Idaho","lat":47.1714085,"lng":-122.5164,"hometown_city":"Lakewood","hometown_state":"WA"},{"name":"Chase Cahoon","year":2026,"position":"LB","stars":3,"rating_247":84.0,"committed_to":"Stanford","lat":37.3893889,"lng":-122.0832101,"hometown_city":"Mountain View","hometown_state":"CA"},{"name":"Josh Faraimo","year":2026,"position":"LB","stars":3,"rating_247":84.0,"committed_to":"Colgate","lat":32.7174209,"lng":-117.1627714,"hometown_city":"San Diego","hometown_state":"CA"},{"name":"Iosefa Lealofi","year":2026,"position":"LB","stars":3,"rating_247":83.0,"committed_to":"Sacramento State","lat":34.8957684,"lng":-117.0172077,"hometown_city":"Barstow","hometown_state":"CA"},{"name":"Zyhaire Lewis","year":2026,"position":"LB","stars":null,"rating_247":82.0,"committed_to":"Boise State","lat":37.1841,"lng":-119.4696,"hometown_city":"Rancho Cucamonga","hometown_state":"CA"},{"name":"Savaughn Gentle","year":2026,"position":"LB","stars":null,"rating_247":null,"committed_to":"Cal Poly","lat":37.1841,"lng":-119.4696,"hometown_city":"Lancaster","hometown_state":"CA"},{"name":"Elbert Hill IV","year":2026,"position":"CB","stars":null,"rating_247":95.0,"committed_to":"Southern California","lat":40.2862,"lng":-82.7937,"hometown_city":"Akron","hometown_state":"OH"},{"name":"Jaxson Gates","year":2026,"position":"CB","stars":4,"rating_247":93.0,"committed_to":"Missouri","lat":34.1008426,"lng":-117.7678355,"hometown_city":"La Verne","hometown_state":"CA"},{"name":"Jeron Jones","year":2026,"position":"CB","stars":4,"rating_247":90.0,"committed_to":"Washington","lat":33.5965685,"lng":-117.659405,"hometown_city":"Mission Viejo","hometown_state":"CA"},{"name":"Jayden Crowder","year":2026,"position":"CB","stars":3,"rating_247":87.0,"committed_to":"Southern California","lat":33.6408845,"lng":-117.6029341,"hometown_city":"Rancho Santa Margarita","hometown_state":"CA"},{"name":"Ernest Nunley","year":2026,"position":"CB","stars":3,"rating_247":87.0,"committed_to":"Michigan","lat":33.8347516,"lng":-117.911732,"hometown_city":"Anaheim","hometown_state":"CA"},{"name":"Elijah Durr","year":2026,"position":"CB","stars":3,"rating_247":87.0,"committed_to":"Washington","lat":47.2495798,"lng":-122.4398746,"hometown_city":"Tacoma","hometown_state":"WA"},{"name":"Madden Soliai","year":2026,"position":"CB","stars":3,"rating_247":87.0,"committed_to":"Boise State","lat":21.679124,"lng":-157.94838,"hometown_city":"Kahuku","hometown_state":"HI"},{"name":"Donovan Dunmore","year":2026,"position":"CB","stars":3,"rating_247":87.0,"committed_to":"Wisconsin","lat":36.8252277,"lng":-119.7029194,"hometown_city":"Clovis","hometown_state":"CA"},{"name":"Maliek Bracy","year":2026,"position":"CB","stars":3,"rating_247":86.0,"committed_to":"Oklahoma State","lat":33.110156,"lng":-97.17940980147037,"hometown_city":"Argyle","hometown_state":"TX"},{"name":"Davin Hill","year":2026,"position":"CB","stars":null,"rating_247":86.0,"committed_to":"Boise State","lat":31.4757,"lng":-99.3312,"hometown_city":"Arlington","hometown_state":"TX"},{"name":"Deon Jackson","year":2026,"position":"CB","stars":3,"rating_247":85.0,"committed_to":null,"lat":33.7690164,"lng":-118.1916048,"hometown_city":"Long Beach","hometown_state":"CA"},{"name":"Dareon Edmonds","year":2026,"position":"CB","stars":3,"rating_247":85.0,"committed_to":"San Diego State","lat":33.9766799,"lng":-117.5598444,"hometown_city":"Eastvale","hometown_state":"CA"},{"name":"Jasiah Denmark","year":2026,"position":"CB","stars":3,"rating_247":85.0,"committed_to":"Montana State","lat":47.1849009,"lng":-122.2921406,"hometown_city":"Puyallup","hometown_state":"WA"},{"name":"Trevon Watson","year":2026,"position":"CB","stars":null,"rating_247":84.0,"committed_to":"Oregon","lat":37.1841,"lng":-119.4696,"hometown_city":"San Mateo","hometown_state":"CA"},{"name":"Elmo Wartson","year":2026,"position":"CB","stars":null,"rating_247":84.0,"committed_to":"Washington State","lat":37.1841,"lng":-119.4696,"hometown_city":"Modesto","hometown_state":"CA"},{"name":"Lebron Bauer","year":2026,"position":"CB","stars":null,"rating_247":83.0,"committed_to":"Oklahoma","lat":31.4757,"lng":-99.3312,"hometown_city":"Allen","hometown_state":"TX"},{"name":"Sean Boyd","year":2026,"position":"CB","stars":null,"rating_247":null,"committed_to":"Weber State","lat":34.2744,"lng":-111.6602,"hometown_city":"Gilbert","hometown_state":"AZ"},{"name":"Markus Jones","year":2026,"position":"CB","stars":null,"rating_247":null,"committed_to":null,"lat":37.1841,"lng":-119.4696,"hometown_city":"San Jacinto","hometown_state":"CA"},{"name":"Matthew Mason","year":2026,"position":"S","stars":3,"rating_247":87.0,"committed_to":"BYU","lat":36.1672559,"lng":-115.1485163,"hometown_city":"Las Vegas","hometown_state":"NV"},{"name":"Niko Jandreau","year":2026,"position":"S","stars":3,"rating_247":86.0,"committed_to":"Oklahoma","lat":33.3062223,"lng":-111.8413317,"hometown_city":"Chandler","hometown_state":"AZ"},{"name":"Kyle Hall","year":2026,"position":"S","stars":null,"rating_247":86.0,"committed_to":"Boise State","lat":37.1841,"lng":-119.4696,"hometown_city":"San Mateo","hometown_state":"CA"},{"name":"Braylon Edwards","year":2026,"position":"S","stars":3,"rating_247":85.0,"committed_to":"Colorado","lat":32.6518004,"lng":-96.9083366,"hometown_city":"Duncanville","hometown_state":"TX"},{"name":"Rickey Giles Jr.","year":2026,"position":"S","stars":null,"rating_247":85.0,"committed_to":"West Virginia","lat":31.4757,"lng":-99.3312,"hometown_city":"Dallas","hometown_state":"TX"},{"name":"Jaxon Toala","year":2026,"position":"S","stars":3,"rating_247":85.0,"committed_to":"Weber State","lat":40.7596198,"lng":-111.8867975,"hometown_city":"Salt Lake City","hometown_state":"UT"},{"name":"Romeo Carter","year":2026,"position":"S","stars":3,"rating_247":85.0,"committed_to":"Boise State","lat":32.7174209,"lng":-117.1627714,"hometown_city":"San Diego","hometown_state":"CA"},{"name":"Salesi Moa","year":2026,"position":"ATH","stars":4,"rating_247":95.0,"committed_to":"Utah","lat":41.2230048,"lng":-111.9738429,"hometown_city":"Ogden","hometown_state":"UT"},{"name":"Tyriq Green","year":2026,"position":"ATH","stars":4,"rating_247":93.0,"committed_to":"Georgia","lat":34.1206564,"lng":-84.0043513,"hometown_city":"Buford","hometown_state":"GA"},{"name":"Rahsjon Duncan","year":2026,"position":"ATH","stars":4,"rating_247":92.0,"committed_to":"Washington","lat":37.8044557,"lng":-122.2713563,"hometown_city":"Oakland","hometown_state":"CA"},{"name":"Brandon Smith","year":2026,"position":"ATH","stars":4,"rating_247":90.0,"committed_to":"Oregon","lat":36.7295295,"lng":-119.70886126075588,"hometown_city":"Fresno","hometown_state":"CA"},{"name":"EJ Morgan","year":2026,"position":"ATH","stars":3,"rating_247":89.0,"committed_to":"California","lat":36.7295295,"lng":-119.70886126075588,"hometown_city":"Fresno","hometown_state":"CA"},{"name":"Lance McGee","year":2026,"position":"ATH","stars":3,"rating_247":87.0,"committed_to":"Washington State","lat":47.22131,"lng":-122.2326539,"hometown_city":"Sumner","hometown_state":"WA"},{"name":"Tainoa Lave","year":2026,"position":"ATH","stars":3,"rating_247":87.0,"committed_to":"San Diego State","lat":21.315603,"lng":-158.008804,"hometown_city":"Ewa Beach","hometown_state":"HI"},{"name":"Sefanaia Alatini","year":2026,"position":"ATH","stars":3,"rating_247":86.0,"committed_to":"BYU","lat":37.3893889,"lng":-122.0832101,"hometown_city":"Mountain View","hometown_state":"CA"},{"name":"Arkez Fontenot","year":2026,"position":"ATH","stars":3,"rating_247":86.0,"committed_to":null,"lat":36.1622296,"lng":-86.7743531,"hometown_city":"Nashville","hometown_state":"TN"},{"name":"Jacob Arbuckle","year":2026,"position":"ATH","stars":3,"rating_247":86.0,"committed_to":"Boise State","lat":33.7475203,"lng":-116.9719684,"hometown_city":"Hemet","hometown_state":"CA"},{"name":"CD Nuno","year":2026,"position":"ATH","stars":3,"rating_247":85.0,"committed_to":"Boise State","lat":44.5400013,"lng":-123.367613,"hometown_city":"Philomath","hometown_state":"OR"},{"name":"Braxton Singleton","year":2026,"position":"ATH","stars":3,"rating_247":85.0,"committed_to":"Oregon","lat":44.9391565,"lng":-123.033121,"hometown_city":"Salem","hometown_state":"OR"},{"name":"Darren Schmitt","year":2026,"position":"ATH","stars":3,"rating_247":84.0,"committed_to":"Nevada","lat":45.6306954,"lng":-122.6744557,"hometown_city":"Vancouver","hometown_state":"WA"},{"name":"Isaiah Nickels","year":2026,"position":"ATH","stars":3,"rating_247":82.0,"committed_to":"Hawaii","lat":36.1672559,"lng":-115.1485163,"hometown_city":"Las Vegas","hometown_state":"NV"},{"name":"Bradan Scott","year":2026,"position":"P","stars":3,"rating_247":82.0,"committed_to":"Boise State","lat":32.9905597,"lng":-117.2691316,"hometown_city":"Solana Beach","hometown_state":"CA"},{"name":"Tyler Himebauch","year":2026,"position":"LS","stars":3,"rating_247":80.0,"committed_to":"Boise State","lat":39.06775465,"lng":-104.86175880732664,"hometown_city":"Monument","hometown_state":"CO"}],"2027":[{"name":"Kael Snyder","year":2027,"position":"QB","stars":null,"rating_247":87.0,"committed_to":"Boise State","lat":34.2744,"lng":-111.6602,"hometown_city":"Gilbert","hometown_state":"AZ"},{"name":"Ryce Palepoi","year":2027,"position":"QB","stars":null,"rating_247":null,"committed_to":null,"lat":39.321,"lng":-111.0937,"hometown_city":"Salt Lake City","hometown_state":"UT"},{"name":"Xavier Bala","year":2027,"position":"RB","stars":null,"rating_247":87.0,"committed_to":"Boston College","lat":42.9538,"lng":-75.5268,"hometown_city":"Long Island City","hometown_state":"NY"},{"name":"Malachi McFarland","year":2027,"position":"RB","stars":null,"rating_247":86.0,"committed_to":"Boise State","lat":37.1841,"lng":-119.4696,"hometown_city":"La Verne","hometown_state":"CA"},{"name":"Jonah Mailei","year":2027,"position":"RB","stars":null,"rating_247":86.0,"committed_to":"Utah","lat":39.321,"lng":-111.0937,"hometown_city":"Salt Lake City","hometown_state":"UT"},{"name":"Kamden Tillis","year":2027,"position":"RB","stars":null,"rating_247":85.0,"committed_to":null,"lat":37.1841,"lng":-119.4696,"hometown_city":"Los Alamitos","hometown_state":"CA"},{"name":"Camden Morton","year":2027,"position":"RB","stars":null,"rating_247":null,"committed_to":null,"lat":28.6305,"lng":-82.4497,"hometown_city":"St. Johns","hometown_state":"FL"},{"name":"Maleek Nolley","year":2027,"position":"RB","stars":null,"rating_247":null,"committed_to":null,"lat":37.1841,"lng":-119.4696,"hometown_city":"San Bernardino","hometown_state":"CA"},{"name":"Caris Sela","year":2027,"position":"RB","stars":null,"rating_247":null,"committed_to":null,"lat":31.4757,"lng":-99.3312,"hometown_city":"Justin","hometown_state":"TX"},{"name":"Damani Warren","year":2027,"position":"WR","stars":null,"rating_247":89.0,"committed_to":null,"lat":39.3289,"lng":-116.6312,"hometown_city":"Las Vegas","hometown_state":"NV"},{"name":"Taurean Rawlins","year":2027,"position":"WR","stars":null,"rating_247":89.0,"committed_to":"Georgia","lat":32.6415,"lng":-83.4426,"hometown_city":"Atlanta","hometown_state":"GA"},{"name":"DJ Huggins","year":2027,"position":"WR","stars":null,"rating_247":88.0,"committed_to":"South Carolina","lat":32.6415,"lng":-83.4426,"hometown_city":"Kennesaw","hometown_state":"GA"},{"name":"Jackson Coleman","year":2027,"position":"WR","stars":null,"rating_247":87.0,"committed_to":"Notre Dame","lat":38.9972,"lng":-105.5478,"hometown_city":"Littleton","hometown_state":"CO"},{"name":"Isaac Cook","year":2027,"position":"WR","stars":null,"rating_247":86.0,"committed_to":"San Diego State","lat":37.1841,"lng":-119.4696,"hometown_city":"San Diego","hometown_state":"CA"},{"name":"Blake Gunter","year":2027,"position":"WR","stars":null,"rating_247":86.0,"committed_to":"California","lat":31.4757,"lng":-99.3312,"hometown_city":"Southlake","hometown_state":"TX"},{"name":"Jimmel Champion","year":2027,"position":"WR","stars":null,"rating_247":86.0,"committed_to":null,"lat":37.1841,"lng":-119.4696,"hometown_city":"Huntington Beach","hometown_state":"CA"},{"name":"Dillon Sykes","year":2027,"position":"WR","stars":null,"rating_247":85.0,"committed_to":"Utah","lat":37.1841,"lng":-119.4696,"hometown_city":"Rancho Cucamonga","hometown_state":"CA"},{"name":"Malachi Garlington","year":2027,"position":"WR","stars":null,"rating_247":85.0,"committed_to":"Oregon","lat":43.9336,"lng":-120.5583,"hometown_city":"Happy Valley","hometown_state":"OR"},{"name":"Kingston Parks","year":2027,"position":"WR","stars":null,"rating_247":84.0,"committed_to":"Boise State","lat":31.4757,"lng":-99.3312,"hometown_city":"Aledo","hometown_state":"TX"},{"name":"Kai Cypher","year":2027,"position":"WR","stars":null,"rating_247":null,"committed_to":null,"lat":39.3289,"lng":-116.6312,"hometown_city":"Las Vegas","hometown_state":"NV"},{"name":"Drake Mikkelsen","year":2027,"position":"TE","stars":null,"rating_247":90.0,"committed_to":"Minnesota","lat":44.4443,"lng":-100.2263,"hometown_city":"Lennox","hometown_state":"SD"},{"name":"Jace Cannon","year":2027,"position":"TE","stars":null,"rating_247":88.0,"committed_to":"Southern California","lat":37.1841,"lng":-119.4696,"hometown_city":"San Mateo","hometown_state":"CA"},{"name":"Zac Fares","year":2027,"position":"TE","stars":null,"rating_247":88.0,"committed_to":"UCLA","lat":39.3289,"lng":-116.6312,"hometown_city":"Las Vegas","hometown_state":"NV"},{"name":"Matthew Schimberg","year":2027,"position":"TE","stars":null,"rating_247":87.0,"committed_to":null,"lat":38.9972,"lng":-105.5478,"hometown_city":"Aurora","hometown_state":"CO"},{"name":"Talan Scott","year":2027,"position":"TE","stars":null,"rating_247":87.0,"committed_to":"Oklahoma State","lat":34.2744,"lng":-111.6602,"hometown_city":"Queen Creek","hometown_state":"AZ"},{"name":"Landon Wolny","year":2027,"position":"TE","stars":null,"rating_247":84.0,"committed_to":null,"lat":28.6305,"lng":-82.4497,"hometown_city":"Naples","hometown_state":"FL"},{"name":"Bryer Putman","year":2027,"position":"TE","stars":null,"rating_247":null,"committed_to":"Boise State","lat":42.0751,"lng":-93.496,"hometown_city":"Wilton","hometown_state":"IA"},{"name":"Drew Fielder","year":2027,"position":"OT","stars":null,"rating_247":93.0,"committed_to":"Southern California","lat":37.1841,"lng":-119.4696,"hometown_city":"Anaheim","hometown_state":"CA"},{"name":"Avery Michael","year":2027,"position":"OT","stars":null,"rating_247":89.0,"committed_to":"Oregon","lat":37.1841,"lng":-119.4696,"hometown_city":"Turlock","hometown_state":"CA"},{"name":"Tye Kennedy","year":2027,"position":"OT","stars":null,"rating_247":88.0,"committed_to":null,"lat":34.2744,"lng":-111.6602,"hometown_city":"Mesa","hometown_state":"AZ"},{"name":"George Tyus","year":2027,"position":"OT","stars":null,"rating_247":87.0,"committed_to":"Stanford","lat":37.1841,"lng":-119.4696,"hometown_city":"Antioch","hometown_state":"CA"},{"name":"Clint Lundin","year":2027,"position":"OT","stars":null,"rating_247":85.0,"committed_to":"Stanford","lat":37.1841,"lng":-119.4696,"hometown_city":"Concord","hometown_state":"CA"},{"name":"Sire Stewart","year":2027,"position":"OT","stars":null,"rating_247":85.0,"committed_to":"Utah","lat":34.2744,"lng":-111.6602,"hometown_city":"Chandler","hometown_state":"AZ"},{"name":"Laseth Bryant","year":2027,"position":"OT","stars":null,"rating_247":null,"committed_to":null,"lat":39.3289,"lng":-116.6312,"hometown_city":"Las Vegas","hometown_state":"NV"},{"name":"Ben Rainwater","year":2027,"position":"OT","stars":null,"rating_247":null,"committed_to":null,"lat":47.3826,"lng":-120.4472,"hometown_city":"Kenmore","hometown_state":"WA"},{"name":"Randolph Santiago","year":2027,"position":"OT","stars":null,"rating_247":null,"committed_to":null,"lat":20.2927,"lng":-156.3737,"hometown_city":"Kailua","hometown_state":"HI"},{"name":"Rashaun Lavata'i","year":2027,"position":"IOL","stars":null,"rating_247":87.0,"committed_to":null,"lat":47.3826,"lng":-120.4472,"hometown_city":"Tacoma","hometown_state":"WA"},{"name":"Will Endicott","year":2027,"position":"IOL","stars":null,"rating_247":86.0,"committed_to":"South Carolina","lat":31.4757,"lng":-99.3312,"hometown_city":"Prosper","hometown_state":"TX"},{"name":"Phoenix Pollard","year":2027,"position":"IOL","stars":null,"rating_247":85.0,"committed_to":"Nevada, Las Vegas","lat":39.3289,"lng":-116.6312,"hometown_city":"Henderson","hometown_state":"NV"},{"name":"Gage Esty","year":2027,"position":"IOL","stars":null,"rating_247":85.0,"committed_to":"UCLA","lat":37.1841,"lng":-119.4696,"hometown_city":"Auburn","hometown_state":"CA"},{"name":"Elias Fineanganofo","year":2027,"position":"IOL","stars":null,"rating_247":83.0,"committed_to":null,"lat":39.321,"lng":-111.0937,"hometown_city":"South Jordan","hometown_state":"UT"},{"name":"Titus Lopati","year":2027,"position":"IOL","stars":null,"rating_247":83.0,"committed_to":null,"lat":39.321,"lng":-111.0937,"hometown_city":"Salt Lake City","hometown_state":"UT"},{"name":"David Kauvaka","year":2027,"position":"IOL","stars":null,"rating_247":82.0,"committed_to":null,"lat":37.1841,"lng":-119.4696,"hometown_city":"Santa Ana","hometown_state":"CA"},{"name":"Saik Fiataugaluia","year":2027,"position":"IOL","stars":null,"rating_247":null,"committed_to":null,"lat":37.1841,"lng":-119.4696,"hometown_city":"Corona","hometown_state":"CA"},{"name":"Kacyn Page","year":2027,"position":"IOL","stars":null,"rating_247":null,"committed_to":null,"lat":39.321,"lng":-111.0937,"hometown_city":"Lehi","hometown_state":"UT"},{"name":"Deshaun Jackson","year":2027,"position":"IOL","stars":null,"rating_247":null,"committed_to":null,"lat":37.1841,"lng":-119.4696,"hometown_city":"Galt","hometown_state":"CA"},{"name":"Lauifi Tosi","year":2027,"position":"IOL","stars":null,"rating_247":null,"committed_to":"North Carolina","lat":34.2744,"lng":-111.6602,"hometown_city":"Goodyear","hometown_state":"AZ"},{"name":"Uhila Wolfgramm","year":2027,"position":"Edge","stars":null,"rating_247":93.0,"committed_to":null,"lat":39.321,"lng":-111.0937,"hometown_city":"Spanish Fork","hometown_state":"UT"},{"name":"Krew Jones","year":2027,"position":"Edge","stars":null,"rating_247":90.0,"committed_to":"Oklahoma","lat":39.321,"lng":-111.0937,"hometown_city":"Orem","hometown_state":"UT"},{"name":"Manase Brown","year":2027,"position":"Edge","stars":null,"rating_247":89.0,"committed_to":null,"lat":39.321,"lng":-111.0937,"hometown_city":"Draper","hometown_state":"UT"},{"name":"Godschoice Eboigbodin","year":2027,"position":"Edge","stars":null,"rating_247":89.0,"committed_to":"UCLA","lat":37.1841,"lng":-119.4696,"hometown_city":"San Juan Capistrano","hometown_state":"CA"},{"name":"Achilles Reyna","year":2027,"position":"Edge","stars":null,"rating_247":88.0,"committed_to":"Oregon","lat":47.3826,"lng":-120.4472,"hometown_city":"Seattle","hometown_state":"WA"},{"name":"Troy Mailo","year":2027,"position":"Edge","stars":null,"rating_247":88.0,"committed_to":null,"lat":38.9972,"lng":-105.5478,"hometown_city":"Denver","hometown_state":"CO"},{"name":"Cameron Saunders","year":2027,"position":"Edge","stars":null,"rating_247":88.0,"committed_to":"Minnesota","lat":37.1841,"lng":-119.4696,"hometown_city":"San Jose","hometown_state":"CA"},{"name":"Josh Christensen","year":2027,"position":"Edge","stars":null,"rating_247":88.0,"committed_to":null,"lat":43.9336,"lng":-120.5583,"hometown_city":"Lake Oswego","hometown_state":"OR"},{"name":"Fui Vakapuna","year":2027,"position":"Edge","stars":null,"rating_247":87.0,"committed_to":null,"lat":39.321,"lng":-111.0937,"hometown_city":"Provo","hometown_state":"UT"},{"name":"Lawrence Kanneh","year":2027,"position":"Edge","stars":null,"rating_247":87.0,"committed_to":"Michigan State","lat":40.2862,"lng":-82.7937,"hometown_city":"Columbus","hometown_state":"OH"},{"name":"Roy Price","year":2027,"position":"Edge","stars":null,"rating_247":87.0,"committed_to":"Minnesota","lat":40.2862,"lng":-82.7937,"hometown_city":"Newark","hometown_state":"OH"},{"name":"Alexander Coey","year":2027,"position":"Edge","stars":null,"rating_247":87.0,"committed_to":null,"lat":31.4757,"lng":-99.3312,"hometown_city":"Conroe","hometown_state":"TX"},{"name":"Jackson West","year":2027,"position":"Edge","stars":null,"rating_247":87.0,"committed_to":null,"lat":39.321,"lng":-111.0937,"hometown_city":"Draper","hometown_state":"UT"},{"name":"Parker Bagley","year":2027,"position":"Edge","stars":null,"rating_247":87.0,"committed_to":"Boise State","lat":44.3509,"lng":-114.613,"hometown_city":"Lewiston","hometown_state":"ID"},{"name":"Grayson Kazmouz","year":2027,"position":"Edge","stars":null,"rating_247":86.0,"committed_to":"Boise State","lat":37.1841,"lng":-119.4696,"hometown_city":"Laguna Beach","hometown_state":"CA"},{"name":"Ma'atoe Moe","year":2027,"position":"Edge","stars":null,"rating_247":86.0,"committed_to":"Nebraska","lat":39.321,"lng":-111.0937,"hometown_city":"Provo","hometown_state":"UT"},{"name":"Jag Ioane","year":2027,"position":"Edge","stars":null,"rating_247":85.0,"committed_to":null,"lat":39.321,"lng":-111.0937,"hometown_city":"Orem","hometown_state":"UT"},{"name":"Dieter Lotulelei","year":2027,"position":"Edge","stars":null,"rating_247":84.0,"committed_to":null,"lat":39.321,"lng":-111.0937,"hometown_city":"Salt Lake City","hometown_state":"UT"},{"name":"Kemper Castro","year":2027,"position":"Edge","stars":null,"rating_247":84.0,"committed_to":"San Diego State","lat":39.321,"lng":-111.0937,"hometown_city":"Herriman","hometown_state":"UT"},{"name":"Colton Richter","year":2027,"position":"Edge","stars":null,"rating_247":83.0,"committed_to":"Washington State","lat":39.3289,"lng":-116.6312,"hometown_city":"Las Vegas","hometown_state":"NV"},{"name":"Monson Tukuafu","year":2027,"position":"Edge","stars":null,"rating_247":null,"committed_to":null,"lat":39.321,"lng":-111.0937,"hometown_city":"South Jordan","hometown_state":"UT"},{"name":"Tautai Meredith","year":2027,"position":"Edge","stars":null,"rating_247":null,"committed_to":"Washington State","lat":39.321,"lng":-111.0937,"hometown_city":"Lehi","hometown_state":"UT"},{"name":"Drenden Knaevelsrud","year":2027,"position":"Edge","stars":null,"rating_247":null,"committed_to":null,"lat":47.3826,"lng":-120.4472,"hometown_city":"Snoqualmie","hometown_state":"WA"},{"name":"Sonasi Maka","year":2027,"position":"Edge","stars":null,"rating_247":null,"committed_to":null,"lat":37.1841,"lng":-119.4696,"hometown_city":"Antioch","hometown_state":"CA"},{"name":"Finn Walker","year":2027,"position":"DL","stars":null,"rating_247":88.0,"committed_to":null,"lat":31.4757,"lng":-99.3312,"hometown_city":"Conroe","hometown_state":"TX"},{"name":"Ahzan Bacote","year":2027,"position":"DL","stars":null,"rating_247":87.0,"committed_to":"Arizona","lat":31.4757,"lng":-99.3312,"hometown_city":"San Antonio","hometown_state":"TX"},{"name":"Maa'imoa Havili","year":2027,"position":"DL","stars":null,"rating_247":87.0,"committed_to":"BYU","lat":39.321,"lng":-111.0937,"hometown_city":"Salt Lake City","hometown_state":"UT"},{"name":"Aniti Paiva","year":2027,"position":"DL","stars":null,"rating_247":87.0,"committed_to":"Penn State","lat":39.321,"lng":-111.0937,"hometown_city":"Salt Lake City","hometown_state":"UT"},{"name":"Lemani Fehoko","year":2027,"position":"DL","stars":null,"rating_247":86.0,"committed_to":null,"lat":37.1841,"lng":-119.4696,"hometown_city":"San Mateo","hometown_state":"CA"},{"name":"Kekoa Peko","year":2027,"position":"DL","stars":null,"rating_247":86.0,"committed_to":"Boise State","lat":37.1841,"lng":-119.4696,"hometown_city":"Bellflower","hometown_state":"CA"},{"name":"Charles Nance","year":2027,"position":"DL","stars":null,"rating_247":86.0,"committed_to":null,"lat":32.6415,"lng":-83.4426,"hometown_city":"Vienna","hometown_state":"GA"},{"name":"Hunter Eligon","year":2027,"position":"DL","stars":null,"rating_247":84.0,"committed_to":null,"lat":37.1841,"lng":-119.4696,"hometown_city":"Los Alamitos","hometown_state":"CA"},{"name":"Ilivai Taiese","year":2027,"position":"DL","stars":null,"rating_247":null,"committed_to":null,"lat":39.321,"lng":-111.0937,"hometown_city":"Salt Lake City","hometown_state":"UT"},{"name":"Magic Haynes","year":2027,"position":"DL","stars":null,"rating_247":null,"committed_to":null,"lat":37.1841,"lng":-119.4696,"hometown_city":"Compton","hometown_state":"CA"},{"name":"Toa Satele","year":2027,"position":"LB","stars":null,"rating_247":93.0,"committed_to":"Oregon","lat":20.2927,"lng":-156.3737,"hometown_city":"Mililani","hometown_state":"HI"},{"name":"Sam Ngata","year":2027,"position":"LB","stars":null,"rating_247":87.0,"committed_to":"Oregon","lat":39.321,"lng":-111.0937,"hometown_city":"Salt Lake City","hometown_state":"UT"},{"name":"Linkin Apana","year":2027,"position":"LB","stars":null,"rating_247":86.0,"committed_to":null,"lat":20.2927,"lng":-156.3737,"hometown_city":"Honolulu","hometown_state":"HI"},{"name":"Broncs Baker","year":2027,"position":"LB","stars":null,"rating_247":85.0,"committed_to":"West Virginia","lat":39.321,"lng":-111.0937,"hometown_city":"Tooele","hometown_state":"UT"},{"name":"Kawai Chamberlin","year":2027,"position":"LB","stars":null,"rating_247":84.0,"committed_to":null,"lat":43.9336,"lng":-120.5583,"hometown_city":"Eugene","hometown_state":"OR"},{"name":"MJ Glenn","year":2027,"position":"LB","stars":null,"rating_247":84.0,"committed_to":null,"lat":34.2744,"lng":-111.6602,"hometown_city":"Gilbert","hometown_state":"AZ"},{"name":"Philip Wilson III","year":2027,"position":"LB","stars":null,"rating_247":83.0,"committed_to":null,"lat":37.1841,"lng":-119.4696,"hometown_city":"Oxnard","hometown_state":"CA"},{"name":"TJ Alualu","year":2027,"position":"LB","stars":null,"rating_247":83.0,"committed_to":null,"lat":20.2927,"lng":-156.3737,"hometown_city":"Honolulu","hometown_state":"HI"},{"name":"Jeremy Davis","year":2027,"position":"LB","stars":null,"rating_247":null,"committed_to":null,"lat":37.1841,"lng":-119.4696,"hometown_city":"La Mesa","hometown_state":"CA"},{"name":"Hayden Stepp","year":2027,"position":"CB","stars":null,"rating_247":94.0,"committed_to":null,"lat":39.3289,"lng":-116.6312,"hometown_city":"Las Vegas","hometown_state":"NV"},{"name":"Kamil Loud","year":2027,"position":"CB","stars":null,"rating_247":90.0,"committed_to":null,"lat":39.3289,"lng":-116.6312,"hometown_city":"Las Vegas","hometown_state":"NV"},{"name":"Evan Mack","year":2027,"position":"CB","stars":null,"rating_247":88.0,"committed_to":null,"lat":37.1841,"lng":-119.4696,"hometown_city":"Irvine","hometown_state":"CA"},{"name":"Jernaro Gilford Jr.","year":2027,"position":"CB","stars":null,"rating_247":88.0,"committed_to":null,"lat":39.321,"lng":-111.0937,"hometown_city":"Lehi","hometown_state":"UT"},{"name":"John Catlin IV","year":2027,"position":"CB","stars":null,"rating_247":87.0,"committed_to":null,"lat":31.4757,"lng":-99.3312,"hometown_city":"Denton","hometown_state":"TX"},{"name":"Dylin Bruce","year":2027,"position":"CB","stars":null,"rating_247":87.0,"committed_to":"Arizona State","lat":37.1841,"lng":-119.4696,"hometown_city":"Huntington Beach","hometown_state":"CA"},{"name":"Nathaniel Mensah","year":2027,"position":"CB","stars":null,"rating_247":86.0,"committed_to":null,"lat":37.1841,"lng":-119.4696,"hometown_city":"Rancho Cucamonga","hometown_state":"CA"},{"name":"Johnny McNeil","year":2027,"position":"CB","stars":null,"rating_247":86.0,"committed_to":null,"lat":37.1841,"lng":-119.4696,"hometown_city":"Downey","hometown_state":"CA"},{"name":"Noah Clark","year":2027,"position":"CB","stars":null,"rating_247":83.0,"committed_to":"Washington State","lat":37.1841,"lng":-119.4696,"hometown_city":"Inglewood","hometown_state":"CA"},{"name":"Hassan Smith","year":2027,"position":"CB","stars":null,"rating_247":null,"committed_to":"Boise State","lat":34.2744,"lng":-111.6602,"hometown_city":"Scottsdale","hometown_state":"AZ"},{"name":"Pole Moala","year":2027,"position":"S","stars":null,"rating_247":90.0,"committed_to":"UCLA","lat":37.1841,"lng":-119.4696,"hometown_city":"Lawndale","hometown_state":"CA"},{"name":"Jaden Walk-Green","year":2027,"position":"S","stars":null,"rating_247":88.0,"committed_to":null,"lat":37.1841,"lng":-119.4696,"hometown_city":"Corona","hometown_state":"CA"},{"name":"Kye Cooper","year":2027,"position":"S","stars":null,"rating_247":85.0,"committed_to":"San Diego State","lat":37.1841,"lng":-119.4696,"hometown_city":"San Diego","hometown_state":"CA"},{"name":"Brett Smith","year":2027,"position":"S","stars":null,"rating_247":84.0,"committed_to":null,"lat":37.1841,"lng":-119.4696,"hometown_city":"Corona","hometown_state":"CA"},{"name":"Grant Moser","year":2027,"position":"S","stars":null,"rating_247":84.0,"committed_to":null,"lat":37.1841,"lng":-119.4696,"hometown_city":"Clovis","hometown_state":"CA"},{"name":"Uatesoni Pifeleti","year":2027,"position":"S","stars":null,"rating_247":null,"committed_to":null,"lat":37.1841,"lng":-119.4696,"hometown_city":"Mountain View","hometown_state":"CA"},{"name":"Jayden Bradley","year":2027,"position":"S","stars":null,"rating_247":null,"committed_to":null,"lat":38.9972,"lng":-105.5478,"hometown_city":"Aurora","hometown_state":"CO"},{"name":"George Richards","year":2027,"position":"S","stars":null,"rating_247":null,"committed_to":"Connecticut","lat":41.6219,"lng":-72.7273,"hometown_city":"Oakdale","hometown_state":"CT"},{"name":"Caysen Badawi","year":2027,"position":"S","stars":null,"rating_247":null,"committed_to":null,"lat":37.1841,"lng":-119.4696,"hometown_city":"Valencia","hometown_state":"CA"},{"name":"Bode Sparrow","year":2027,"position":"ATH","stars":null,"rating_247":93.0,"committed_to":null,"lat":39.321,"lng":-111.0937,"hometown_city":"Kaysville","hometown_state":"UT"},{"name":"Jaxton Itaaehau","year":2027,"position":"ATH","stars":null,"rating_247":90.0,"committed_to":null,"lat":39.321,"lng":-111.0937,"hometown_city":"Kaysville","hometown_state":"UT"},{"name":"Maurice Williams","year":2027,"position":"ATH","stars":null,"rating_247":88.0,"committed_to":"Washington","lat":47.3826,"lng":-120.4472,"hometown_city":"Graham","hometown_state":"WA"},{"name":"Maxwell Miles","year":2027,"position":"ATH","stars":null,"rating_247":88.0,"committed_to":"Minnesota","lat":39.3289,"lng":-116.6312,"hometown_city":"Las Vegas","hometown_state":"NV"},{"name":"J'Isaiah Mitchell","year":2027,"position":"ATH","stars":null,"rating_247":87.0,"committed_to":"Boise State","lat":47.3826,"lng":-120.4472,"hometown_city":"Puyallup","hometown_state":"WA"},{"name":"Peyton Higginson","year":2027,"position":"ATH","stars":null,"rating_247":86.0,"committed_to":null,"lat":39.321,"lng":-111.0937,"hometown_city":"Salem","hometown_state":"UT"},{"name":"Jaxson Rex","year":2027,"position":"ATH","stars":null,"rating_247":85.0,"committed_to":null,"lat":37.1841,"lng":-119.4696,"hometown_city":"San Clemente","hometown_state":"CA"},{"name":"Tytan DeJong","year":2027,"position":"ATH","stars":null,"rating_247":84.0,"committed_to":"BYU","lat":39.321,"lng":-111.0937,"hometown_city":"Herriman","hometown_state":"UT"},{"name":"Jeovanni Henley","year":2027,"position":"ATH","stars":null,"rating_247":84.0,"committed_to":"California","lat":37.1841,"lng":-119.4696,"hometown_city":"San Mateo","hometown_state":"CA"},{"name":"Kingston Anetema","year":2027,"position":"ATH","stars":null,"rating_247":84.0,"committed_to":null,"lat":34.2744,"lng":-111.6602,"hometown_city":"Mesa","hometown_state":"AZ"},{"name":"Peyton Shaw","year":2027,"position":"ATH","stars":null,"rating_247":null,"committed_to":null,"lat":31.4757,"lng":-99.3312,"hometown_city":"Mansfield","hometown_state":"TX"},{"name":"Elijah Carney","year":2027,"position":"ATH","stars":null,"rating_247":null,"committed_to":null,"lat":47.3826,"lng":-120.4472,"hometown_city":"Tacoma","hometown_state":"WA"},{"name":"Houston Lillard Jr.","year":2027,"position":"ATH","stars":null,"rating_247":null,"committed_to":null,"lat":43.9336,"lng":-120.5583,"hometown_city":"Tualatin","hometown_state":"OR"},{"name":"Mose Kalepo","year":2027,"position":"ATH","stars":null,"rating_247":null,"committed_to":null,"lat":47.3826,"lng":-120.4472,"hometown_city":"Bellevue","hometown_state":"WA"},{"name":"Benjamin Wiepert","year":2027,"position":"ATH","stars":null,"rating_247":null,"committed_to":null,"lat":43.9336,"lng":-120.5583,"hometown_city":"Wilsonville","hometown_state":"OR"},{"name":"Kolton Prox","year":2027,"position":"ATH","stars":null,"rating_247":null,"committed_to":null,"lat":31.4757,"lng":-99.3312,"hometown_city":"Grand Saline","hometown_state":"TX"}],"2028":[{"name":"Hunter Fujikawa","year":2028,"position":"QB","stars":null,"rating_247":90.0,"committed_to":null,"lat":20.2927,"lng":-156.3737,"hometown_city":"Mililani","hometown_state":"HI"},{"name":"Zeke Thomas","year":2028,"position":"QB","stars":null,"rating_247":86.0,"committed_to":"Boise State","lat":43.9336,"lng":-120.5583,"hometown_city":"Eugene","hometown_state":"OR"},{"name":"Ace Amina","year":2028,"position":"QB","stars":null,"rating_247":85.0,"committed_to":null,"lat":39.3289,"lng":-116.6312,"hometown_city":"Las Vegas","hometown_state":"NV"},{"name":"Micah Rhodes","year":2028,"position":"RB","stars":null,"rating_247":90.0,"committed_to":null,"lat":31.4757,"lng":-99.3312,"hometown_city":"Spring","hometown_state":"TX"},{"name":"Eli Mortensen","year":2028,"position":"WR","stars":null,"rating_247":null,"committed_to":null,"lat":39.321,"lng":-111.0937,"hometown_city":"Lehi","hometown_state":"UT"},{"name":"Monson Vaenuku","year":2028,"position":"WR","stars":null,"rating_247":null,"committed_to":null,"lat":39.321,"lng":-111.0937,"hometown_city":"Salt Lake City","hometown_state":"UT"},{"name":"Presley DeLance","year":2028,"position":"TE","stars":null,"rating_247":null,"committed_to":null,"lat":43.9336,"lng":-120.5583,"hometown_city":"Lake Oswego","hometown_state":"OR"},{"name":"Samiu Taukiuvea","year":2028,"position":"OT","stars":null,"rating_247":90.0,"committed_to":null,"lat":39.321,"lng":-111.0937,"hometown_city":"Salt Lake City","hometown_state":"UT"},{"name":"Kaisen Garrett","year":2028,"position":"IOL","stars":null,"rating_247":null,"committed_to":null,"lat":39.3289,"lng":-116.6312,"hometown_city":"Las Vegas","hometown_state":"NV"},{"name":"Major Stokes","year":2028,"position":"Edge","stars":null,"rating_247":90.0,"committed_to":null,"lat":39.321,"lng":-111.0937,"hometown_city":"Orem","hometown_state":"UT"},{"name":"Takeshi Savery","year":2028,"position":"Edge","stars":null,"rating_247":87.0,"committed_to":null,"lat":39.321,"lng":-111.0937,"hometown_city":"Salt Lake City","hometown_state":"UT"},{"name":"Samuel Chien-Tauvao","year":2028,"position":"DL","stars":null,"rating_247":null,"committed_to":null,"lat":39.321,"lng":-111.0937,"hometown_city":"Salt Lake City","hometown_state":"UT"},{"name":"Mana Reid","year":2028,"position":"LB","stars":null,"rating_247":null,"committed_to":null,"lat":39.321,"lng":-111.0937,"hometown_city":"American Fork","hometown_state":"UT"},{"name":"Julian Bruno","year":2028,"position":"LB","stars":null,"rating_247":null,"committed_to":null,"lat":37.1841,"lng":-119.4696,"hometown_city":"Sacramento","hometown_state":"CA"},{"name":"Jordan Slye Jr.","year":2028,"position":"CB","stars":null,"rating_247":87.0,"committed_to":null,"lat":37.1841,"lng":-119.4696,"hometown_city":"Los Angeles","hometown_state":"CA"},{"name":"Markel Newell","year":2028,"position":"S","stars":null,"rating_247":86.0,"committed_to":null,"lat":47.3826,"lng":-120.4472,"hometown_city":"Puyallup","hometown_state":"WA"},{"name":"Jayden Cumbee","year":2028,"position":"S","stars":null,"rating_247":null,"committed_to":null,"lat":39.321,"lng":-111.0937,"hometown_city":"South Jordan","hometown_state":"UT"},{"name":"Gaige Weddle","year":2028,"position":"ATH","stars":null,"rating_247":90.0,"committed_to":null,"lat":37.1841,"lng":-119.4696,"hometown_city":"San Diego","hometown_state":"CA"},{"name":"Kaicen Carter","year":2028,"position":"ATH","stars":null,"rating_247":88.0,"committed_to":null,"lat":47.3826,"lng":-120.4472,"hometown_city":"Federal Way","hometown_state":"WA"},{"name":"RJ Ward","year":2028,"position":"ATH","stars":null,"rating_247":null,"committed_to":null,"lat":47.3826,"lng":-120.4472,"hometown_city":"Bellevue","hometown_state":"WA"}]}