{"2026":[{"name":"Faizon Brandon","year":2026,"position":"QB","stars":5,"rating_247":99.0,"committed_to":"Tennessee","lat":36.0726355,"lng":-79.7919754,"hometown_city":"Greensboro","hometown_state":"NC"},{"name":"Bowe Bentley","year":2026,"position":"QB","stars":4,"rating_247":95.0,"committed_to":"Oklahoma","lat":33.3238976,"lng":-96.785342,"hometown_city":"Celina","hometown_state":"TX"},{"name":"Travis Burgess","year":2026,"position":"QB","stars":4,"rating_247":95.0,"committed_to":"North Carolina","lat":33.8389977,"lng":-83.9007382,"hometown_city":"Loganville","hometown_state":"GA"},{"name":"Teddy Jarrard","year":2026,"position":"QB","stars":4,"rating_247":89.0,"committed_to":"Notre Dame","lat":34.0234337,"lng":-84.6154897,"hometown_city":"Kennesaw","hometown_state":"GA"},{"name":"Tait Reynolds","year":2026,"position":"QB","stars":3,"rating_247":88.0,"committed_to":"Clemson","lat":33.2483858,"lng":-111.6341585,"hometown_city":"Queen Creek","hometown_state":"AZ"},{"name":"Derek Zammit","year":2026,"position":"QB","stars":4,"rating_247":88.0,"committed_to":"Washington","lat":40.9491723,"lng":-74.2376802,"hometown_city":"Wayne","hometown_state":"NJ"},{"name":"Brady Smigiel","year":2026,"position":"QB","stars":4,"rating_247":88.0,"committed_to":"Michigan","lat":34.183671,"lng":-118.9118302,"hometown_city":"Newbury Park","hometown_state":"CA"},{"name":"Luke Fahey","year":2026,"position":"QB","stars":4,"rating_247":88.0,"committed_to":"Ohio State","lat":33.5965685,"lng":-117.659405,"hometown_city":"Mission Viejo","hometown_state":"CA"},{"name":"Femi Babalola","year":2026,"position":"QB","stars":3,"rating_247":87.0,"committed_to":"Boston College","lat":36.0325687,"lng":-86.7825235,"hometown_city":"Brentwood","hometown_state":"TN"},{"name":"Jaden O'Neal","year":2026,"position":"QB","stars":4,"rating_247":87.0,"committed_to":"Florida State","lat":35.384227,"lng":-97.7244813,"hometown_city":"Mustang","hometown_state":"OK"},{"name":"Corin Berry","year":2026,"position":"QB","stars":3,"rating_247":87.0,"committed_to":"Purdue","lat":34.1024,"lng":-117.85486499999999,"hometown_city":"Covina","hometown_state":"CA"},{"name":"DJ Bordeaux","year":2026,"position":"QB","stars":null,"rating_247":87.0,"committed_to":"UCLA","lat":38.9972,"lng":-105.5478,"hometown_city":"Parker","hometown_state":"CO"},{"name":"Brady Palmer","year":2026,"position":"QB","stars":3,"rating_247":86.0,"committed_to":"Minnesota","lat":26.1223084,"lng":-80.1433786,"hometown_city":"Fort Lauderdale","hometown_state":"FL"},{"name":"Jayvon Gilmore","year":2026,"position":"QB","stars":3,"rating_247":86.0,"committed_to":null,"lat":35.0717945,"lng":-81.6498195,"hometown_city":"Gaffney","hometown_state":"SC"},{"name":"Brodie McWhorter","year":2026,"position":"QB","stars":null,"rating_247":86.0,"committed_to":"Mississippi State","lat":32.6415,"lng":-83.4426,"hometown_city":"White","hometown_state":"GA"},{"name":"Tayden-Evan Kaawa","year":2026,"position":"QB","stars":null,"rating_247":86.0,"committed_to":"Alabama","lat":39.321,"lng":-111.0937,"hometown_city":"Orem","hometown_state":"UT"},{"name":"Semaj Beals","year":2026,"position":"QB","stars":3,"rating_247":86.0,"committed_to":"Akron","lat":39.9527237,"lng":-75.1635262,"hometown_city":"Philadelphia","hometown_state":"PA"},{"name":"Zaid Lott","year":2026,"position":"QB","stars":3,"rating_247":86.0,"committed_to":"Syracuse","lat":35.2272,"lng":-80.843083,"hometown_city":"Charlotte","hometown_state":"NC"},{"name":"Gavin Owens","year":2026,"position":"QB","stars":3,"rating_247":85.0,"committed_to":"Memphis","lat":34.97479,"lng":-83.30549,"hometown_city":"Rabun Gap","hometown_state":"GA"},{"name":"Hugh Price","year":2026,"position":"QB","stars":3,"rating_247":85.0,"committed_to":"Southern Mississippi","lat":36.1622296,"lng":-86.7743531,"hometown_city":"Nashville","hometown_state":"TN"},{"name":"Camren Hill","year":2026,"position":"QB","stars":3,"rating_247":84.0,"committed_to":"Mercer","lat":30.8365815,"lng":-83.9787808,"hometown_city":"Thomasville","hometown_state":"GA"},{"name":"Anthony Coellner","year":2026,"position":"QB","stars":3,"rating_247":84.0,"committed_to":"Boston College","lat":39.9788017,"lng":-86.1189257,"hometown_city":"Carmel","hometown_state":"IN"},{"name":"Marcel Jones","year":2026,"position":"QB","stars":3,"rating_247":83.0,"committed_to":"Ferris State","lat":33.4942189,"lng":-111.9260184,"hometown_city":"Scottsdale","hometown_state":"AZ"},{"name":"Jackson Debe","year":2026,"position":"QB","stars":3,"rating_247":null,"committed_to":null,"lat":35.2272,"lng":-80.843083,"hometown_city":"Charlotte","hometown_state":"NC"},{"name":"Edward Jordan","year":2026,"position":"QB","stars":null,"rating_247":null,"committed_to":"Lafayette","lat":28.6305,"lng":-82.4497,"hometown_city":"Jacksonville","hometown_state":"FL"},{"name":"Sam Powell","year":2026,"position":"QB","stars":null,"rating_247":null,"committed_to":null,"lat":28.6305,"lng":-82.4497,"hometown_city":"Naples","hometown_state":"FL"},{"name":"Savion Hiter","year":2026,"position":"RB","stars":5,"rating_247":98.0,"committed_to":"Michigan","lat":38.010695,"lng":-77.9086068,"hometown_city":"Mineral","hometown_state":"VA"},{"name":"Shahn Alston","year":2026,"position":"RB","stars":4,"rating_247":93.0,"committed_to":"Southern California","lat":41.7244885,"lng":-81.245657,"hometown_city":"Painesville","hometown_state":"OH"},{"name":"Javian Osborne","year":2026,"position":"RB","stars":4,"rating_247":92.0,"committed_to":"Notre Dame","lat":32.747893,"lng":-96.4719289,"hometown_city":"Forney","hometown_state":"TX"},{"name":"KD Jones","year":2026,"position":"RB","stars":3,"rating_247":89.0,"committed_to":"Oklahoma State","lat":36.0228734,"lng":-95.9683278,"hometown_city":"Jenks","hometown_state":"OK"},{"name":"Julian Peterson","year":2026,"position":"RB","stars":3,"rating_247":89.0,"committed_to":"North Carolina","lat":39.769838,"lng":-74.8873855,"hometown_city":"Atco","hometown_state":"NJ"},{"name":"Javian Mallory","year":2026,"position":"RB","stars":4,"rating_247":88.0,"committed_to":"Miami","lat":26.3586885,"lng":-80.0830984,"hometown_city":"Boca Raton","hometown_state":"FL"},{"name":"Keilan Chavies","year":2026,"position":"RB","stars":3,"rating_247":88.0,"committed_to":"Boise State","lat":30.5427638,"lng":-97.5468898,"hometown_city":"Hutto","hometown_state":"TX"},{"name":"Henry Ohlinger","year":2026,"position":"RB","stars":4,"rating_247":88.0,"committed_to":"Indiana","lat":39.9622601,"lng":-83.0007065,"hometown_city":"Columbus","hometown_state":"OH"},{"name":"Evan Hampton","year":2026,"position":"RB","stars":4,"rating_247":88.0,"committed_to":"Vanderbilt","lat":37.7742152,"lng":-87.1133304,"hometown_city":"Owensboro","hometown_state":"KY"},{"name":"CJ Givers","year":2026,"position":"RB","stars":3,"rating_247":88.0,"committed_to":"Duke","lat":34.02332,"lng":-84.360022,"hometown_city":"Roswell","hometown_state":"GA"},{"name":"Kory Amachree","year":2026,"position":"RB","stars":null,"rating_247":88.0,"committed_to":"Kansas","lat":44.3467,"lng":-85.4102,"hometown_city":"Haslett","hometown_state":"MI"},{"name":"Sedric Addison","year":2026,"position":"RB","stars":3,"rating_247":88.0,"committed_to":"Boston College","lat":34.0514898,"lng":-84.0712997,"hometown_city":"Suwanee","hometown_state":"GA"},{"name":"Sean Morris II","year":2026,"position":"RB","stars":3,"rating_247":87.0,"committed_to":"Northwestern","lat":33.7872568,"lng":-117.8503088,"hometown_city":"Orange","hometown_state":"CA"},{"name":"Max Warner","year":2026,"position":"RB","stars":null,"rating_247":87.0,"committed_to":"Missouri","lat":40.0417,"lng":-89.1965,"hometown_city":"Chicago","hometown_state":"IL"},{"name":"Zeke Bates","year":2026,"position":"RB","stars":null,"rating_247":87.0,"committed_to":"Minnesota","lat":40.8781,"lng":-77.7996,"hometown_city":"Malvern","hometown_state":"PA"},{"name":"Chase Enlow","year":2026,"position":"RB","stars":3,"rating_247":87.0,"committed_to":"Buffalo","lat":40.3492744,"lng":-74.6592958,"hometown_city":"Princeton","hometown_state":"NJ"},{"name":"Jae'Oyn Williams","year":2026,"position":"RB","stars":3,"rating_247":86.0,"committed_to":"Virginia","lat":39.2908816,"lng":-76.610759,"hometown_city":"Baltimore","hometown_state":"MD"},{"name":"Jamal Rule","year":2026,"position":"RB","stars":3,"rating_247":86.0,"committed_to":"Nebraska","lat":35.2272,"lng":-80.843083,"hometown_city":"Charlotte","hometown_state":"NC"},{"name":"Najee Calhoun","year":2026,"position":"RB","stars":3,"rating_247":85.0,"committed_to":"Harvard","lat":40.9543943,"lng":-74.0308504,"hometown_city":"Oradell","hometown_state":"NJ"},{"name":"Zamarcus Lindley","year":2026,"position":"RB","stars":3,"rating_247":85.0,"committed_to":"Samford","lat":33.7514966,"lng":-84.7477136,"hometown_city":"Douglasville","hometown_state":"GA"},{"name":"Breyon Williams","year":2026,"position":"RB","stars":3,"rating_247":85.0,"committed_to":null,"lat":38.8949855,"lng":-77.0365708,"hometown_city":"Washington","hometown_state":"DC"},{"name":"TJ Ward Jr.","year":2026,"position":"RB","stars":3,"rating_247":85.0,"committed_to":null,"lat":36.1622296,"lng":-86.7743531,"hometown_city":"Nashville","hometown_state":"TN"},{"name":"Jayzon Thompson","year":2026,"position":"RB","stars":3,"rating_247":85.0,"committed_to":"Cincinnati","lat":35.9603948,"lng":-83.9210261,"hometown_city":"Knoxville","hometown_state":"TN"},{"name":"Caleb Wynn","year":2026,"position":"RB","stars":3,"rating_247":85.0,"committed_to":"South Alabama","lat":33.5853695,"lng":-85.91428175037092,"hometown_city":"Oxford","hometown_state":"AL"},{"name":"Li'Darious Pryor","year":2026,"position":"RB","stars":3,"rating_247":84.0,"committed_to":"Jackson State","lat":28.5421109,"lng":-81.3790304,"hometown_city":"Orlando","hometown_state":"FL"},{"name":"Sy'eer Coleman","year":2026,"position":"RB","stars":3,"rating_247":84.0,"committed_to":"Albany","lat":39.9527237,"lng":-75.1635262,"hometown_city":"Philadelphia","hometown_state":"PA"},{"name":"Ameir Morrow","year":2026,"position":"RB","stars":3,"rating_247":84.0,"committed_to":"Temple","lat":40.6501038,"lng":-73.9495823,"hometown_city":"Brooklyn","hometown_state":"NY"},{"name":"Samaritan Cunningham","year":2026,"position":"RB","stars":null,"rating_247":null,"committed_to":null,"lat":31.4757,"lng":-99.3312,"hometown_city":"Houston","hometown_state":"TX"},{"name":"Jaiden McDowell","year":2026,"position":"RB","stars":null,"rating_247":null,"committed_to":null,"lat":33.9169,"lng":-80.8964,"hometown_city":"Gaffney","hometown_state":"SC"},{"name":"Jahan Abubakar","year":2026,"position":"RB","stars":null,"rating_247":null,"committed_to":"South Dakota","lat":40.0417,"lng":-89.1965,"hometown_city":"New Lenox","hometown_state":"IL"},{"name":"Kaleb Woods","year":2026,"position":"RB","stars":null,"rating_247":null,"committed_to":null,"lat":28.6305,"lng":-82.4497,"hometown_city":"Newberry","hometown_state":"FL"},{"name":"Kaden Foster","year":2026,"position":"RB","stars":null,"rating_247":null,"committed_to":null,"lat":39.055,"lng":-76.7909,"hometown_city":"Pikesville","hometown_state":"MD"},{"name":"Keisean Henderson","year":2026,"position":"WR","stars":5,"rating_247":100.0,"committed_to":"Houston","lat":30.0798826,"lng":-95.4172549,"hometown_city":"Spring","hometown_state":"TX"},{"name":"Chris Henry Jr.","year":2026,"position":"WR","stars":5,"rating_247":98.0,"committed_to":"Ohio State","lat":33.7494951,"lng":-117.8732213,"hometown_city":"Santa Ana","hometown_state":"CA"},{"name":"Craig Dandridge","year":2026,"position":"WR","stars":4,"rating_247":95.0,"committed_to":"Georgia","lat":34.0709576,"lng":-84.2747329,"hometown_city":"Alpharetta","hometown_state":"GA"},{"name":"Chase Campbell","year":2026,"position":"WR","stars":4,"rating_247":95.0,"committed_to":"Texas Tech","lat":33.5059189,"lng":-102.0090575,"hometown_city":"Wolfforth","hometown_state":"TX"},{"name":"Aaron Gregory","year":2026,"position":"WR","stars":4,"rating_247":94.0,"committed_to":"Texas A&M","lat":33.7514966,"lng":-84.7477136,"hometown_city":"Douglasville","hometown_state":"GA"},{"name":"Travis Johnson","year":2026,"position":"WR","stars":4,"rating_247":94.0,"committed_to":"Michigan","lat":36.7183708,"lng":-76.2466798,"hometown_city":"Chesapeake","hometown_state":"VA"},{"name":"Connor Salmin","year":2026,"position":"WR","stars":4,"rating_247":92.0,"committed_to":"Clemson","lat":39.017936,"lng":-77.2094542,"hometown_city":"Potomac","hometown_state":"MD"},{"name":"Devin Fitzgerald","year":2026,"position":"WR","stars":4,"rating_247":92.0,"committed_to":"Notre Dame","lat":33.4484367,"lng":-112.0741417,"hometown_city":"Phoenix","hometown_state":"AZ"},{"name":"Chris Tangelo","year":2026,"position":"WR","stars":4,"rating_247":91.0,"committed_to":"Vanderbilt","lat":39.1731621,"lng":-77.2716502,"hometown_city":"Germantown","hometown_state":"MD"},{"name":"Jasen Lopez","year":2026,"position":"WR","stars":4,"rating_247":91.0,"committed_to":"Florida State","lat":25.7742658,"lng":-80.1936589,"hometown_city":"Miami","hometown_state":"FL"},{"name":"Luc Weaver","year":2026,"position":"WR","stars":4,"rating_247":91.0,"committed_to":"Southern California","lat":34.1508718,"lng":-118.4489865,"hometown_city":"Sherman Oaks","hometown_state":"CA"},{"name":"Messiah Hampton","year":2026,"position":"WR","stars":4,"rating_247":91.0,"committed_to":"Oregon","lat":43.157285,"lng":-77.615214,"hometown_city":"Rochester","hometown_state":"NY"},{"name":"Jeffar Jean-Noel","year":2026,"position":"WR","stars":3,"rating_247":90.0,"committed_to":"Georgia Tech","lat":26.1223084,"lng":-80.1433786,"hometown_city":"Fort Lauderdale","hometown_state":"FL"},{"name":"Kohen Brown","year":2026,"position":"WR","stars":3,"rating_247":90.0,"committed_to":"Texas","lat":32.3944908,"lng":-96.8439365,"hometown_city":"Waxahachie","hometown_state":"TX"},{"name":"Aljour Miles II","year":2026,"position":"WR","stars":null,"rating_247":90.0,"committed_to":"SMU","lat":31.4757,"lng":-99.3312,"hometown_city":"Kaufman","hometown_state":"TX"},{"name":"Vance Spafford","year":2026,"position":"WR","stars":4,"rating_247":90.0,"committed_to":"Miami","lat":33.5965685,"lng":-117.659405,"hometown_city":"Mission Viejo","hometown_state":"CA"},{"name":"London Smith","year":2026,"position":"WR","stars":4,"rating_247":90.0,"committed_to":"Baylor","lat":31.549333,"lng":-97.1466695,"hometown_city":"Waco","hometown_state":"TX"},{"name":"Brayden Robinson","year":2026,"position":"WR","stars":4,"rating_247":90.0,"committed_to":"Notre Dame","lat":32.5117104,"lng":-96.80836332870047,"hometown_city":"Red Oak","hometown_state":"TX"},{"name":"Davion Brown","year":2026,"position":"WR","stars":4,"rating_247":89.0,"committed_to":"Virginia Tech","lat":37.5385087,"lng":-77.43428,"hometown_city":"Richmond","hometown_state":"VA"},{"name":"Davion Peters","year":2026,"position":"WR","stars":3,"rating_247":89.0,"committed_to":"Baylor","lat":31.098207,"lng":-97.3427847,"hometown_city":"Temple","hometown_state":"TX"},{"name":"Payton Cook","year":2026,"position":"WR","stars":3,"rating_247":89.0,"committed_to":"Louisville","lat":41.083064,"lng":-81.518485,"hometown_city":"Akron","hometown_state":"OH"},{"name":"Chris Stewart","year":2026,"position":"WR","stars":4,"rating_247":89.0,"committed_to":"Texas","lat":29.5639758,"lng":-95.2864299,"hometown_city":"Pearland","hometown_state":"TX"},{"name":"Amiri Acker","year":2026,"position":"WR","stars":null,"rating_247":89.0,"committed_to":"North Carolina State","lat":33.9169,"lng":-80.8964,"hometown_city":"Iva","hometown_state":"SC"},{"name":"Brayden Allen","year":2026,"position":"WR","stars":4,"rating_247":89.0,"committed_to":"Louisiana State","lat":30.2240897,"lng":-92.0198427,"hometown_city":"Lafayette","hometown_state":"LA"},{"name":"Jacob Eberhart","year":2026,"position":"WR","stars":4,"rating_247":89.0,"committed_to":"Illinois","lat":38.6268039,"lng":-90.1994097,"hometown_city":"St. Louis","hometown_state":"MO"},{"name":"Mike Brown","year":2026,"position":"WR","stars":3,"rating_247":88.0,"committed_to":"Texas A&M","lat":30.0798826,"lng":-95.4172549,"hometown_city":"Spring","hometown_state":"TX"},{"name":"Jameson Powell","year":2026,"position":"WR","stars":3,"rating_247":88.0,"committed_to":"Oregon State","lat":38.6779591,"lng":-121.1760583,"hometown_city":"Folsom","hometown_state":"CA"},{"name":"Max Lovett","year":2026,"position":"WR","stars":null,"rating_247":88.0,"committed_to":"Kansas State","lat":38.9972,"lng":-105.5478,"hometown_city":"Englewood","hometown_state":"CO"},{"name":"Owen Cabell","year":2026,"position":"WR","stars":3,"rating_247":88.0,"committed_to":"Vanderbilt","lat":36.1622296,"lng":-86.7743531,"hometown_city":"Nashville","hometown_state":"TN"},{"name":"Xavier Green","year":2026,"position":"WR","stars":3,"rating_247":88.0,"committed_to":"Tulsa","lat":33.0890094,"lng":-96.8863922,"hometown_city":"The Colony","hometown_state":"TX"},{"name":"Daylen Sharper","year":2026,"position":"WR","stars":3,"rating_247":88.0,"committed_to":"Stanford","lat":33.4484367,"lng":-112.0741417,"hometown_city":"Phoenix","hometown_state":"AZ"},{"name":"Brock Boyd","year":2026,"position":"WR","stars":3,"rating_247":87.0,"committed_to":"Ohio State","lat":32.9412363,"lng":-97.1341783,"hometown_city":"Southlake","hometown_state":"TX"},{"name":"Larry Miles","year":2026,"position":"WR","stars":3,"rating_247":87.0,"committed_to":"Nebraska","lat":28.5421109,"lng":-81.3790304,"hometown_city":"Orlando","hometown_state":"FL"},{"name":"DJ Biggins","year":2026,"position":"WR","stars":3,"rating_247":87.0,"committed_to":"Boston College","lat":41.7629122,"lng":-72.75664456297505,"hometown_city":"West Hartford","hometown_state":"CT"},{"name":"Jayden Kitchens","year":2026,"position":"WR","stars":3,"rating_247":87.0,"committed_to":"Maryland","lat":38.7890522,"lng":-77.1870368,"hometown_city":"Springfield","hometown_state":"VA"},{"name":"Jude Hall","year":2026,"position":"WR","stars":3,"rating_247":87.0,"committed_to":"Arkansas","lat":34.851354,"lng":-82.3984882,"hometown_city":"Greenville","hometown_state":"SC"},{"name":"Zikhere Leaks","year":2026,"position":"WR","stars":3,"rating_247":87.0,"committed_to":"Connecticut","lat":40.2663107,"lng":-76.8861122,"hometown_city":"Harrisburg","hometown_state":"PA"},{"name":"Maurice Medley","year":2026,"position":"WR","stars":3,"rating_247":87.0,"committed_to":"Syracuse","lat":39.2908816,"lng":-76.610759,"hometown_city":"Baltimore","hometown_state":"MD"},{"name":"Nyqir Helton","year":2026,"position":"WR","stars":3,"rating_247":87.0,"committed_to":"North Carolina","lat":39.769838,"lng":-74.8873855,"hometown_city":"Atco","hometown_state":"NJ"},{"name":"Lavar Keys","year":2026,"position":"WR","stars":3,"rating_247":87.0,"committed_to":"Indiana","lat":38.9529442,"lng":-76.9408647,"hometown_city":"Hyattsville","hometown_state":"MD"},{"name":"Denairius Gray","year":2026,"position":"WR","stars":3,"rating_247":86.0,"committed_to":"Kentucky","lat":26.0112014,"lng":-80.1494901,"hometown_city":"Hollywood","hometown_state":"FL"},{"name":"Demetrice McCray","year":2026,"position":"WR","stars":3,"rating_247":86.0,"committed_to":"Pittsburgh","lat":28.5421109,"lng":-81.3790304,"hometown_city":"Orlando","hometown_state":"FL"},{"name":"Massiah Mingo","year":2026,"position":"WR","stars":3,"rating_247":86.0,"committed_to":"New Mexico","lat":36.1672559,"lng":-115.1485163,"hometown_city":"Las Vegas","hometown_state":"NV"},{"name":"Jacob Butler","year":2026,"position":"WR","stars":3,"rating_247":86.0,"committed_to":"Stanford","lat":40.84348675,"lng":-73.62581450092935,"hometown_city":"Glen Head","hometown_state":"NY"},{"name":"Hayden Moore","year":2026,"position":"WR","stars":3,"rating_247":86.0,"committed_to":"Minnesota","lat":29.6463535,"lng":-82.6065023,"hometown_city":"Newberry","hometown_state":"FL"},{"name":"Kortez Rupert","year":2026,"position":"WR","stars":3,"rating_247":86.0,"committed_to":"Indiana","lat":38.6244952,"lng":-90.1509429,"hometown_city":"East St. Louis","hometown_state":"IL"},{"name":"Jaire Richburg","year":2026,"position":"WR","stars":3,"rating_247":86.0,"committed_to":"North Carolina State","lat":36.1198589,"lng":-80.0736533,"hometown_city":"Kernersville","hometown_state":"NC"},{"name":"Brayden Myovela","year":2026,"position":"WR","stars":null,"rating_247":86.0,"committed_to":"Old Dominion","lat":38.4937,"lng":-98.3804,"hometown_city":"Maize","hometown_state":"KS"},{"name":"Mark Hanniford","year":2026,"position":"WR","stars":3,"rating_247":85.0,"committed_to":"Ball State","lat":26.3586885,"lng":-80.0830984,"hometown_city":"Boca Raton","hometown_state":"FL"},{"name":"Imari Jehiel","year":2026,"position":"WR","stars":3,"rating_247":85.0,"committed_to":"Texas Tech","lat":32.747893,"lng":-96.4719289,"hometown_city":"Forney","hometown_state":"TX"},{"name":"Brandon Brown Jr.","year":2026,"position":"WR","stars":3,"rating_247":85.0,"committed_to":"Colorado State","lat":31.1171441,"lng":-97.727796,"hometown_city":"Killeen","hometown_state":"TX"},{"name":"Jaylen Pile","year":2026,"position":"WR","stars":3,"rating_247":85.0,"committed_to":"Michigan","lat":32.7762719,"lng":-96.7968559,"hometown_city":"Dallas","hometown_state":"TX"},{"name":"Ash Roberts","year":2026,"position":"WR","stars":3,"rating_247":85.0,"committed_to":"Temple","lat":39.9527237,"lng":-75.1635262,"hometown_city":"Philadelphia","hometown_state":"PA"},{"name":"Alex Voss","year":2026,"position":"WR","stars":3,"rating_247":85.0,"committed_to":null,"lat":34.9362535,"lng":-80.75079198523316,"hometown_city":"Waxhaw","hometown_state":"NC"},{"name":"Kabran Paul","year":2026,"position":"WR","stars":3,"rating_247":85.0,"committed_to":"Appalachian State","lat":30.4380832,"lng":-84.2809332,"hometown_city":"Tallahassee","hometown_state":"FL"},{"name":"Kelvin Brown","year":2026,"position":"WR","stars":3,"rating_247":85.0,"committed_to":"Boston College","lat":30.3321838,"lng":-81.655651,"hometown_city":"Jacksonville","hometown_state":"FL"},{"name":"Santana Carlos","year":2026,"position":"WR","stars":3,"rating_247":84.0,"committed_to":"Western Carolina","lat":26.0112014,"lng":-80.1494901,"hometown_city":"Hollywood","hometown_state":"FL"},{"name":"CJ Miller","year":2026,"position":"WR","stars":3,"rating_247":83.0,"committed_to":"Eastern Michigan","lat":25.7742658,"lng":-80.1936589,"hometown_city":"Miami","hometown_state":"FL"},{"name":"Quinn Martinez","year":2026,"position":"WR","stars":3,"rating_247":83.0,"committed_to":null,"lat":37.7986184,"lng":-121.2117148,"hometown_city":"Manteca","hometown_state":"CA"},{"name":"Ryan Nero","year":2026,"position":"WR","stars":3,"rating_247":82.0,"committed_to":null,"lat":33.9170444,"lng":-117.8888557,"hometown_city":"Brea","hometown_state":"CA"},{"name":"Welman Crooms Jr.","year":2026,"position":"WR","stars":null,"rating_247":null,"committed_to":null,"lat":40.1907,"lng":-74.6728,"hometown_city":"Matawan","hometown_state":"NJ"},{"name":"Kaai Connelley","year":2026,"position":"WR","stars":null,"rating_247":null,"committed_to":"Sacred Heart","lat":38.9101,"lng":-77.0147,"hometown_city":"Washington","hometown_state":"DC"},{"name":"Marcus Adam Carter Jr.","year":2026,"position":"WR","stars":null,"rating_247":null,"committed_to":null,"lat":32.6415,"lng":-83.4426,"hometown_city":"Douglasville","hometown_state":"GA"},{"name":"Keyon Rice","year":2026,"position":"WR","stars":null,"rating_247":null,"committed_to":null,"lat":39.055,"lng":-76.7909,"hometown_city":"Baltimore","hometown_state":"MD"},{"name":"Kieghlin Hicks","year":2026,"position":"WR","stars":null,"rating_247":null,"committed_to":null,"lat":42.9538,"lng":-75.5268,"hometown_city":"Syracuse","hometown_state":"NY"},{"name":"Dominic Saidu","year":2026,"position":"WR","stars":null,"rating_247":null,"committed_to":null,"lat":31.4757,"lng":-99.3312,"hometown_city":"Kaufman","hometown_state":"TX"},{"name":"Lincoln Keyes","year":2026,"position":"TE","stars":4,"rating_247":95.0,"committed_to":"Georgia","lat":42.1667072,"lng":-83.7816075,"hometown_city":"Saline","hometown_state":"MI"},{"name":"Matt Ludwig","year":2026,"position":"TE","stars":4,"rating_247":91.0,"committed_to":"Texas Tech","lat":45.7874957,"lng":-108.49607,"hometown_city":"Billings","hometown_state":"MT"},{"name":"Evan Jacobson","year":2026,"position":"TE","stars":4,"rating_247":91.0,"committed_to":"Texas A&M","lat":41.6118485,"lng":-93.8845129,"hometown_city":"Waukee","hometown_state":"IA"},{"name":"Luke Sorensen","year":2026,"position":"TE","stars":3,"rating_247":89.0,"committed_to":"Nebraska","lat":33.8347516,"lng":-117.911732,"hometown_city":"Anaheim","hometown_state":"CA"},{"name":"Damon Hall","year":2026,"position":"TE","stars":null,"rating_247":88.0,"committed_to":"Maryland","lat":39.055,"lng":-76.7909,"hometown_city":"Baltimore","hometown_state":"MD"},{"name":"Lincoln Watkins","year":2026,"position":"TE","stars":3,"rating_247":88.0,"committed_to":"Kentucky","lat":42.9815877,"lng":-82.440466,"hometown_city":"Port Huron","hometown_state":"MI"},{"name":"Camden Jensen","year":2026,"position":"TE","stars":3,"rating_247":88.0,"committed_to":"UCLA","lat":39.613321,"lng":-105.0166498,"hometown_city":"Littleton","hometown_state":"CO"},{"name":"Tex Vaughn","year":2026,"position":"TE","stars":null,"rating_247":88.0,"committed_to":"North Carolina State","lat":35.5557,"lng":-79.3877,"hometown_city":"Kings Mountain","hometown_state":"NC"},{"name":"Destin Mitchell","year":2026,"position":"TE","stars":3,"rating_247":87.0,"committed_to":null,"lat":39.2908816,"lng":-76.610759,"hometown_city":"Baltimore","hometown_state":"MD"},{"name":"Brady Shust","year":2026,"position":"TE","stars":3,"rating_247":86.0,"committed_to":"Wake Forest","lat":41.0467635,"lng":-74.0229173,"hometown_city":"Montvale","hometown_state":"NJ"},{"name":"Cooper McCutchan","year":2026,"position":"TE","stars":3,"rating_247":86.0,"committed_to":"Purdue","lat":39.1014537,"lng":-84.5124602,"hometown_city":"Cincinnati","hometown_state":"OH"},{"name":"Carter Bashir","year":2026,"position":"TE","stars":3,"rating_247":86.0,"committed_to":"Syracuse","lat":39.9527237,"lng":-75.1635262,"hometown_city":"Philadelphia","hometown_state":"PA"},{"name":"Chase Tatum","year":2026,"position":"TE","stars":3,"rating_247":80.0,"committed_to":"Kennesaw State","lat":34.1650972,"lng":-84.7999383,"hometown_city":"Cartersville","hometown_state":"GA"},{"name":"Tyshaun Boyd","year":2026,"position":"TE","stars":null,"rating_247":null,"committed_to":null,"lat":40.1907,"lng":-74.6728,"hometown_city":"Newark","hometown_state":"NJ"},{"name":"Dylan Harris","year":2026,"position":"TE","stars":null,"rating_247":null,"committed_to":null,"lat":28.6305,"lng":-82.4497,"hometown_city":"Ocala","hometown_state":"FL"},{"name":"Felix Ojo","year":2026,"position":"OT","stars":5,"rating_247":98.0,"committed_to":"Texas Tech","lat":32.5631924,"lng":-97.1416768,"hometown_city":"Mansfield","hometown_state":"TX"},{"name":"Immanuel Iheanacho","year":2026,"position":"OT","stars":5,"rating_247":98.0,"committed_to":"Oregon","lat":39.0461292,"lng":-77.1130097,"hometown_city":"North Bethesda","hometown_state":"MD"},{"name":"Sam Greer","year":2026,"position":"OT","stars":4,"rating_247":97.0,"committed_to":"Ohio State","lat":41.083064,"lng":-81.518485,"hometown_city":"Akron","hometown_state":"OH"},{"name":"Johnnie Jones","year":2026,"position":"OT","stars":4,"rating_247":95.0,"committed_to":"Missouri","lat":27.0999188,"lng":-82.4543597,"hometown_city":"Venice","hometown_state":"FL"},{"name":"Kamari Blair","year":2026,"position":"OT","stars":4,"rating_247":95.0,"committed_to":"Tennessee","lat":36.5277607,"lng":-87.3588703,"hometown_city":"Clarksville","hometown_state":"TN"},{"name":"Kevin Brown","year":2026,"position":"OT","stars":4,"rating_247":94.0,"committed_to":"West Virginia","lat":40.2663107,"lng":-76.8861122,"hometown_city":"Harrisburg","hometown_state":"PA"},{"name":"Claude Mpouma","year":2026,"position":"OT","stars":4,"rating_247":93.0,"committed_to":"Nebraska","lat":41.8755616,"lng":-87.6244212,"hometown_city":"Chicago","hometown_state":"IL"},{"name":"Marky Walbridge","year":2026,"position":"OT","stars":4,"rating_247":93.0,"committed_to":"Michigan","lat":42.283431,"lng":-71.2328329,"hometown_city":"Needham","hometown_state":"MA"},{"name":"Max Riley","year":2026,"position":"OT","stars":null,"rating_247":93.0,"committed_to":"Ohio State","lat":40.2862,"lng":-82.7937,"hometown_city":"Avon Lake","hometown_state":"OH"},{"name":"Charlie Thom","year":2026,"position":"OT","stars":4,"rating_247":92.0,"committed_to":"Notre Dame","lat":41.8098209,"lng":-72.8306541,"hometown_city":"Avon","hometown_state":"CT"},{"name":"Kai Pritchard","year":2026,"position":"OT","stars":4,"rating_247":91.0,"committed_to":"Illinois","lat":39.9537359,"lng":-74.1979576,"hometown_city":"Toms River","hometown_state":"NJ"},{"name":"Grant Wise","year":2026,"position":"OT","stars":4,"rating_247":91.0,"committed_to":"Clemson","lat":30.6324149,"lng":-87.0396881,"hometown_city":"Milton","hometown_state":"FL"},{"name":"Thomas Wilder","year":2026,"position":"OT","stars":4,"rating_247":90.0,"committed_to":"Virginia Tech","lat":36.8529841,"lng":-75.9774183,"hometown_city":"Virginia Beach","hometown_state":"VA"},{"name":"Adam Guthrie","year":2026,"position":"OT","stars":4,"rating_247":89.0,"committed_to":"Clemson","lat":39.5364511,"lng":-83.4390843,"hometown_city":"Washington Court House","hometown_state":"OH"},{"name":"Tavian Branch","year":2026,"position":"OT","stars":3,"rating_247":89.0,"committed_to":"Auburn","lat":31.163771,"lng":-85.46863795754717,"hometown_city":"Taylor","hometown_state":"PA"},{"name":"Brady Bekkenhuis","year":2026,"position":"OT","stars":4,"rating_247":89.0,"committed_to":"Wisconsin","lat":42.4153739,"lng":-71.1564428,"hometown_city":"Arlington","hometown_state":"MA"},{"name":"Roseby Lubintus","year":2026,"position":"OT","stars":3,"rating_247":88.0,"committed_to":"Virginia Tech","lat":39.7173375,"lng":-74.9693329,"hometown_city":"Sicklerville","hometown_state":"NJ"},{"name":"Marlen Bright","year":2026,"position":"OT","stars":4,"rating_247":88.0,"committed_to":"Virginia Tech","lat":40.9491723,"lng":-74.2376802,"hometown_city":"Wayne","hometown_state":"NJ"},{"name":"Mason Bandhauer","year":2026,"position":"OT","stars":3,"rating_247":88.0,"committed_to":"Penn State","lat":40.5508527,"lng":-105.0668085,"hometown_city":"Fort Collins","hometown_state":"CO"},{"name":"Avery Morcho","year":2026,"position":"OT","stars":3,"rating_247":87.0,"committed_to":"Texas A&M","lat":29.6185669,"lng":-95.5377215,"hometown_city":"Missouri City","hometown_state":"TX"},{"name":"Marcelino Antunes Jr.","year":2026,"position":"OT","stars":3,"rating_247":87.0,"committed_to":"Boston College","lat":42.2792649,"lng":-71.1494972,"hometown_city":"West Roxbury","hometown_state":"MA"},{"name":"Cameron Greene","year":2026,"position":"OT","stars":3,"rating_247":87.0,"committed_to":"Rutgers","lat":39.4917828,"lng":-74.8707243,"hometown_city":"Richland","hometown_state":"NJ"},{"name":"Quinn Buckey","year":2026,"position":"OT","stars":3,"rating_247":87.0,"committed_to":"UCLA","lat":35.3738712,"lng":-119.0194639,"hometown_city":"Bakersfield","hometown_state":"CA"},{"name":"Landry Brede","year":2026,"position":"OT","stars":3,"rating_247":87.0,"committed_to":"Ohio State","lat":41.6661573,"lng":-81.339552,"hometown_city":"Mentor","hometown_state":"OH"},{"name":"Jesse Moody","year":2026,"position":"OT","stars":3,"rating_247":86.0,"committed_to":"Maryland","lat":39.9527237,"lng":-75.1635262,"hometown_city":"Philadelphia","hometown_state":"PA"},{"name":"Hugh Smith","year":2026,"position":"OT","stars":3,"rating_247":86.0,"committed_to":"Arkansas","lat":29.6185669,"lng":-95.5377215,"hometown_city":"Missouri City","hometown_state":"TX"},{"name":"Michael Gildea","year":2026,"position":"OT","stars":3,"rating_247":85.0,"committed_to":"Virginia","lat":40.3492744,"lng":-74.6592958,"hometown_city":"Princeton","hometown_state":"NJ"},{"name":"Rowan Ahrens","year":2026,"position":"OT","stars":3,"rating_247":85.0,"committed_to":"Harvard","lat":41.0264862,"lng":-73.6284598,"hometown_city":"Greenwich","hometown_state":"CT"},{"name":"Lawrence Iyalekhue","year":2026,"position":"OT","stars":3,"rating_247":85.0,"committed_to":"Boston College","lat":40.9312099,"lng":-73.8987469,"hometown_city":"Yonkers","hometown_state":"NY"},{"name":"Rico Schrieber","year":2026,"position":"OT","stars":3,"rating_247":84.0,"committed_to":"Purdue","lat":41.8755616,"lng":-87.6244212,"hometown_city":"Chicago","hometown_state":"IL"},{"name":"Tyler Merrill","year":2026,"position":"IOL","stars":4,"rating_247":91.0,"committed_to":"Notre Dame","lat":40.2101972,"lng":-77.0047276,"hometown_city":"Mechanicsburg","hometown_state":"PA"},{"name":"Carter Scruggs","year":2026,"position":"IOL","stars":4,"rating_247":90.0,"committed_to":"Clemson","lat":39.1154496,"lng":-77.5645446,"hometown_city":"Leesburg","hometown_state":"VA"},{"name":"Gene Riordan","year":2026,"position":"IOL","stars":4,"rating_247":90.0,"committed_to":"Iowa","lat":41.794528,"lng":-87.92761808245767,"hometown_city":"Hinsdale","hometown_state":"IL"},{"name":"Owen Fors","year":2026,"position":"IOL","stars":3,"rating_247":90.0,"committed_to":"Northwestern","lat":42.1539141,"lng":-88.1361888,"hometown_city":"Barrington","hometown_state":"IL"},{"name":"Will Conroy","year":2026,"position":"IOL","stars":3,"rating_247":89.0,"committed_to":"North Carolina","lat":27.4989278,"lng":-82.5748194,"hometown_city":"Bradenton","hometown_state":"FL"},{"name":"Jax Tanner","year":2026,"position":"IOL","stars":4,"rating_247":89.0,"committed_to":"BYU","lat":43.6086295,"lng":-116.392326,"hometown_city":"Meridian","hometown_state":"ID"},{"name":"Zach Lewis","year":2026,"position":"IOL","stars":null,"rating_247":88.0,"committed_to":"Georgia","lat":32.6415,"lng":-83.4426,"hometown_city":"Suwanee","hometown_state":"GA"},{"name":"Anthony Hall","year":2026,"position":"IOL","stars":3,"rating_247":88.0,"committed_to":"North Carolina","lat":42.3317642,"lng":-71.1211635,"hometown_city":"Brookline","hometown_state":"MA"},{"name":"Jalayne Miller","year":2026,"position":"IOL","stars":4,"rating_247":88.0,"committed_to":"Stanford","lat":33.4353672,"lng":-112.3576005,"hometown_city":"Goodyear","hometown_state":"AZ"},{"name":"Ed Baker","year":2026,"position":"IOL","stars":null,"rating_247":88.0,"committed_to":"Tennessee","lat":39.055,"lng":-76.7909,"hometown_city":"Baltimore","hometown_state":"MD"},{"name":"Jakobe Green","year":2026,"position":"IOL","stars":3,"rating_247":87.0,"committed_to":"Florida State","lat":30.5871948,"lng":-84.5832619,"hometown_city":"Quincy","hometown_state":"FL"},{"name":"Mykall Lundy-Foster","year":2026,"position":"IOL","stars":null,"rating_247":87.0,"committed_to":"Auburn","lat":28.6305,"lng":-82.4497,"hometown_city":"Tallahassee","hometown_state":"FL"},{"name":"Ace Hamilton","year":2026,"position":"IOL","stars":null,"rating_247":87.0,"committed_to":"Michigan","lat":38.9101,"lng":-77.0147,"hometown_city":"Washington","hometown_state":"DC"},{"name":"Jordan Harrison","year":2026,"position":"IOL","stars":3,"rating_247":87.0,"committed_to":"South Florida","lat":38.8949855,"lng":-77.0365708,"hometown_city":"Washington","hometown_state":"DC"},{"name":"Marek Jin","year":2026,"position":"IOL","stars":4,"rating_247":86.0,"committed_to":"Boston College","lat":42.981477,"lng":-70.9478343,"hometown_city":"Exeter","hometown_state":"NH"},{"name":"Lamarcus Dillard","year":2026,"position":"IOL","stars":3,"rating_247":86.0,"committed_to":"West Virginia","lat":39.2908816,"lng":-76.610759,"hometown_city":"Baltimore","hometown_state":"MD"},{"name":"Bear McWhorter","year":2026,"position":"IOL","stars":null,"rating_247":85.0,"committed_to":"Auburn","lat":32.6415,"lng":-83.4426,"hometown_city":"White","hometown_state":"GA"},{"name":"Brendan Alexander","year":2026,"position":"IOL","stars":3,"rating_247":85.0,"committed_to":"Northern Illinois","lat":40.6872885,"lng":-80.2714505,"hometown_city":"Monaca","hometown_state":"PA"},{"name":"Dean Ruksnaitis","year":2026,"position":"IOL","stars":3,"rating_247":85.0,"committed_to":"Boston College","lat":42.2689274,"lng":-72.6688036,"hometown_city":"Easthampton","hometown_state":"MA"},{"name":"Rhett Morris","year":2026,"position":"IOL","stars":3,"rating_247":85.0,"committed_to":"West Virginia","lat":41.0573188,"lng":-74.1409771,"hometown_city":"Ramsey","hometown_state":"NJ"},{"name":"Jarvis Potts","year":2026,"position":"IOL","stars":3,"rating_247":85.0,"committed_to":"Appalachian State","lat":35.4817982,"lng":-80.8589501,"hometown_city":"Cornelius","hometown_state":"NC"},{"name":"Ryley Kester","year":2026,"position":"IOL","stars":3,"rating_247":84.0,"committed_to":"Tulsa","lat":36.0228734,"lng":-95.9683278,"hometown_city":"Jenks","hometown_state":"OK"},{"name":"Niniva Nicholson","year":2026,"position":"IOL","stars":3,"rating_247":84.0,"committed_to":"Arizona State","lat":33.1958696,"lng":-117.3794834,"hometown_city":"Oceanside","hometown_state":"CA"},{"name":"Jeremy Davis","year":2026,"position":"IOL","stars":null,"rating_247":null,"committed_to":null,"lat":39.055,"lng":-76.7909,"hometown_city":"Upper Marlboro","hometown_state":"MD"},{"name":"Gregory Maddox","year":2026,"position":"IOL","stars":null,"rating_247":null,"committed_to":null,"lat":39.055,"lng":-76.7909,"hometown_city":"Dundalk","hometown_state":"MD"},{"name":"Jake Namnun","year":2026,"position":"IOL","stars":null,"rating_247":null,"committed_to":null,"lat":40.1907,"lng":-74.6728,"hometown_city":"Delran","hometown_state":"NJ"},{"name":"Luke Wafle","year":2026,"position":"Edge","stars":4,"rating_247":99.0,"committed_to":"Southern California","lat":40.3492744,"lng":-74.6592958,"hometown_city":"Princeton","hometown_state":"NJ"},{"name":"Carter Gooden","year":2026,"position":"Edge","stars":4,"rating_247":96.0,"committed_to":"Tennessee","lat":41.7001043,"lng":-70.7628129,"hometown_city":"Marion","hometown_state":"MA"},{"name":"DeAnthony Lafayette","year":2026,"position":"Edge","stars":4,"rating_247":91.0,"committed_to":"Miami","lat":28.5421109,"lng":-81.3790304,"hometown_city":"Orlando","hometown_state":"FL"},{"name":"Demeterius Thompson","year":2026,"position":"Edge","stars":3,"rating_247":90.0,"committed_to":"Boston College","lat":38.6504352,"lng":-90.3362473,"hometown_city":"Clayton","hometown_state":"MO"},{"name":"Mason Leak","year":2026,"position":"Edge","stars":4,"rating_247":90.0,"committed_to":"Boston College","lat":41.8098209,"lng":-72.8306541,"hometown_city":"Avon","hometown_state":"CT"},{"name":"McHale Blade","year":2026,"position":"Edge","stars":4,"rating_247":89.0,"committed_to":"Michigan","lat":41.8755616,"lng":-87.6244212,"hometown_city":"Chicago","hometown_state":"IL"},{"name":"Jace McCallum","year":2026,"position":"Edge","stars":3,"rating_247":89.0,"committed_to":"Vanderbilt","lat":35.3262523,"lng":-80.6446563,"hometown_city":"Harrisburg","hometown_state":"NC"},{"name":"CJ Edwards","year":2026,"position":"Edge","stars":3,"rating_247":89.0,"committed_to":"Tennessee","lat":40.5431598,"lng":-74.3632049,"hometown_city":"Metuchen","hometown_state":"NJ"},{"name":"Tariq Boney","year":2026,"position":"Edge","stars":3,"rating_247":89.0,"committed_to":"Michigan","lat":38.8949855,"lng":-77.0365708,"hometown_city":"Washington","hometown_state":"DC"},{"name":"Hudson Woods","year":2026,"position":"Edge","stars":3,"rating_247":89.0,"committed_to":"SMU","lat":29.885073249999998,"lng":-98.4196833729311,"hometown_city":"Spring Branch","hometown_state":"TX"},{"name":"Jarius Rodgers","year":2026,"position":"Edge","stars":3,"rating_247":88.0,"committed_to":"Syracuse","lat":30.1654707,"lng":-81.7016346,"hometown_city":"Orange Park","hometown_state":"FL"},{"name":"Braeden Jones","year":2026,"position":"Edge","stars":4,"rating_247":88.0,"committed_to":"Southern California","lat":41.8755616,"lng":-87.6244212,"hometown_city":"Chicago","hometown_state":"IL"},{"name":"Parker Crim","year":2026,"position":"Edge","stars":null,"rating_247":88.0,"committed_to":"Illinois","lat":40.2862,"lng":-82.7937,"hometown_city":"Elida","hometown_state":"OH"},{"name":"Prin Fox","year":2026,"position":"Edge","stars":null,"rating_247":87.0,"committed_to":"Nevada, Las Vegas","lat":47.3826,"lng":-120.4472,"hometown_city":"Cashmere","hometown_state":"WA"},{"name":"Garrett Witherington","year":2026,"position":"Edge","stars":3,"rating_247":87.0,"committed_to":"Virginia Tech","lat":33.5206824,"lng":-86.8024326,"hometown_city":"Birmingham","hometown_state":"AL"},{"name":"Kayden Bennett","year":2026,"position":"Edge","stars":3,"rating_247":86.0,"committed_to":"Illinois","lat":41.9816944,"lng":-72.6506604,"hometown_city":"Suffield","hometown_state":"CT"},{"name":"Dominic Funke","year":2026,"position":"Edge","stars":3,"rating_247":86.0,"committed_to":"Boston College","lat":42.2139873,"lng":-71.2244987,"hometown_city":"Westwood","hometown_state":"MA"},{"name":"Seth Clarke","year":2026,"position":"Edge","stars":3,"rating_247":85.0,"committed_to":"Rice","lat":40.3492744,"lng":-74.6592958,"hometown_city":"Princeton","hometown_state":"NJ"},{"name":"Josiah Anyansi","year":2026,"position":"Edge","stars":3,"rating_247":85.0,"committed_to":"Minnesota","lat":33.577752399999994,"lng":-117.18845420205307,"hometown_city":"Murrieta","hometown_state":"CA"},{"name":"Amahn Williams","year":2026,"position":"Edge","stars":3,"rating_247":85.0,"committed_to":"UCF","lat":41.7001043,"lng":-70.7628129,"hometown_city":"Marion","hometown_state":"MA"},{"name":"Sarrel Howard","year":2026,"position":"Edge","stars":3,"rating_247":85.0,"committed_to":"Stanford","lat":33.9562003,"lng":-118.353132,"hometown_city":"Inglewood","hometown_state":"CA"},{"name":"Bastian Vanden Bosch","year":2026,"position":"Edge","stars":3,"rating_247":84.0,"committed_to":null,"lat":33.4484367,"lng":-112.0741417,"hometown_city":"Phoenix","hometown_state":"AZ"},{"name":"Brandon Esson","year":2026,"position":"Edge","stars":null,"rating_247":null,"committed_to":"Maine","lat":41.6219,"lng":-72.7273,"hometown_city":"Danbury","hometown_state":"CT"},{"name":"Aiden Harris","year":2026,"position":"DL","stars":4,"rating_247":95.0,"committed_to":"South Carolina","lat":35.1170873,"lng":-80.723718,"hometown_city":"Matthews","hometown_state":"NC"},{"name":"Grayson McKeogh","year":2026,"position":"DL","stars":4,"rating_247":93.0,"committed_to":"Notre Dame","lat":40.1023326,"lng":-75.1521195,"hometown_city":"Glenside","hometown_state":"PA"},{"name":"Carmelow Reed","year":2026,"position":"DL","stars":3,"rating_247":92.0,"committed_to":"Mississippi","lat":41.8755616,"lng":-87.6244212,"hometown_city":"Chicago","hometown_state":"IL"},{"name":"Damari Simeon","year":2026,"position":"DL","stars":4,"rating_247":90.0,"committed_to":"Ohio State","lat":39.4917828,"lng":-74.8707243,"hometown_city":"Richland","hometown_state":"NJ"},{"name":"Isaac Chukwurah","year":2026,"position":"DL","stars":3,"rating_247":90.0,"committed_to":"Miami","lat":39.6292788,"lng":-75.6582628,"hometown_city":"Bear","hometown_state":"DE"},{"name":"Amier Clarke","year":2026,"position":"DL","stars":3,"rating_247":89.0,"committed_to":"Georgia Tech","lat":28.2918995,"lng":-81.4075838,"hometown_city":"Kissimmee","hometown_state":"FL"},{"name":"Tufanua Ionatana Umu-Cais","year":2026,"position":"DL","stars":3,"rating_247":89.0,"committed_to":"Washington","lat":39.6482059,"lng":-104.9879641,"hometown_city":"Englewood","hometown_state":"CO"},{"name":"Cameron Brickle II","year":2026,"position":"DL","stars":null,"rating_247":89.0,"committed_to":"Maryland","lat":28.6305,"lng":-82.4497,"hometown_city":"Bradenton","hometown_state":"FL"},{"name":"Jermaine Kinsler","year":2026,"position":"DL","stars":4,"rating_247":89.0,"committed_to":"Texas A&M","lat":40.9543943,"lng":-74.0308504,"hometown_city":"Oradell","hometown_state":"NJ"},{"name":"Logan Nagle","year":2026,"position":"DL","stars":3,"rating_247":89.0,"committed_to":"Miami","lat":40.9491723,"lng":-74.2376802,"hometown_city":"Wayne","hometown_state":"NJ"},{"name":"Preston Carey","year":2026,"position":"DL","stars":3,"rating_247":88.0,"committed_to":"Georgia","lat":27.4989278,"lng":-82.5748194,"hometown_city":"Bradenton","hometown_state":"FL"},{"name":"JaMarcus Whyce","year":2026,"position":"DL","stars":3,"rating_247":88.0,"committed_to":"Maryland","lat":39.7589478,"lng":-84.1916069,"hometown_city":"Dayton","hometown_state":"OH"},{"name":"Tiki Hola","year":2026,"position":"DL","stars":4,"rating_247":88.0,"committed_to":"Notre Dame","lat":30.1104947,"lng":-97.3152701,"hometown_city":"Bastrop","hometown_state":"TX"},{"name":"Dane Bathurst","year":2026,"position":"DL","stars":3,"rating_247":88.0,"committed_to":"Oklahoma","lat":39.9788017,"lng":-86.1189257,"hometown_city":"Carmel","hometown_state":"IN"},{"name":"Mac Fitzgerald","year":2026,"position":"DL","stars":3,"rating_247":88.0,"committed_to":"Boston College","lat":42.2792649,"lng":-71.1494972,"hometown_city":"West Roxbury","hometown_state":"MA"},{"name":"James Carrington","year":2026,"position":"DL","stars":3,"rating_247":87.0,"committed_to":"Oklahoma","lat":33.6856969,"lng":-117.8259819,"hometown_city":"Irvine","hometown_state":"CA"},{"name":"Joseph Peko","year":2026,"position":"DL","stars":3,"rating_247":87.0,"committed_to":"Washington","lat":34.1460234,"lng":-118.8061794,"hometown_city":"Westlake Village","hometown_state":"CA"},{"name":"King Liggins","year":2026,"position":"DL","stars":3,"rating_247":87.0,"committed_to":"Illinois","lat":41.8755616,"lng":-87.6244212,"hometown_city":"Chicago","hometown_state":"IL"},{"name":"T-Ron Richardson Jr.","year":2026,"position":"DL","stars":null,"rating_247":87.0,"committed_to":"Virginia Tech","lat":37.5215,"lng":-78.8537,"hometown_city":"Hopewell","hometown_state":"VA"},{"name":"Sawyer Jezierski","year":2026,"position":"DL","stars":3,"rating_247":87.0,"committed_to":"Iowa","lat":44.8897027,"lng":-93.3501222,"hometown_city":"Edina","hometown_state":"MN"},{"name":"Cam Mallory","year":2026,"position":"DL","stars":null,"rating_247":87.0,"committed_to":"West Virginia","lat":32.7794,"lng":-86.8287,"hometown_city":"Moody","hometown_state":"AL"},{"name":"Jermaine Polk","year":2026,"position":"DL","stars":3,"rating_247":86.0,"committed_to":"Rutgers","lat":41.6786754,"lng":-83.5127283,"hometown_city":"Toledo","hometown_state":"OH"},{"name":"Deuce Alailefaleula","year":2026,"position":"DL","stars":3,"rating_247":86.0,"committed_to":"Boise State","lat":61.2163129,"lng":-149.8948523,"hometown_city":"Anchorage","hometown_state":"AK"},{"name":"Kaleb Morris","year":2026,"position":"DL","stars":3,"rating_247":86.0,"committed_to":"Mississippi State","lat":30.778688,"lng":-88.2588427,"hometown_city":"Semmes","hometown_state":"AL"},{"name":"Gavin Neil","year":2026,"position":"DL","stars":3,"rating_247":86.0,"committed_to":"Boston College","lat":41.5062834,"lng":-87.6357079,"hometown_city":"Chicago Heights","hometown_state":"IL"},{"name":"Kamdon Gillespie","year":2026,"position":"DL","stars":3,"rating_247":86.0,"committed_to":"East Tennessee State","lat":35.5848596,"lng":-80.8100724,"hometown_city":"Mooresville","hometown_state":"NC"},{"name":"Carmelo McKenzie","year":2026,"position":"DL","stars":3,"rating_247":85.0,"committed_to":"North Carolina State","lat":27.4989278,"lng":-82.5748194,"hometown_city":"Bradenton","hometown_state":"FL"},{"name":"Cameron McGee","year":2026,"position":"DL","stars":3,"rating_247":85.0,"committed_to":"Boston College","lat":33.8389977,"lng":-83.9007382,"hometown_city":"Loganville","hometown_state":"GA"},{"name":"Rodney White","year":2026,"position":"DL","stars":3,"rating_247":85.0,"committed_to":"Indiana","lat":39.4018552,"lng":-76.602388,"hometown_city":"Towson","hometown_state":"MD"},{"name":"Jackson Carlisle","year":2026,"position":"DL","stars":3,"rating_247":85.0,"committed_to":"Boston College","lat":33.2095614,"lng":-87.5675258,"hometown_city":"Tuscaloosa","hometown_state":"AL"},{"name":"Christian Waring","year":2026,"position":"DL","stars":3,"rating_247":85.0,"committed_to":"Appalachian State","lat":34.8826085,"lng":-81.96547100908059,"hometown_city":"Roebuck","hometown_state":"SC"},{"name":"Micah Fils-Aime","year":2026,"position":"DL","stars":null,"rating_247":84.0,"committed_to":"Toledo","lat":28.6305,"lng":-82.4497,"hometown_city":"Naples","hometown_state":"FL"},{"name":"Jayden Arenas-Michel","year":2026,"position":"DL","stars":3,"rating_247":84.0,"committed_to":"Middle Tennessee","lat":35.0457219,"lng":-85.3094883,"hometown_city":"Chattanooga","hometown_state":"TN"},{"name":"Delaney Fludd","year":2026,"position":"DL","stars":null,"rating_247":null,"committed_to":null,"lat":41.6219,"lng":-72.7273,"hometown_city":"Oakdale","hometown_state":"CT"},{"name":"Brayden Rouse","year":2026,"position":"LB","stars":4,"rating_247":96.0,"committed_to":"Tennessee","lat":33.9528472,"lng":-84.5496148,"hometown_city":"Marietta","hometown_state":"GA"},{"name":"Terry Wiggins","year":2026,"position":"LB","stars":4,"rating_247":94.0,"committed_to":"Virginia Tech","lat":39.9831616,"lng":-75.8238355,"hometown_city":"Coatesville","hometown_state":"PA"},{"name":"Rocky Cummings","year":2026,"position":"LB","stars":3,"rating_247":91.0,"committed_to":"Texas","lat":33.1580933,"lng":-117.3505966,"hometown_city":"Carlsbad","hometown_state":"CA"},{"name":"Izayia Williams","year":2026,"position":"LB","stars":4,"rating_247":91.0,"committed_to":"Florida State","lat":28.78992535,"lng":-81.77516353978501,"hometown_city":"Tavares","hometown_state":"FL"},{"name":"Ja'Dyn Williams","year":2026,"position":"LB","stars":4,"rating_247":91.0,"committed_to":"Indiana","lat":40.7967244,"lng":-81.5215093,"hometown_city":"Massillon","hometown_state":"OH"},{"name":"Thomas Davis Jr.","year":2026,"position":"LB","stars":4,"rating_247":90.0,"committed_to":"Notre Dame","lat":35.1170873,"lng":-80.723718,"hometown_city":"Matthews","hometown_state":"NC"},{"name":"Nick Abrams II","year":2026,"position":"LB","stars":4,"rating_247":90.0,"committed_to":"Georgia","lat":39.4010753,"lng":-76.796299,"hometown_city":"Owings Mills","hometown_state":"MD"},{"name":"JJ Bush","year":2026,"position":"LB","stars":4,"rating_247":90.0,"committed_to":"Missouri","lat":30.547295,"lng":-88.18020367595204,"hometown_city":"Theodore","hometown_state":"AL"},{"name":"Storm Miller","year":2026,"position":"LB","stars":4,"rating_247":89.0,"committed_to":"Texas A&M","lat":41.3144733,"lng":-81.83511,"hometown_city":"Strongsville","hometown_state":"OH"},{"name":"Ja'Kobe Clapper","year":2026,"position":"LB","stars":null,"rating_247":89.0,"committed_to":"Notre Dame","lat":40.2862,"lng":-82.7937,"hometown_city":"Cincinnati","hometown_state":"OH"},{"name":"Andrew Harris","year":2026,"position":"LB","stars":4,"rating_247":89.0,"committed_to":"South Carolina","lat":35.1170873,"lng":-80.723718,"hometown_city":"Matthews","hometown_state":"NC"},{"name":"Kedric Golston II","year":2026,"position":"LB","stars":4,"rating_247":89.0,"committed_to":"Tennessee","lat":39.0437192,"lng":-77.4874899,"hometown_city":"Ashburn","hometown_state":"VA"},{"name":"Tyson Harley","year":2026,"position":"LB","stars":4,"rating_247":89.0,"committed_to":"Virginia Tech","lat":38.8949855,"lng":-77.0365708,"hometown_city":"Washington","hometown_state":"DC"},{"name":"Trevor Gibbs","year":2026,"position":"LB","stars":3,"rating_247":89.0,"committed_to":"Indiana","lat":41.4169806,"lng":-87.3653136,"hometown_city":"Crown Point","hometown_state":"IN"},{"name":"Ziggy Moore","year":2026,"position":"LB","stars":null,"rating_247":89.0,"committed_to":"North Carolina State","lat":40.8781,"lng":-77.7996,"hometown_city":"Pittsburgh","hometown_state":"PA"},{"name":"Kenneth Goodwin III","year":2026,"position":"LB","stars":null,"rating_247":88.0,"committed_to":"SMU","lat":28.6305,"lng":-82.4497,"hometown_city":"Miami","hometown_state":"FL"},{"name":"Ant Davis","year":2026,"position":"LB","stars":null,"rating_247":88.0,"committed_to":"Mississippi","lat":32.6415,"lng":-83.4426,"hometown_city":"Loganville","hometown_state":"GA"},{"name":"Cameron Thomas","year":2026,"position":"LB","stars":null,"rating_247":88.0,"committed_to":"Illinois","lat":40.2862,"lng":-82.7937,"hometown_city":"West Chester","hometown_state":"OH"},{"name":"Aden Reeder","year":2026,"position":"LB","stars":3,"rating_247":88.0,"committed_to":"Michigan","lat":39.1014537,"lng":-84.5124602,"hometown_city":"Cincinnati","hometown_state":"OH"},{"name":"Trey McGlothlin","year":2026,"position":"LB","stars":3,"rating_247":87.0,"committed_to":"West Virginia","lat":35.9420431,"lng":-95.8833235,"hometown_city":"Bixby","hometown_state":"OK"},{"name":"Hudson Dunn","year":2026,"position":"LB","stars":3,"rating_247":87.0,"committed_to":"Minnesota","lat":33.5806115,"lng":-112.2372942,"hometown_city":"Peoria","hometown_state":"AZ"},{"name":"Colsen Gatten","year":2026,"position":"LB","stars":3,"rating_247":87.0,"committed_to":"Duke","lat":40.4416941,"lng":-79.9900861,"hometown_city":"Pittsburgh","hometown_state":"PA"},{"name":"Reilarean Phillips","year":2026,"position":"LB","stars":3,"rating_247":87.0,"committed_to":"Tulsa","lat":29.7589382,"lng":-95.3676974,"hometown_city":"Houston","hometown_state":"TX"},{"name":"Steve Klein","year":2026,"position":"LB","stars":3,"rating_247":87.0,"committed_to":"Boston College","lat":40.9912087,"lng":-74.0326395,"hometown_city":"Westwood","hometown_state":"NJ"},{"name":"DJ Ackerson Jr.","year":2026,"position":"LB","stars":null,"rating_247":87.0,"committed_to":"Kansas State","lat":35.5889,"lng":-97.4943,"hometown_city":"Oklahoma City","hometown_state":"OK"},{"name":"Jaxon Pyatt","year":2026,"position":"LB","stars":3,"rating_247":87.0,"committed_to":"California","lat":39.8211225,"lng":-105.22074299044587,"hometown_city":"Arvada","hometown_state":"CO"},{"name":"Mekhi Volcy","year":2026,"position":"LB","stars":null,"rating_247":86.0,"committed_to":"Boston College","lat":42.2596,"lng":-71.8083,"hometown_city":"Bedford","hometown_state":"MA"},{"name":"Ellis Alloway","year":2026,"position":"LB","stars":3,"rating_247":86.0,"committed_to":"Liberty","lat":30.4057552,"lng":-86.618842,"hometown_city":"Fort Walton Beach","hometown_state":"FL"},{"name":"Chad Fairchild","year":2026,"position":"LB","stars":3,"rating_247":86.0,"committed_to":"East Carolina","lat":33.3870578,"lng":-84.2829784,"hometown_city":"Hampton","hometown_state":"GA"},{"name":"Taylor Johnson","year":2026,"position":"LB","stars":3,"rating_247":86.0,"committed_to":"Southern California","lat":34.1083449,"lng":-117.2897652,"hometown_city":"San Bernardino","hometown_state":"CA"},{"name":"Maurice Barnes","year":2026,"position":"LB","stars":3,"rating_247":85.0,"committed_to":null,"lat":40.2663107,"lng":-76.8861122,"hometown_city":"Harrisburg","hometown_state":"PA"},{"name":"Amarion Jones","year":2026,"position":"LB","stars":3,"rating_247":84.0,"committed_to":"Kennesaw State","lat":33.5670562,"lng":-84.5810418,"hometown_city":"Fairburn","hometown_state":"GA"},{"name":"Khary Adams","year":2026,"position":"CB","stars":5,"rating_247":97.0,"committed_to":"Notre Dame","lat":39.4018552,"lng":-76.602388,"hometown_city":"Towson","hometown_state":"MD"},{"name":"Ayden Pouncey","year":2026,"position":"CB","stars":4,"rating_247":96.0,"committed_to":"Notre Dame","lat":26.13784445,"lng":-81.75399813758739,"hometown_city":"Winter Park","hometown_state":"FL"},{"name":"J'Zavien Currence","year":2026,"position":"CB","stars":4,"rating_247":96.0,"committed_to":"South Carolina","lat":34.9248667,"lng":-81.0250784,"hometown_city":"Rock Hill","hometown_state":"SC"},{"name":"Damon Ferguson","year":2026,"position":"CB","stars":4,"rating_247":93.0,"committed_to":"Pittsburgh","lat":39.2908816,"lng":-76.610759,"hometown_city":"Baltimore","hometown_state":"MD"},{"name":"Nick Hankins Jr.","year":2026,"position":"CB","stars":null,"rating_247":93.0,"committed_to":"Illinois","lat":40.0417,"lng":-89.1965,"hometown_city":"Belleville","hometown_state":"IL"},{"name":"Jordan Thomas","year":2026,"position":"CB","stars":4,"rating_247":93.0,"committed_to":"Ohio State","lat":40.9543943,"lng":-74.0308504,"hometown_city":"Oradell","hometown_state":"NJ"},{"name":"Khmari Bing","year":2026,"position":"CB","stars":4,"rating_247":92.0,"committed_to":"Ohio State","lat":39.2908816,"lng":-76.610759,"hometown_city":"Baltimore","hometown_state":"MD"},{"name":"Jaydin Broadnax","year":2026,"position":"CB","stars":4,"rating_247":92.0,"committed_to":"Louisville","lat":26.3586885,"lng":-80.0830984,"hometown_city":"Boca Raton","hometown_state":"FL"},{"name":"Sean Johnson","year":2026,"position":"CB","stars":3,"rating_247":89.0,"committed_to":"Maryland","lat":39.1278864,"lng":-76.6869128,"hometown_city":"Severn","hometown_state":"MD"},{"name":"Jordan Crutchfield","year":2026,"position":"CB","stars":3,"rating_247":88.0,"committed_to":"Florida State","lat":27.6387163,"lng":-80.3975399,"hometown_city":"Vero Beach","hometown_state":"FL"},{"name":"Hakim Satterwhite","year":2026,"position":"CB","stars":3,"rating_247":88.0,"committed_to":"Maryland","lat":39.2908816,"lng":-76.610759,"hometown_city":"Baltimore","hometown_state":"MD"},{"name":"KJ McClain","year":2026,"position":"CB","stars":3,"rating_247":88.0,"committed_to":"Tennessee","lat":41.0467635,"lng":-74.0229173,"hometown_city":"Montvale","hometown_state":"NJ"},{"name":"CJ Lavender","year":2026,"position":"CB","stars":3,"rating_247":88.0,"committed_to":"UCLA","lat":33.7494951,"lng":-117.8732213,"hometown_city":"Santa Ana","hometown_state":"CA"},{"name":"Chauncey Davis Jr.","year":2026,"position":"CB","stars":null,"rating_247":88.0,"committed_to":"Southern Mississippi","lat":32.6415,"lng":-83.4426,"hometown_city":"Suwanee","hometown_state":"GA"},{"name":"Chase Geter","year":2026,"position":"CB","stars":3,"rating_247":88.0,"committed_to":"Syracuse","lat":39.0437192,"lng":-77.4874899,"hometown_city":"Ashburn","hometown_state":"VA"},{"name":"Victor Lincoln Jr.","year":2026,"position":"CB","stars":null,"rating_247":87.0,"committed_to":"Mississippi","lat":31.4757,"lng":-99.3312,"hometown_city":"Lancaster","hometown_state":"TX"},{"name":"Gerald Green Jr.","year":2026,"position":"CB","stars":3,"rating_247":87.0,"committed_to":"Boston College","lat":30.0798826,"lng":-95.4172549,"hometown_city":"Spring","hometown_state":"TX"},{"name":"Jalon Copeland","year":2026,"position":"CB","stars":3,"rating_247":87.0,"committed_to":"Arkansas","lat":30.8327022,"lng":-83.2784851,"hometown_city":"Valdosta","hometown_state":"GA"},{"name":"Jordyn Best","year":2026,"position":"CB","stars":3,"rating_247":87.0,"committed_to":"North Carolina State","lat":34.0007493,"lng":-81.0343313,"hometown_city":"Columbia","hometown_state":"SC"},{"name":"Wayne Henry","year":2026,"position":"CB","stars":3,"rating_247":86.0,"committed_to":"Auburn","lat":39.2908816,"lng":-76.610759,"hometown_city":"Baltimore","hometown_state":"MD"},{"name":"Xavier Myers","year":2026,"position":"CB","stars":3,"rating_247":86.0,"committed_to":"Boston College","lat":39.2908816,"lng":-76.610759,"hometown_city":"Baltimore","hometown_state":"MD"},{"name":"Jeremiah Favorite","year":2026,"position":"CB","stars":3,"rating_247":86.0,"committed_to":"Michigan State","lat":35.04136,"lng":-81.97882024148419,"hometown_city":"Boiling Springs","hometown_state":"SC"},{"name":"Bryce Williams","year":2026,"position":"CB","stars":3,"rating_247":85.0,"committed_to":"Buffalo","lat":40.3284403,"lng":-74.790718,"hometown_city":"Pennington","hometown_state":"NJ"},{"name":"Terron Johnson","year":2026,"position":"CB","stars":3,"rating_247":85.0,"committed_to":"Massachusetts","lat":41.4662093,"lng":-72.1573008,"hometown_city":"Oakdale","hometown_state":"CT"},{"name":"Yalik Carter","year":2026,"position":"CB","stars":3,"rating_247":84.0,"committed_to":null,"lat":39.4496857,"lng":-75.7166811,"hometown_city":"Middletown","hometown_state":"DE"},{"name":"Johnathan Joseph Jr.","year":2026,"position":"CB","stars":null,"rating_247":84.0,"committed_to":"Houston","lat":31.4757,"lng":-99.3312,"hometown_city":"Houston","hometown_state":"TX"},{"name":"Zay West","year":2026,"position":"CB","stars":null,"rating_247":83.0,"committed_to":"Florida International","lat":28.6305,"lng":-82.4497,"hometown_city":"Madison","hometown_state":"FL"},{"name":"Odell Teel","year":2026,"position":"CB","stars":null,"rating_247":null,"committed_to":"Ferris State","lat":38.9896,"lng":-75.505,"hometown_city":"Wilmington","hometown_state":"DE"},{"name":"Jireh Edwards","year":2026,"position":"S","stars":5,"rating_247":97.0,"committed_to":"Alabama","lat":38.8165274,"lng":-76.7519753,"hometown_city":"Upper Marlboro","hometown_state":"MD"},{"name":"Polo Anderson","year":2026,"position":"S","stars":null,"rating_247":93.0,"committed_to":"Clemson","lat":33.9169,"lng":-80.8964,"hometown_city":"Roebuck","hometown_state":"SC"},{"name":"Darrell Carey","year":2026,"position":"S","stars":3,"rating_247":92.0,"committed_to":"Maryland","lat":38.9529442,"lng":-76.9408647,"hometown_city":"Hyattsville","hometown_state":"MD"},{"name":"Xavier Lherisse","year":2026,"position":"S","stars":4,"rating_247":91.0,"committed_to":"Oregon","lat":28.0836269,"lng":-80.6081089,"hometown_city":"Melbourne","hometown_state":"FL"},{"name":"CJ Hester","year":2026,"position":"S","stars":4,"rating_247":88.0,"committed_to":"Florida","lat":28.3553873,"lng":-80.7318827,"hometown_city":"Cocoa","hometown_state":"FL"},{"name":"Kaiden Hall","year":2026,"position":"S","stars":4,"rating_247":88.0,"committed_to":"Florida","lat":30.6324149,"lng":-87.0396881,"hometown_city":"Milton","hometown_state":"FL"},{"name":"Daijon Gaines","year":2026,"position":"S","stars":3,"rating_247":88.0,"committed_to":"Pittsburg State","lat":36.1556805,"lng":-95.9929113,"hometown_city":"Tulsa","hometown_state":"OK"},{"name":"Jermaine Santana-Diaz","year":2026,"position":"S","stars":3,"rating_247":88.0,"committed_to":"Colorado State","lat":29.6185669,"lng":-95.5377215,"hometown_city":"Missouri City","hometown_state":"TX"},{"name":"Koby Sarkodie","year":2026,"position":"S","stars":3,"rating_247":88.0,"committed_to":"North Carolina State","lat":39.3265775,"lng":-76.7181764750945,"hometown_city":"Gwynn Oak","hometown_state":"MD"},{"name":"Zeth Thues","year":2026,"position":"S","stars":3,"rating_247":88.0,"committed_to":"Arizona State","lat":33.5806115,"lng":-112.2372942,"hometown_city":"Peoria","hometown_state":"AZ"},{"name":"Jordan Rodriguez","year":2026,"position":"S","stars":3,"rating_247":87.0,"committed_to":"Boston College","lat":40.7281575,"lng":-74.0776417,"hometown_city":"Jersey City","hometown_state":"NJ"},{"name":"Da'Jon Green","year":2026,"position":"S","stars":3,"rating_247":86.0,"committed_to":"Boston College","lat":35.4975654,"lng":-97.2689263,"hometown_city":"Choctaw","hometown_state":"OK"},{"name":"Dorian Rutledge","year":2026,"position":"S","stars":3,"rating_247":86.0,"committed_to":"Delaware","lat":39.4496857,"lng":-75.7166811,"hometown_city":"Middletown","hometown_state":"DE"},{"name":"Jax Pope","year":2026,"position":"S","stars":3,"rating_247":85.0,"committed_to":"Coastal Carolina","lat":34.1206564,"lng":-84.0043513,"hometown_city":"Buford","hometown_state":"GA"},{"name":"Chris Palmer","year":2026,"position":"S","stars":3,"rating_247":85.0,"committed_to":"Chicago State","lat":38.8949855,"lng":-77.0365708,"hometown_city":"Washington","hometown_state":"DC"},{"name":"Carter Meadows","year":2026,"position":"ATH","stars":5,"rating_247":98.0,"committed_to":"Michigan","lat":38.8949855,"lng":-77.0365708,"hometown_city":"Washington","hometown_state":"DC"},{"name":"Brandon Arrington","year":2026,"position":"ATH","stars":5,"rating_247":98.0,"committed_to":"Texas A&M","lat":32.7174209,"lng":-117.1627714,"hometown_city":"San Diego","hometown_state":"CA"},{"name":"Joey O'Brien","year":2026,"position":"ATH","stars":5,"rating_247":97.0,"committed_to":"Notre Dame","lat":40.1023326,"lng":-75.1521195,"hometown_city":"Glenside","hometown_state":"PA"},{"name":"Mack Sutter","year":2026,"position":"ATH","stars":4,"rating_247":96.0,"committed_to":"Alabama","lat":40.8616513,"lng":-89.6777665,"hometown_city":"Dunlap","hometown_state":"IL"},{"name":"Camdin Portis","year":2026,"position":"ATH","stars":4,"rating_247":94.0,"committed_to":"Miami","lat":35.2272,"lng":-80.843083,"hometown_city":"Charlotte","hometown_state":"NC"},{"name":"Legend Bey","year":2026,"position":"ATH","stars":4,"rating_247":93.0,"committed_to":"Ohio State","lat":32.747893,"lng":-96.4719289,"hometown_city":"Forney","hometown_state":"TX"},{"name":"Derrek Cooper","year":2026,"position":"ATH","stars":4,"rating_247":93.0,"committed_to":"Texas","lat":26.0112014,"lng":-80.1494901,"hometown_city":"Hollywood","hometown_state":"FL"},{"name":"Tyren Hornes","year":2026,"position":"ATH","stars":4,"rating_247":93.0,"committed_to":"UCF","lat":27.3364347,"lng":-82.5306527,"hometown_city":"Sarasota","hometown_state":"FL"},{"name":"Sequel Patterson","year":2026,"position":"ATH","stars":4,"rating_247":91.0,"committed_to":"South Carolina","lat":35.0073697,"lng":-80.9450759,"hometown_city":"Fort Mill","hometown_state":"SC"},{"name":"Nas Rankin","year":2026,"position":"ATH","stars":null,"rating_247":91.0,"committed_to":"Illinois","lat":40.0417,"lng":-89.1965,"hometown_city":"Chicago","hometown_state":"IL"},{"name":"Jackson Ford","year":2026,"position":"ATH","stars":4,"rating_247":91.0,"committed_to":"Penn State","lat":40.034444,"lng":-75.514444,"hometown_city":"Malvern","hometown_state":"PA"},{"name":"Marcello Vitti","year":2026,"position":"ATH","stars":4,"rating_247":91.0,"committed_to":"Iowa","lat":42.3222599,"lng":-83.1763145,"hometown_city":"Dearborn","hometown_state":"MI"},{"name":"Amare' Gough","year":2026,"position":"ATH","stars":null,"rating_247":90.0,"committed_to":"Syracuse","lat":37.5215,"lng":-78.8537,"hometown_city":"Richmond","hometown_state":"VA"},{"name":"Jyron Hughley","year":2026,"position":"ATH","stars":3,"rating_247":89.0,"committed_to":"West Virginia","lat":26.715364,"lng":-80.0532942,"hometown_city":"West Palm Beach","hometown_state":"FL"},{"name":"Chris Hewitt Jr.","year":2026,"position":"ATH","stars":3,"rating_247":89.0,"committed_to":"Georgia Tech","lat":39.4018552,"lng":-76.602388,"hometown_city":"Towson","hometown_state":"MD"},{"name":"Xavier Okwufulueze","year":2026,"position":"ATH","stars":3,"rating_247":89.0,"committed_to":"Oklahoma","lat":36.2661536,"lng":-95.8549456,"hometown_city":"Owasso","hometown_state":"OK"},{"name":"Cord Nolan","year":2026,"position":"ATH","stars":3,"rating_247":89.0,"committed_to":"Texas Tech","lat":35.9420431,"lng":-95.8833235,"hometown_city":"Bixby","hometown_state":"OK"},{"name":"Josiah Zayas","year":2026,"position":"ATH","stars":3,"rating_247":89.0,"committed_to":"Penn State","lat":40.5382375,"lng":-74.39451734508772,"hometown_city":"Edison","hometown_state":"NJ"},{"name":"Braeden Presley","year":2026,"position":"ATH","stars":3,"rating_247":88.0,"committed_to":"Oklahoma State","lat":35.9420431,"lng":-95.8833235,"hometown_city":"Bixby","hometown_state":"OK"},{"name":"Shavar Young Jr.","year":2026,"position":"ATH","stars":3,"rating_247":88.0,"committed_to":"Clemson","lat":35.9603948,"lng":-83.9210261,"hometown_city":"Knoxville","hometown_state":"TN"},{"name":"Elias Coke","year":2026,"position":"ATH","stars":3,"rating_247":88.0,"committed_to":"Rutgers","lat":40.2663107,"lng":-76.8861122,"hometown_city":"Harrisburg","hometown_state":"PA"},{"name":"Reston Lehman","year":2026,"position":"ATH","stars":4,"rating_247":88.0,"committed_to":"Pittsburgh","lat":40.2625702,"lng":-80.1872797,"hometown_city":"Canonsburg","hometown_state":"PA"},{"name":"Zahir Cobb","year":2026,"position":"ATH","stars":3,"rating_247":88.0,"committed_to":"Maryland","lat":38.8949855,"lng":-77.0365708,"hometown_city":"Washington","hometown_state":"DC"},{"name":"Zaiden McDonald","year":2026,"position":"ATH","stars":3,"rating_247":88.0,"committed_to":"Stanford","lat":40.735657,"lng":-74.1723667,"hometown_city":"Newark","hometown_state":"NJ"},{"name":"Jaylen Burrell","year":2026,"position":"ATH","stars":3,"rating_247":88.0,"committed_to":"Central State","lat":39.2908816,"lng":-76.610759,"hometown_city":"Baltimore","hometown_state":"MD"},{"name":"Amari Sabb","year":2026,"position":"ATH","stars":3,"rating_247":87.0,"committed_to":"Alabama","lat":39.7027677,"lng":-75.1119434,"hometown_city":"Glassboro","hometown_state":"NJ"},{"name":"Tay Lockett","year":2026,"position":"ATH","stars":3,"rating_247":87.0,"committed_to":"Arkansas","lat":32.7174209,"lng":-117.1627714,"hometown_city":"San Diego","hometown_state":"CA"},{"name":"Daylen Green","year":2026,"position":"ATH","stars":3,"rating_247":87.0,"committed_to":"Florida State","lat":30.5871948,"lng":-84.5832619,"hometown_city":"Quincy","hometown_state":"FL"},{"name":"Josiah Dozier","year":2026,"position":"ATH","stars":3,"rating_247":87.0,"committed_to":"Minnesota","lat":33.5909365,"lng":-86.4908168,"hometown_city":"Moody","hometown_state":"AL"},{"name":"Somad Eaddy","year":2026,"position":"ATH","stars":3,"rating_247":87.0,"committed_to":"Wake Forest","lat":34.9381361,"lng":-82.2272119,"hometown_city":"Greer","hometown_state":"SC"},{"name":"DaMari Carter","year":2026,"position":"ATH","stars":3,"rating_247":87.0,"committed_to":"Virginia","lat":37.5385087,"lng":-77.43428,"hometown_city":"Richmond","hometown_state":"VA"},{"name":"Lex Willis","year":2026,"position":"ATH","stars":null,"rating_247":86.0,"committed_to":"Georgia Tech","lat":28.6305,"lng":-82.4497,"hometown_city":"Orlando","hometown_state":"FL"},{"name":"DJ Williams","year":2026,"position":"ATH","stars":3,"rating_247":86.0,"committed_to":"Louisville","lat":27.9477595,"lng":-82.458444,"hometown_city":"Tampa","hometown_state":"FL"},{"name":"Dana Greenhow","year":2026,"position":"ATH","stars":3,"rating_247":86.0,"committed_to":"Purdue","lat":33.4713249,"lng":-84.5972005,"hometown_city":"Tyrone","hometown_state":"GA"},{"name":"Dkwan Thomas","year":2026,"position":"ATH","stars":3,"rating_247":86.0,"committed_to":"James Madison","lat":38.8576128,"lng":-76.8894171,"hometown_city":"District Heights","hometown_state":"MD"},{"name":"Aiden Smalls","year":2026,"position":"ATH","stars":3,"rating_247":86.0,"committed_to":"North Carolina State","lat":35.650711,"lng":-78.4563914,"hometown_city":"Clayton","hometown_state":"NC"},{"name":"Hunter Watson","year":2026,"position":"ATH","stars":3,"rating_247":86.0,"committed_to":"Temple","lat":40.7281575,"lng":-74.0776417,"hometown_city":"Jersey City","hometown_state":"NJ"},{"name":"Jack Duckworth","year":2026,"position":"ATH","stars":3,"rating_247":85.0,"committed_to":"Stanford","lat":32.9312336,"lng":-96.4597089,"hometown_city":"Rockwall","hometown_state":"TX"},{"name":"Charlie Hanafin","year":2026,"position":"ATH","stars":3,"rating_247":85.0,"committed_to":"West Virginia","lat":42.3317642,"lng":-71.1211635,"hometown_city":"Brookline","hometown_state":"MA"},{"name":"Izayah Lee","year":2026,"position":"ATH","stars":3,"rating_247":85.0,"committed_to":"Vanderbilt","lat":32.5920798,"lng":-96.7561083,"hometown_city":"Lancaster","hometown_state":"TX"},{"name":"Dallas Brannon","year":2026,"position":"ATH","stars":3,"rating_247":85.0,"committed_to":"Virginia","lat":35.2272,"lng":-80.843083,"hometown_city":"Charlotte","hometown_state":"NC"},{"name":"Nate Bailey","year":2026,"position":"ATH","stars":3,"rating_247":85.0,"committed_to":"Harvard","lat":41.0467635,"lng":-74.0229173,"hometown_city":"Montvale","hometown_state":"NJ"},{"name":"Dylan Abram","year":2026,"position":"ATH","stars":3,"rating_247":84.0,"committed_to":"Temple","lat":39.9527237,"lng":-75.1635262,"hometown_city":"Philadelphia","hometown_state":"PA"},{"name":"Eyan Stead Jr.","year":2026,"position":"ATH","stars":3,"rating_247":84.0,"committed_to":"Temple","lat":39.9527237,"lng":-75.1635262,"hometown_city":"Philadelphia","hometown_state":"PA"},{"name":"KaRon Ali","year":2026,"position":"ATH","stars":3,"rating_247":83.0,"committed_to":"Towson","lat":39.769838,"lng":-74.8873855,"hometown_city":"Atco","hometown_state":"NJ"},{"name":"Daryll Hill","year":2026,"position":"ATH","stars":3,"rating_247":83.0,"committed_to":null,"lat":38.8949855,"lng":-77.0365708,"hometown_city":"Washington","hometown_state":"DC"},{"name":"Camen Upshaw","year":2026,"position":"ATH","stars":3,"rating_247":83.0,"committed_to":"South Alabama","lat":30.8327022,"lng":-83.2784851,"hometown_city":"Valdosta","hometown_state":"GA"},{"name":"Drew Alsup","year":2026,"position":"ATH","stars":null,"rating_247":82.0,"committed_to":"Massachusetts","lat":42.2596,"lng":-71.8083,"hometown_city":"Easthampton","hometown_state":"MA"},{"name":"Brogan McNab","year":2026,"position":"ATH","stars":3,"rating_247":81.0,"committed_to":"UAB","lat":28.0836269,"lng":-80.6081089,"hometown_city":"Melbourne","hometown_state":"FL"},{"name":"Zach Brown","year":2026,"position":"ATH","stars":null,"rating_247":null,"committed_to":"Eastern Michigan","lat":40.8781,"lng":-77.7996,"hometown_city":"Harrisburg","hometown_state":"PA"},{"name":"Kharon Craig","year":2026,"position":"ATH","stars":null,"rating_247":null,"committed_to":null,"lat":41.6219,"lng":-72.7273,"hometown_city":"Avon","hometown_state":"CT"},{"name":"Harran Zureikat","year":2026,"position":"K","stars":3,"rating_247":81.0,"committed_to":"Georgia","lat":40.4416941,"lng":-79.9900861,"hometown_city":"Pittsburgh","hometown_state":"PA"},{"name":"Jonathan Hewitt","year":2026,"position":"K","stars":3,"rating_247":81.0,"committed_to":"Boston College","lat":39.7439398,"lng":-84.6364891,"hometown_city":"Eaton","hometown_state":"OH"}],"2027":[{"name":"Gunner Rivers","year":2027,"position":"QB","stars":null,"rating_247":94.0,"committed_to":"North Carolina State","lat":32.7794,"lng":-86.8287,"hometown_city":"Fairhope","hometown_state":"AL"},{"name":"Jake Nawrot","year":2027,"position":"QB","stars":null,"rating_247":94.0,"committed_to":"Kentucky","lat":40.0417,"lng":-89.1965,"hometown_city":"Arlington Heights","hometown_state":"IL"},{"name":"Will Mencl","year":2027,"position":"QB","stars":null,"rating_247":94.0,"committed_to":"Oregon","lat":34.2744,"lng":-111.6602,"hometown_city":"Chandler","hometown_state":"AZ"},{"name":"Jayce Johnson","year":2027,"position":"QB","stars":null,"rating_247":90.0,"committed_to":"Texas A&M","lat":32.6415,"lng":-83.4426,"hometown_city":"Valdosta","hometown_state":"GA"},{"name":"Brady Edmunds","year":2027,"position":"QB","stars":null,"rating_247":90.0,"committed_to":"Ohio State","lat":37.1841,"lng":-119.4696,"hometown_city":"Huntington Beach","hometown_state":"CA"},{"name":"Kamden Lopati","year":2027,"position":"QB","stars":null,"rating_247":89.0,"committed_to":"Michigan","lat":39.321,"lng":-111.0937,"hometown_city":"Salt Lake City","hometown_state":"UT"},{"name":"William Wood","year":2027,"position":"QB","stars":null,"rating_247":88.0,"committed_to":"Penn State","lat":42.2596,"lng":-71.8083,"hometown_city":"Westwood","hometown_state":"MA"},{"name":"Brodie Campbell","year":2027,"position":"QB","stars":null,"rating_247":88.0,"committed_to":"Georgia Tech","lat":32.6415,"lng":-83.4426,"hometown_city":"Newnan","hometown_state":"GA"},{"name":"Greydon Howell","year":2027,"position":"QB","stars":null,"rating_247":88.0,"committed_to":"Oklahoma","lat":35.5889,"lng":-97.4943,"hometown_city":"Broken Bow","hometown_state":"OK"},{"name":"Aidan McPherson","year":2027,"position":"QB","stars":null,"rating_247":87.0,"committed_to":"Duke","lat":32.6415,"lng":-83.4426,"hometown_city":"Rome","hometown_state":"GA"},{"name":"DJ Hunter","year":2027,"position":"QB","stars":null,"rating_247":87.0,"committed_to":null,"lat":32.6415,"lng":-83.4426,"hometown_city":"Buford","hometown_state":"GA"},{"name":"Logan Flaherty","year":2027,"position":"QB","stars":null,"rating_247":86.0,"committed_to":"Florida State","lat":28.6305,"lng":-82.4497,"hometown_city":"Port Charlotte","hometown_state":"FL"},{"name":"Lonnie Andrews III","year":2027,"position":"QB","stars":null,"rating_247":86.0,"committed_to":"Virginia","lat":37.5215,"lng":-78.8537,"hometown_city":"Chesapeake","hometown_state":"VA"},{"name":"Derrick Baker","year":2027,"position":"QB","stars":null,"rating_247":86.0,"committed_to":"Tennessee","lat":32.6415,"lng":-83.4426,"hometown_city":"Alpharetta","hometown_state":"GA"},{"name":"Brice McCurdy","year":2027,"position":"QB","stars":null,"rating_247":86.0,"committed_to":"Texas Christian","lat":31.4757,"lng":-99.3312,"hometown_city":"Robinson","hometown_state":"TX"},{"name":"Cason Myers","year":2027,"position":"QB","stars":null,"rating_247":86.0,"committed_to":"Arkansas","lat":32.7794,"lng":-86.8287,"hometown_city":"Auburn","hometown_state":"AL"},{"name":"Bradley Cassier","year":2027,"position":"QB","stars":null,"rating_247":85.0,"committed_to":"New Mexico","lat":37.1841,"lng":-119.4696,"hometown_city":"Santa Monica","hometown_state":"CA"},{"name":"Brayden Santibanez","year":2027,"position":"QB","stars":null,"rating_247":85.0,"committed_to":"Iowa","lat":35.858,"lng":-86.3505,"hometown_city":"Collierville","hometown_state":"TN"},{"name":"JD Brown","year":2027,"position":"QB","stars":null,"rating_247":85.0,"committed_to":null,"lat":28.6305,"lng":-82.4497,"hometown_city":"Santa Rosa Beach","hometown_state":"FL"},{"name":"Daniel Mielke","year":2027,"position":"QB","stars":null,"rating_247":84.0,"committed_to":null,"lat":37.1841,"lng":-119.4696,"hometown_city":"Murrieta","hometown_state":"CA"},{"name":"Furian Inferrera","year":2027,"position":"QB","stars":null,"rating_247":84.0,"committed_to":"Minnesota","lat":37.1841,"lng":-119.4696,"hometown_city":"San Marcos","hometown_state":"CA"},{"name":"Jace German","year":2027,"position":"QB","stars":null,"rating_247":84.0,"committed_to":null,"lat":32.6415,"lng":-83.4426,"hometown_city":"Tucker","hometown_state":"GA"},{"name":"RJ Day","year":2027,"position":"QB","stars":null,"rating_247":84.0,"committed_to":"Northwestern","lat":40.2862,"lng":-82.7937,"hometown_city":"Columbus","hometown_state":"OH"},{"name":"Ben Rolapp","year":2027,"position":"QB","stars":null,"rating_247":84.0,"committed_to":"Boston College","lat":41.6219,"lng":-72.7273,"hometown_city":"Greenwich","hometown_state":"CT"},{"name":"Tristan Sabb","year":2027,"position":"QB","stars":null,"rating_247":null,"committed_to":null,"lat":39.055,"lng":-76.7909,"hometown_city":"Baltimore","hometown_state":"MD"},{"name":"David Segarra","year":2027,"position":"RB","stars":null,"rating_247":91.0,"committed_to":null,"lat":33.9169,"lng":-80.8964,"hometown_city":"Duncan","hometown_state":"SC"},{"name":"Gary Walker","year":2027,"position":"RB","stars":null,"rating_247":91.0,"committed_to":"Clemson","lat":32.6415,"lng":-83.4426,"hometown_city":"Fairburn","hometown_state":"GA"},{"name":"Isaiah Rogers","year":2027,"position":"RB","stars":null,"rating_247":90.0,"committed_to":"Notre Dame","lat":42.2596,"lng":-71.8083,"hometown_city":"Springfield","hometown_state":"MA"},{"name":"Elijah Kimble","year":2027,"position":"RB","stars":null,"rating_247":89.0,"committed_to":null,"lat":42.9538,"lng":-75.5268,"hometown_city":"Buffalo","hometown_state":"NY"},{"name":"Quinterrius Gipson","year":2027,"position":"RB","stars":null,"rating_247":89.0,"committed_to":"Georgia Tech","lat":32.6415,"lng":-83.4426,"hometown_city":"Marietta","hometown_state":"GA"},{"name":"Da'Jon Talley-Rhodes","year":2027,"position":"RB","stars":null,"rating_247":89.0,"committed_to":"Indiana","lat":38.9101,"lng":-77.0147,"hometown_city":"Washington","hometown_state":"DC"},{"name":"Amir Brown","year":2027,"position":"RB","stars":null,"rating_247":88.0,"committed_to":"Nebraska","lat":35.5557,"lng":-79.3877,"hometown_city":"Rolesville","hometown_state":"NC"},{"name":"Chukwuma Odoh","year":2027,"position":"RB","stars":null,"rating_247":88.0,"committed_to":"Penn State","lat":40.1907,"lng":-74.6728,"hometown_city":"Paramus","hometown_state":"NJ"},{"name":"Kenyon Norman","year":2027,"position":"RB","stars":null,"rating_247":87.0,"committed_to":null,"lat":40.2862,"lng":-82.7937,"hometown_city":"West Chester","hometown_state":"OH"},{"name":"Lee Prince Jr.","year":2027,"position":"RB","stars":null,"rating_247":87.0,"committed_to":"West Virginia","lat":28.6305,"lng":-82.4497,"hometown_city":"Opa Locka","hometown_state":"FL"},{"name":"Justice Hardy","year":2027,"position":"RB","stars":null,"rating_247":87.0,"committed_to":"Louisville","lat":40.8781,"lng":-77.7996,"hometown_city":"Reading","hometown_state":"PA"},{"name":"Xavier Bala","year":2027,"position":"RB","stars":null,"rating_247":87.0,"committed_to":"Boston College","lat":42.9538,"lng":-75.5268,"hometown_city":"Long Island City","hometown_state":"NY"},{"name":"Trenton Lynch","year":2027,"position":"RB","stars":null,"rating_247":86.0,"committed_to":"Rutgers","lat":33.9169,"lng":-80.8964,"hometown_city":"Spartanburg","hometown_state":"SC"},{"name":"Ninaud Joseph","year":2027,"position":"RB","stars":null,"rating_247":86.0,"committed_to":null,"lat":28.6305,"lng":-82.4497,"hometown_city":"Naples","hometown_state":"FL"},{"name":"Amos Bradford","year":2027,"position":"RB","stars":null,"rating_247":86.0,"committed_to":"Purdue","lat":28.6305,"lng":-82.4497,"hometown_city":"Hollywood","hometown_state":"FL"},{"name":"Javarris Warner","year":2027,"position":"RB","stars":null,"rating_247":86.0,"committed_to":"Duke","lat":32.6415,"lng":-83.4426,"hometown_city":"LaGrange","hometown_state":"GA"},{"name":"Sergarion Gunsby","year":2027,"position":"RB","stars":null,"rating_247":85.0,"committed_to":null,"lat":28.6305,"lng":-82.4497,"hometown_city":"Ocala","hometown_state":"FL"},{"name":"Kennie Leggett","year":2027,"position":"RB","stars":null,"rating_247":81.0,"committed_to":null,"lat":37.1841,"lng":-119.4696,"hometown_city":"Corona","hometown_state":"CA"},{"name":"Kory Brown","year":2027,"position":"RB","stars":null,"rating_247":null,"committed_to":null,"lat":42.9538,"lng":-75.5268,"hometown_city":"Staten Island","hometown_state":"NY"},{"name":"Domonic Cook","year":2027,"position":"RB","stars":null,"rating_247":null,"committed_to":null,"lat":42.9538,"lng":-75.5268,"hometown_city":"Hamburg","hometown_state":"NY"},{"name":"Deyon Smith","year":2027,"position":"RB","stars":null,"rating_247":null,"committed_to":null,"lat":38.9101,"lng":-77.0147,"hometown_city":"Washington","hometown_state":"DC"},{"name":"Joel Bradford","year":2027,"position":"RB","stars":null,"rating_247":null,"committed_to":null,"lat":32.6415,"lng":-83.4426,"hometown_city":"Suwanee","hometown_state":"GA"},{"name":"Makael Williams","year":2027,"position":"RB","stars":null,"rating_247":null,"committed_to":null,"lat":28.6305,"lng":-82.4497,"hometown_city":"Milton","hometown_state":"FL"},{"name":"Easton Royal","year":2027,"position":"WR","stars":null,"rating_247":98.0,"committed_to":"Texas","lat":31.0689,"lng":-91.9968,"hometown_city":"New Orleans","hometown_state":"LA"},{"name":"Dakota Guerrant","year":2027,"position":"WR","stars":null,"rating_247":98.0,"committed_to":null,"lat":44.3467,"lng":-85.4102,"hometown_city":"Harper Woods","hometown_state":"MI"},{"name":"Mekai Brown","year":2027,"position":"WR","stars":null,"rating_247":98.0,"committed_to":"Southern California","lat":41.6219,"lng":-72.7273,"hometown_city":"Greenwich","hometown_state":"CT"},{"name":"Jamarin Simmons","year":2027,"position":"WR","stars":null,"rating_247":98.0,"committed_to":"Clemson","lat":28.6305,"lng":-82.4497,"hometown_city":"Tallahassee","hometown_state":"FL"},{"name":"Jaden Upshaw","year":2027,"position":"WR","stars":null,"rating_247":94.0,"committed_to":"Texas A&M","lat":32.6415,"lng":-83.4426,"hometown_city":"Leesburg","hometown_state":"GA"},{"name":"Julius Jones","year":2027,"position":"WR","stars":null,"rating_247":92.0,"committed_to":null,"lat":28.6305,"lng":-82.4497,"hometown_city":"Fort Lauderdale","hometown_state":"FL"},{"name":"Briceson Thrower Jr.","year":2027,"position":"WR","stars":null,"rating_247":91.0,"committed_to":"Texas","lat":31.4757,"lng":-99.3312,"hometown_city":"Forney","hometown_state":"TX"},{"name":"Quentin Burrell","year":2027,"position":"WR","stars":null,"rating_247":90.0,"committed_to":"Michigan","lat":40.0417,"lng":-89.1965,"hometown_city":"Chicago","hometown_state":"IL"},{"name":"Branden Sharpe","year":2027,"position":"WR","stars":null,"rating_247":90.0,"committed_to":"Indiana","lat":39.8942,"lng":-86.2816,"hometown_city":"Brownsburg","hometown_state":"IN"},{"name":"Myles McAfee","year":2027,"position":"WR","stars":null,"rating_247":90.0,"committed_to":null,"lat":39.055,"lng":-76.7909,"hometown_city":"Severn","hometown_state":"MD"},{"name":"Iveon Lewis","year":2027,"position":"WR","stars":null,"rating_247":89.0,"committed_to":"Kentucky","lat":37.5215,"lng":-78.8537,"hometown_city":"Richmond","hometown_state":"VA"},{"name":"Brylan Oduor","year":2027,"position":"WR","stars":null,"rating_247":89.0,"committed_to":"Auburn","lat":35.858,"lng":-86.3505,"hometown_city":"Murfreesboro","hometown_state":"TN"},{"name":"Taurean Rawlins","year":2027,"position":"WR","stars":null,"rating_247":89.0,"committed_to":"Georgia","lat":32.6415,"lng":-83.4426,"hometown_city":"Atlanta","hometown_state":"GA"},{"name":"Jamar Taylor","year":2027,"position":"WR","stars":null,"rating_247":89.0,"committed_to":"Rutgers","lat":38.9896,"lng":-75.505,"hometown_city":"Wilmington","hometown_state":"DE"},{"name":"Chanin Harris","year":2027,"position":"WR","stars":null,"rating_247":89.0,"committed_to":"Syracuse","lat":33.9169,"lng":-80.8964,"hometown_city":"Duncan","hometown_state":"SC"},{"name":"Anthony Jennings","year":2027,"position":"WR","stars":null,"rating_247":88.0,"committed_to":"Florida","lat":28.6305,"lng":-82.4497,"hometown_city":"Fort Lauderdale","hometown_state":"FL"},{"name":"Kyren Caldwell","year":2027,"position":"WR","stars":null,"rating_247":88.0,"committed_to":null,"lat":28.6305,"lng":-82.4497,"hometown_city":"Lake City","hometown_state":"FL"},{"name":"Majay Thompson","year":2027,"position":"WR","stars":null,"rating_247":88.0,"committed_to":null,"lat":35.5557,"lng":-79.3877,"hometown_city":"Shelby","hometown_state":"NC"},{"name":"James Branch","year":2027,"position":"WR","stars":null,"rating_247":88.0,"committed_to":null,"lat":39.055,"lng":-76.7909,"hometown_city":"Baltimore","hometown_state":"MD"},{"name":"Anthony Roberts","year":2027,"position":"WR","stars":null,"rating_247":88.0,"committed_to":"Virginia Tech","lat":35.5557,"lng":-79.3877,"hometown_city":"Rolesville","hometown_state":"NC"},{"name":"Isaiah Alvarez","year":2027,"position":"WR","stars":null,"rating_247":88.0,"committed_to":null,"lat":40.1907,"lng":-74.6728,"hometown_city":"Ramsey","hometown_state":"NJ"},{"name":"Bryan Porter","year":2027,"position":"WR","stars":null,"rating_247":88.0,"committed_to":null,"lat":40.1907,"lng":-74.6728,"hometown_city":"Oradell","hometown_state":"NJ"},{"name":"DJ Huggins","year":2027,"position":"WR","stars":null,"rating_247":88.0,"committed_to":"South Carolina","lat":32.6415,"lng":-83.4426,"hometown_city":"Kennesaw","hometown_state":"GA"},{"name":"Laron Baker Jr.","year":2027,"position":"WR","stars":null,"rating_247":87.0,"committed_to":null,"lat":40.0417,"lng":-89.1965,"hometown_city":"East St. Louis","hometown_state":"IL"},{"name":"Dominick Harvey","year":2027,"position":"WR","stars":null,"rating_247":86.0,"committed_to":"Liberty","lat":28.6305,"lng":-82.4497,"hometown_city":"Hawthorne","hometown_state":"FL"},{"name":"Jacob Thomas","year":2027,"position":"WR","stars":null,"rating_247":86.0,"committed_to":"Pittsburgh","lat":28.6305,"lng":-82.4497,"hometown_city":"Pembroke Pines","hometown_state":"FL"},{"name":"Khristian Jackson","year":2027,"position":"WR","stars":null,"rating_247":86.0,"committed_to":null,"lat":33.9169,"lng":-80.8964,"hometown_city":"Columbia","hometown_state":"SC"},{"name":"Jordan Carrasquillo","year":2027,"position":"WR","stars":null,"rating_247":86.0,"committed_to":"Indiana","lat":32.6415,"lng":-83.4426,"hometown_city":"Alpharetta","hometown_state":"GA"},{"name":"Julian Cromartie","year":2027,"position":"WR","stars":null,"rating_247":86.0,"committed_to":"Clemson","lat":31.4757,"lng":-99.3312,"hometown_city":"The Woodlands","hometown_state":"TX"},{"name":"Armani Hill","year":2027,"position":"WR","stars":null,"rating_247":86.0,"committed_to":"Boston College","lat":32.6415,"lng":-83.4426,"hometown_city":"Fairburn","hometown_state":"GA"},{"name":"Wesley Winn","year":2027,"position":"WR","stars":null,"rating_247":85.0,"committed_to":null,"lat":28.6305,"lng":-82.4497,"hometown_city":"Boca Raton","hometown_state":"FL"},{"name":"Magnus Talma","year":2027,"position":"WR","stars":null,"rating_247":85.0,"committed_to":"Boston College","lat":28.6305,"lng":-82.4497,"hometown_city":"Orlando","hometown_state":"FL"},{"name":"Kaiden Drinkwater","year":2027,"position":"WR","stars":null,"rating_247":84.0,"committed_to":"Holy Cross","lat":42.2596,"lng":-71.8083,"hometown_city":"Marion","hometown_state":"MA"},{"name":"Landon White","year":2027,"position":"WR","stars":null,"rating_247":84.0,"committed_to":"Oregon State","lat":37.1841,"lng":-119.4696,"hometown_city":"Rancho Cucamonga","hometown_state":"CA"},{"name":"Nahjae Smith","year":2027,"position":"WR","stars":null,"rating_247":null,"committed_to":null,"lat":40.1907,"lng":-74.6728,"hometown_city":"Elizabeth","hometown_state":"NJ"},{"name":"Zakai Murphy","year":2027,"position":"WR","stars":null,"rating_247":null,"committed_to":null,"lat":40.1907,"lng":-74.6728,"hometown_city":"Ramsey","hometown_state":"NJ"},{"name":"James Klaiss Jr.","year":2027,"position":"WR","stars":null,"rating_247":null,"committed_to":null,"lat":28.6305,"lng":-82.4497,"hometown_city":"Hollywood","hometown_state":"FL"},{"name":"Jahmari Johnston","year":2027,"position":"WR","stars":null,"rating_247":null,"committed_to":null,"lat":28.6305,"lng":-82.4497,"hometown_city":"Pembroke Pines","hometown_state":"FL"},{"name":"Shavis Linder","year":2027,"position":"WR","stars":null,"rating_247":null,"committed_to":null,"lat":28.6305,"lng":-82.4497,"hometown_city":"Fort Lauderdale","hometown_state":"FL"},{"name":"Lorontae Davis","year":2027,"position":"WR","stars":null,"rating_247":null,"committed_to":"Eastern Michigan","lat":28.6305,"lng":-82.4497,"hometown_city":"Boca Raton","hometown_state":"FL"},{"name":"Jayden St. Fort","year":2027,"position":"WR","stars":null,"rating_247":null,"committed_to":"Eastern Michigan","lat":28.6305,"lng":-82.4497,"hometown_city":"Boca Raton","hometown_state":"FL"},{"name":"Khy'lieb Rodriguez","year":2027,"position":"WR","stars":null,"rating_247":null,"committed_to":null,"lat":35.5557,"lng":-79.3877,"hometown_city":"Charlotte","hometown_state":"NC"},{"name":"Collin Porterfield","year":2027,"position":"WR","stars":null,"rating_247":null,"committed_to":null,"lat":32.6415,"lng":-83.4426,"hometown_city":"Gainesville","hometown_state":"GA"},{"name":"Jace Cummings","year":2027,"position":"WR","stars":null,"rating_247":null,"committed_to":null,"lat":44.3467,"lng":-85.4102,"hometown_city":"Comstock Park","hometown_state":"MI"},{"name":"Jaxon Dollar","year":2027,"position":"TE","stars":null,"rating_247":98.0,"committed_to":"Georgia","lat":35.5557,"lng":-79.3877,"hometown_city":"Denver","hometown_state":"NC"},{"name":"Titus Hawk","year":2027,"position":"TE","stars":null,"rating_247":90.0,"committed_to":"Notre Dame","lat":35.5889,"lng":-97.4943,"hometown_city":"Choctaw","hometown_state":"OK"},{"name":"Tommy Douglas","year":2027,"position":"TE","stars":null,"rating_247":89.0,"committed_to":"Florida","lat":40.1907,"lng":-74.6728,"hometown_city":"Princeton","hometown_state":"NJ"},{"name":"Colton Johnson","year":2027,"position":"TE","stars":null,"rating_247":88.0,"committed_to":null,"lat":35.858,"lng":-86.3505,"hometown_city":"Baxter","hometown_state":"TN"},{"name":"JT Geraci","year":2027,"position":"TE","stars":null,"rating_247":88.0,"committed_to":"Texas","lat":40.1907,"lng":-74.6728,"hometown_city":"Ramsey","hometown_state":"NJ"},{"name":"Jace Cannon","year":2027,"position":"TE","stars":null,"rating_247":88.0,"committed_to":"Southern California","lat":37.1841,"lng":-119.4696,"hometown_city":"San Mateo","hometown_state":"CA"},{"name":"Max Patterson","year":2027,"position":"TE","stars":null,"rating_247":88.0,"committed_to":"Pittsburgh","lat":32.6415,"lng":-83.4426,"hometown_city":"Suwanee","hometown_state":"GA"},{"name":"Sydney Padilla","year":2027,"position":"TE","stars":null,"rating_247":87.0,"committed_to":"Rutgers","lat":40.1907,"lng":-74.6728,"hometown_city":"West Orange","hometown_state":"NJ"},{"name":"Joey Hunter","year":2027,"position":"TE","stars":null,"rating_247":87.0,"committed_to":"Nebraska","lat":32.6415,"lng":-83.4426,"hometown_city":"Loganville","hometown_state":"GA"},{"name":"Charlie Fowler","year":2027,"position":"TE","stars":null,"rating_247":87.0,"committed_to":"Boston College","lat":40.0417,"lng":-89.1965,"hometown_city":"Wilmette","hometown_state":"IL"},{"name":"Saleh Atariwa","year":2027,"position":"TE","stars":null,"rating_247":86.0,"committed_to":"Rutgers","lat":42.9538,"lng":-75.5268,"hometown_city":"Bronx","hometown_state":"NY"},{"name":"Joel Gomez","year":2027,"position":"TE","stars":null,"rating_247":86.0,"committed_to":null,"lat":43.6805,"lng":-71.5811,"hometown_city":"Manchester","hometown_state":"NH"},{"name":"Oakley Keegan","year":2027,"position":"TE","stars":null,"rating_247":85.0,"committed_to":"Alabama","lat":42.9538,"lng":-75.5268,"hometown_city":"Liverpool","hometown_state":"NY"},{"name":"Hayes Brawner","year":2027,"position":"TE","stars":null,"rating_247":null,"committed_to":"James Madison","lat":35.5557,"lng":-79.3877,"hometown_city":"Raleigh","hometown_state":"NC"},{"name":"Collin Walls","year":2027,"position":"TE","stars":null,"rating_247":null,"committed_to":"Temple","lat":40.1907,"lng":-74.6728,"hometown_city":"Princeton","hometown_state":"NJ"},{"name":"Ayden Ashlock","year":2027,"position":"TE","stars":null,"rating_247":null,"committed_to":null,"lat":32.6415,"lng":-83.4426,"hometown_city":"Dalton","hometown_state":"GA"},{"name":"Titus Hawk","year":2027,"position":"TE","stars":null,"rating_247":null,"committed_to":null,"lat":35.5889,"lng":-97.4943,"hometown_city":"Choctaw","hometown_state":"OK"},{"name":"Oluwasemilore Olubobola","year":2027,"position":"OT","stars":null,"rating_247":98.0,"committed_to":"Notre Dame","lat":40.1907,"lng":-74.6728,"hometown_city":"Jersey City","hometown_state":"NJ"},{"name":"Kaeden Penny","year":2027,"position":"OT","stars":null,"rating_247":98.0,"committed_to":"Oklahoma","lat":35.5889,"lng":-97.4943,"hometown_city":"Bixby","hometown_state":"OK"},{"name":"Kennedee Jackson","year":2027,"position":"OT","stars":null,"rating_247":94.0,"committed_to":"Florida","lat":32.6415,"lng":-83.4426,"hometown_city":"Lithonia","hometown_state":"GA"},{"name":"Kaeden Scott","year":2027,"position":"OT","stars":null,"rating_247":93.0,"committed_to":"Texas A&M","lat":31.4757,"lng":-99.3312,"hometown_city":"San Antonio","hometown_state":"TX"},{"name":"Dominic Black","year":2027,"position":"OT","stars":null,"rating_247":91.0,"committed_to":"Kentucky","lat":40.2862,"lng":-82.7937,"hometown_city":"New Madison","hometown_state":"OH"},{"name":"Dylan Latell","year":2027,"position":"OT","stars":null,"rating_247":91.0,"committed_to":"Virginia Tech","lat":40.2862,"lng":-82.7937,"hometown_city":"Girard","hometown_state":"OH"},{"name":"Jimmy Kalis","year":2027,"position":"OT","stars":null,"rating_247":90.0,"committed_to":"Ohio State","lat":40.8781,"lng":-77.7996,"hometown_city":"Pittsburgh","hometown_state":"PA"},{"name":"Dewey Young","year":2027,"position":"OT","stars":null,"rating_247":90.0,"committed_to":null,"lat":44.3467,"lng":-85.4102,"hometown_city":"Kalamazoo","hometown_state":"MI"},{"name":"Alijah Shaw","year":2027,"position":"OT","stars":null,"rating_247":90.0,"committed_to":null,"lat":38.4937,"lng":-98.3804,"hometown_city":"Leawood","hometown_state":"KS"},{"name":"Cameron Wagner","year":2027,"position":"OT","stars":null,"rating_247":90.0,"committed_to":"Oregon","lat":40.0417,"lng":-89.1965,"hometown_city":"St. Joseph","hometown_state":"IL"},{"name":"Carter Jones","year":2027,"position":"OT","stars":null,"rating_247":90.0,"committed_to":"Clemson","lat":37.5215,"lng":-78.8537,"hometown_city":"Poquoson","hometown_state":"VA"},{"name":"Kal-El Johnson","year":2027,"position":"OT","stars":null,"rating_247":90.0,"committed_to":null,"lat":40.2862,"lng":-82.7937,"hometown_city":"Cincinnati","hometown_state":"OH"},{"name":"Nate Brenneman","year":2027,"position":"OT","stars":null,"rating_247":89.0,"committed_to":"Iowa","lat":42.0751,"lng":-93.496,"hometown_city":"Rock Valley","hometown_state":"IA"},{"name":"Botond Varga","year":2027,"position":"OT","stars":null,"rating_247":89.0,"committed_to":"Syracuse","lat":42.2596,"lng":-71.8083,"hometown_city":"Marion","hometown_state":"MA"},{"name":"Miller Westerfield","year":2027,"position":"OT","stars":null,"rating_247":89.0,"committed_to":null,"lat":32.6415,"lng":-83.4426,"hometown_city":"Roswell","hometown_state":"GA"},{"name":"Jacob Burns","year":2027,"position":"OT","stars":null,"rating_247":88.0,"committed_to":null,"lat":32.6415,"lng":-83.4426,"hometown_city":"Rabun Gap","hometown_state":"GA"},{"name":"Abram Eisenhower","year":2027,"position":"OT","stars":null,"rating_247":88.0,"committed_to":"Georgia","lat":32.6415,"lng":-83.4426,"hometown_city":"Valdosta","hometown_state":"GA"},{"name":"Conner Rutherford","year":2027,"position":"OT","stars":null,"rating_247":88.0,"committed_to":"North Carolina State","lat":40.2862,"lng":-82.7937,"hometown_city":"Chillicothe","hometown_state":"OH"},{"name":"Ryan Robbins","year":2027,"position":"OT","stars":null,"rating_247":88.0,"committed_to":"Penn State","lat":40.8781,"lng":-77.7996,"hometown_city":"Upper St. Clair","hometown_state":"PA"},{"name":"Patrick O'Brien","year":2027,"position":"OT","stars":null,"rating_247":87.0,"committed_to":"Purdue","lat":40.2862,"lng":-82.7937,"hometown_city":"Cincinnati","hometown_state":"OH"},{"name":"Lual Aleu","year":2027,"position":"OT","stars":null,"rating_247":86.0,"committed_to":"Missouri","lat":40.2862,"lng":-82.7937,"hometown_city":"Cincinnati","hometown_state":"OH"},{"name":"Sidney Rouleau","year":2027,"position":"OT","stars":null,"rating_247":86.0,"committed_to":"Michigan","lat":31.4757,"lng":-99.3312,"hometown_city":"Bullard","hometown_state":"TX"},{"name":"Eric Anderson","year":2027,"position":"OT","stars":null,"rating_247":85.0,"committed_to":null,"lat":44.3467,"lng":-85.4102,"hometown_city":"Novi","hometown_state":"MI"},{"name":"Dominic Maser","year":2027,"position":"OT","stars":null,"rating_247":84.0,"committed_to":null,"lat":42.2596,"lng":-71.8083,"hometown_city":"Marion","hometown_state":"MA"},{"name":"Nathaniel Miller","year":2027,"position":"OT","stars":null,"rating_247":83.0,"committed_to":"Florida International","lat":28.6305,"lng":-82.4497,"hometown_city":"Hollywood","hometown_state":"FL"},{"name":"Kendon Bauer","year":2027,"position":"OT","stars":null,"rating_247":null,"committed_to":null,"lat":39.055,"lng":-76.7909,"hometown_city":"Frederick","hometown_state":"MD"},{"name":"Aden Norris","year":2027,"position":"OT","stars":null,"rating_247":null,"committed_to":"Connecticut","lat":40.2862,"lng":-82.7937,"hometown_city":"Louisville","hometown_state":"OH"},{"name":"Andrew Davalla","year":2027,"position":"OT","stars":null,"rating_247":null,"committed_to":null,"lat":40.2862,"lng":-82.7937,"hometown_city":"Cleveland","hometown_state":"OH"},{"name":"Terrance Smith","year":2027,"position":"IOL","stars":null,"rating_247":95.0,"committed_to":null,"lat":40.8781,"lng":-77.7996,"hometown_city":"Lansdale","hometown_state":"PA"},{"name":"James Halter","year":2027,"position":"IOL","stars":null,"rating_247":94.0,"committed_to":"Notre Dame","lat":40.8781,"lng":-77.7996,"hometown_city":"Pittsburgh","hometown_state":"PA"},{"name":"Ian Walker","year":2027,"position":"IOL","stars":null,"rating_247":89.0,"committed_to":"Kentucky","lat":40.1907,"lng":-74.6728,"hometown_city":"Pennington","hometown_state":"NJ"},{"name":"DaJohn Yarborough","year":2027,"position":"IOL","stars":null,"rating_247":89.0,"committed_to":null,"lat":34.2744,"lng":-111.6602,"hometown_city":"Chandler","hometown_state":"AZ"},