{"2026":[{"name":"Bryson Beaver","year":2026,"position":"QB","stars":4,"rating_247":91.0,"committed_to":"Oregon","lat":33.577752399999994,"lng":-117.18845420205307,"hometown_city":"Murrieta","hometown_state":"CA"},{"name":"Tommy Carr","year":2026,"position":"QB","stars":3,"rating_247":91.0,"committed_to":"Michigan","lat":42.1667072,"lng":-83.7816075,"hometown_city":"Saline","hometown_state":"MI"},{"name":"Rocco Marriott","year":2026,"position":"QB","stars":4,"rating_247":89.0,"committed_to":"UCF","lat":39.3703535,"lng":-94.781086,"hometown_city":"Platte City","hometown_state":"MO"},{"name":"Kayd Coffman","year":2026,"position":"QB","stars":4,"rating_247":89.0,"committed_to":"Michigan State","lat":42.9632405,"lng":-85.6678639,"hometown_city":"Grand Rapids","hometown_state":"MI"},{"name":"Terry Walker III","year":2026,"position":"QB","stars":3,"rating_247":88.0,"committed_to":"Duke","lat":39.9555928,"lng":-86.0138729,"hometown_city":"Fishers","hometown_state":"IN"},{"name":"Lincoln Watkins","year":2026,"position":"QB","stars":3,"rating_247":88.0,"committed_to":"Kentucky","lat":42.9815877,"lng":-82.440466,"hometown_city":"Port Huron","hometown_state":"MI"},{"name":"Bronzden Chaffin","year":2026,"position":"QB","stars":null,"rating_247":87.0,"committed_to":"Appalachian State","lat":35.858,"lng":-86.3505,"hometown_city":"Baxter","hometown_state":"TN"},{"name":"Nathan Bernhard","year":2026,"position":"QB","stars":3,"rating_247":87.0,"committed_to":"Maryland","lat":40.8686675,"lng":-82.3182178,"hometown_city":"Ashland","hometown_state":"OH"},{"name":"Cam O'Hara","year":2026,"position":"QB","stars":3,"rating_247":86.0,"committed_to":"Western Kentucky","lat":38.9458951,"lng":-84.680501,"hometown_city":"Union","hometown_state":"KY"},{"name":"Jarin Mock","year":2026,"position":"QB","stars":3,"rating_247":86.0,"committed_to":"Bowling Green","lat":39.896277299999994,"lng":-82.77319049748806,"hometown_city":"Pickerington","hometown_state":"OH"},{"name":"Levi Davis","year":2026,"position":"QB","stars":3,"rating_247":85.0,"committed_to":"Ohio","lat":40.1983958,"lng":-83.0101843,"hometown_city":"Lewis Center","hometown_state":"OH"},{"name":"Rhys Brush","year":2026,"position":"QB","stars":3,"rating_247":85.0,"committed_to":"Auburn","lat":27.998541000000003,"lng":-82.27488400114905,"hometown_city":"Seffner","hometown_state":"FL"},{"name":"Rocco Williams","year":2026,"position":"QB","stars":3,"rating_247":84.0,"committed_to":"Middle Tennessee","lat":39.896277299999994,"lng":-82.77319049748806,"hometown_city":"Pickerington","hometown_state":"OH"},{"name":"Anthony Coellner","year":2026,"position":"QB","stars":3,"rating_247":84.0,"committed_to":"Boston College","lat":39.9788017,"lng":-86.1189257,"hometown_city":"Carmel","hometown_state":"IN"},{"name":"Dylan Dreasky","year":2026,"position":"QB","stars":null,"rating_247":83.0,"committed_to":"Bowling Green","lat":44.3467,"lng":-85.4102,"hometown_city":"Linden","hometown_state":"MI"},{"name":"Brogan McNab","year":2026,"position":"QB","stars":3,"rating_247":81.0,"committed_to":"UAB","lat":28.0836269,"lng":-80.6081089,"hometown_city":"Melbourne","hometown_state":"FL"},{"name":"Jaxson Dosh","year":2026,"position":"QB","stars":3,"rating_247":80.0,"committed_to":"Western Michigan","lat":43.0346872,"lng":-83.5180155,"hometown_city":"Davison","hometown_state":"MI"},{"name":"Andrew Knight","year":2026,"position":"QB","stars":null,"rating_247":null,"committed_to":"Illinois State","lat":44.3467,"lng":-85.4102,"hometown_city":"Detroit","hometown_state":"MI"},{"name":"Nate Rocheleau","year":2026,"position":"QB","stars":null,"rating_247":null,"committed_to":null,"lat":44.3467,"lng":-85.4102,"hometown_city":"Harper Woods","hometown_state":"MI"},{"name":"Edward Jordan","year":2026,"position":"QB","stars":null,"rating_247":null,"committed_to":"Lafayette","lat":28.6305,"lng":-82.4497,"hometown_city":"Jacksonville","hometown_state":"FL"},{"name":"Favour Akih","year":2026,"position":"RB","stars":4,"rating_247":89.0,"committed_to":"Ohio State","lat":40.2986724,"lng":-83.067965,"hometown_city":"Delaware","hometown_state":"OH"},{"name":"Henry Ohlinger","year":2026,"position":"RB","stars":4,"rating_247":88.0,"committed_to":"Indiana","lat":39.9622601,"lng":-83.0007065,"hometown_city":"Columbus","hometown_state":"OH"},{"name":"Kory Amachree","year":2026,"position":"RB","stars":null,"rating_247":88.0,"committed_to":"Kansas","lat":44.3467,"lng":-85.4102,"hometown_city":"Haslett","hometown_state":"MI"},{"name":"Sedric Addison","year":2026,"position":"RB","stars":3,"rating_247":88.0,"committed_to":"Boston College","lat":34.0514898,"lng":-84.0712997,"hometown_city":"Suwanee","hometown_state":"GA"},{"name":"Jett Walker","year":2026,"position":"RB","stars":3,"rating_247":86.0,"committed_to":"Texas","lat":30.671598,"lng":-97.65500660120435,"hometown_city":"Georgetown","hometown_state":"TX"},{"name":"Jayden Terry","year":2026,"position":"RB","stars":3,"rating_247":85.0,"committed_to":"Ferris State","lat":42.909598,"lng":-85.7630956,"hometown_city":"Grandville","hometown_state":"MI"},{"name":"Robert Lathon Jr.","year":2026,"position":"RB","stars":null,"rating_247":85.0,"committed_to":"Middle Tennessee","lat":40.2862,"lng":-82.7937,"hometown_city":"Columbus","hometown_state":"OH"},{"name":"Chayce Burton","year":2026,"position":"RB","stars":3,"rating_247":85.0,"committed_to":"Chicago State","lat":38.2542376,"lng":-85.759407,"hometown_city":"Louisville","hometown_state":"KY"},{"name":"TJ Ward Jr.","year":2026,"position":"RB","stars":3,"rating_247":85.0,"committed_to":null,"lat":36.1622296,"lng":-86.7743531,"hometown_city":"Nashville","hometown_state":"TN"},{"name":"Rawls Patterson","year":2026,"position":"RB","stars":3,"rating_247":85.0,"committed_to":"Furman","lat":36.1622296,"lng":-86.7743531,"hometown_city":"Nashville","hometown_state":"TN"},{"name":"Adarion Nettles","year":2026,"position":"RB","stars":null,"rating_247":84.0,"committed_to":"North Texas","lat":31.4757,"lng":-99.3312,"hometown_city":"Arlington","hometown_state":"TX"},{"name":"Adrian Symalla","year":2026,"position":"RB","stars":3,"rating_247":84.0,"committed_to":"Navy","lat":39.8211225,"lng":-105.22074299044587,"hometown_city":"Arvada","hometown_state":"CO"},{"name":"Tristin Blackmon","year":2026,"position":"RB","stars":3,"rating_247":84.0,"committed_to":"Bowling Green","lat":32.4640245,"lng":-86.4596966,"hometown_city":"Prattville","hometown_state":"AL"},{"name":"Anthony McMullen","year":2026,"position":"RB","stars":null,"rating_247":84.0,"committed_to":"Ball State","lat":40.2862,"lng":-82.7937,"hometown_city":"Massillon","hometown_state":"OH"},{"name":"Tomarion Steward","year":2026,"position":"RB","stars":3,"rating_247":83.0,"committed_to":"Miami (OH)","lat":43.2341813,"lng":-86.2483921,"hometown_city":"Muskegon","hometown_state":"MI"},{"name":"Ryder Hooks","year":2026,"position":"RB","stars":3,"rating_247":83.0,"committed_to":"Eastern Kentucky","lat":39.5150576,"lng":-84.3982763,"hometown_city":"Middletown","hometown_state":"OH"},{"name":"Deshon Jenkins","year":2026,"position":"RB","stars":3,"rating_247":83.0,"committed_to":"Bryant","lat":26.640628,"lng":-81.8723084,"hometown_city":"Fort Myers","hometown_state":"FL"},{"name":"Brandon White","year":2026,"position":"RB","stars":3,"rating_247":83.0,"committed_to":"Kent State","lat":41.4819932,"lng":-81.7981908,"hometown_city":"Lakewood","hometown_state":"OH"},{"name":"Zayne Williams","year":2026,"position":"RB","stars":null,"rating_247":null,"committed_to":null,"lat":40.2862,"lng":-82.7937,"hometown_city":"Ironton","hometown_state":"OH"},{"name":"Elija Mason","year":2026,"position":"RB","stars":null,"rating_247":null,"committed_to":null,"lat":28.6305,"lng":-82.4497,"hometown_city":"Seffner","hometown_state":"FL"},{"name":"Josiah Claybrooks","year":2026,"position":"RB","stars":null,"rating_247":null,"committed_to":null,"lat":35.858,"lng":-86.3505,"hometown_city":"Clarksville","hometown_state":"TN"},{"name":"Sam Sparacio","year":2026,"position":"RB","stars":null,"rating_247":null,"committed_to":"Army","lat":28.6305,"lng":-82.4497,"hometown_city":"Naples","hometown_state":"FL"},{"name":"Gino Addison","year":2026,"position":"RB","stars":null,"rating_247":null,"committed_to":"North Carolina Central","lat":28.6305,"lng":-82.4497,"hometown_city":"Middleburg","hometown_state":"FL"},{"name":"Devin Fitzgerald","year":2026,"position":"WR","stars":4,"rating_247":92.0,"committed_to":"Notre Dame","lat":33.4484367,"lng":-112.0741417,"hometown_city":"Phoenix","hometown_state":"AZ"},{"name":"Kenyon Alston","year":2026,"position":"WR","stars":3,"rating_247":89.0,"committed_to":"Illinois","lat":28.5421109,"lng":-81.3790304,"hometown_city":"Orlando","hometown_state":"FL"},{"name":"Jonah Winston","year":2026,"position":"WR","stars":3,"rating_247":89.0,"committed_to":"Florida State","lat":33.3848933,"lng":-86.8070484,"hometown_city":"Hoover","hometown_state":"AL"},{"name":"Tayveon Wilson","year":2026,"position":"WR","stars":3,"rating_247":89.0,"committed_to":"Clemson","lat":38.4192496,"lng":-82.445154,"hometown_city":"Huntington","hometown_state":"WV"},{"name":"Jordan Crutchfield","year":2026,"position":"WR","stars":3,"rating_247":88.0,"committed_to":"Florida State","lat":27.6387163,"lng":-80.3975399,"hometown_city":"Vero Beach","hometown_state":"FL"},{"name":"Jaeden Ricketts","year":2026,"position":"WR","stars":4,"rating_247":88.0,"committed_to":"Ohio State","lat":39.9956193,"lng":-82.6743341,"hometown_city":"Pataskala","hometown_state":"OH"},{"name":"Khamill Pruitt","year":2026,"position":"WR","stars":3,"rating_247":88.0,"committed_to":"Texas Christian","lat":32.701938999999996,"lng":-97.10562379033699,"hometown_city":"Arlington","hometown_state":"TX"},{"name":"Tatum Bell Jr.","year":2026,"position":"WR","stars":3,"rating_247":88.0,"committed_to":"Nevada, Las Vegas","lat":33.046233,"lng":-96.994174,"hometown_city":"Lewisville","hometown_state":"TX"},{"name":"Nate Agyemang","year":2026,"position":"WR","stars":null,"rating_247":88.0,"committed_to":"Georgia Tech","lat":32.6415,"lng":-83.4426,"hometown_city":"Marietta","hometown_state":"GA"},{"name":"Tayshon Bardo","year":2026,"position":"WR","stars":3,"rating_247":87.0,"committed_to":"Ball State","lat":41.6619927,"lng":-86.1586156,"hometown_city":"Mishawaka","hometown_state":"IN"},{"name":"Brian Williams Jr.","year":2026,"position":"WR","stars":3,"rating_247":86.0,"committed_to":"Auburn","lat":28.5421109,"lng":-81.3790304,"hometown_city":"Orlando","hometown_state":"FL"},{"name":"Diondre Smith","year":2026,"position":"WR","stars":3,"rating_247":86.0,"committed_to":"Iowa","lat":30.311908,"lng":-81.3964734,"hometown_city":"Neptune Beach","hometown_state":"FL"},{"name":"Marceles Carey","year":2026,"position":"WR","stars":null,"rating_247":86.0,"committed_to":"Bowling Green","lat":28.6305,"lng":-82.4497,"hometown_city":"DeLand","hometown_state":"FL"},{"name":"Kayden Steptoe","year":2026,"position":"WR","stars":3,"rating_247":86.0,"committed_to":"Montana State","lat":30.5955289,"lng":-96.3071042,"hometown_city":"College Station","hometown_state":"TX"},{"name":"Kaden Page","year":2026,"position":"WR","stars":3,"rating_247":86.0,"committed_to":"Ohio","lat":40.5678265,"lng":-84.1935594,"hometown_city":"Wapakoneta","hometown_state":"OH"},{"name":"Lennox Lemon","year":2026,"position":"WR","stars":3,"rating_247":85.0,"committed_to":"Kent State","lat":40.7967244,"lng":-81.5215093,"hometown_city":"Massillon","hometown_state":"OH"},{"name":"Mark Hanniford","year":2026,"position":"WR","stars":3,"rating_247":85.0,"committed_to":"Ball State","lat":26.3586885,"lng":-80.0830984,"hometown_city":"Boca Raton","hometown_state":"FL"},{"name":"Angelo Chapman","year":2026,"position":"WR","stars":3,"rating_247":85.0,"committed_to":"Western Michigan","lat":42.9275277,"lng":-83.6299518,"hometown_city":"Grand Blanc","hometown_state":"MI"},{"name":"Logan Barnes","year":2026,"position":"WR","stars":3,"rating_247":85.0,"committed_to":"Connecticut","lat":40.5583739,"lng":-85.6591442,"hometown_city":"Marion","hometown_state":"IN"},{"name":"Joseph Saffold","year":2026,"position":"WR","stars":3,"rating_247":85.0,"committed_to":"Bowling Green","lat":41.4819932,"lng":-81.7981908,"hometown_city":"Lakewood","hometown_state":"OH"},{"name":"Seth Elchert","year":2026,"position":"WR","stars":3,"rating_247":85.0,"committed_to":"Toledo","lat":41.0413873,"lng":-83.6503982,"hometown_city":"Findlay","hometown_state":"OH"},{"name":"Santana Carlos","year":2026,"position":"WR","stars":3,"rating_247":84.0,"committed_to":"Western Carolina","lat":26.0112014,"lng":-80.1494901,"hometown_city":"Hollywood","hometown_state":"FL"},{"name":"Justen Hodge","year":2026,"position":"WR","stars":3,"rating_247":84.0,"committed_to":"Miami (OH)","lat":41.6661573,"lng":-81.339552,"hometown_city":"Mentor","hometown_state":"OH"},{"name":"Eric Paul Jr.","year":2026,"position":"WR","stars":3,"rating_247":84.0,"committed_to":null,"lat":33.5670562,"lng":-84.5810418,"hometown_city":"Fairburn","hometown_state":"GA"},{"name":"Carl Jean-Bart","year":2026,"position":"WR","stars":3,"rating_247":84.0,"committed_to":"Eastern Michigan","lat":28.5421109,"lng":-81.3790304,"hometown_city":"Orlando","hometown_state":"FL"},{"name":"Shawn Fishwick","year":2026,"position":"WR","stars":3,"rating_247":84.0,"committed_to":"Eastern Michigan","lat":39.6847822,"lng":-83.9296526,"hometown_city":"Xenia","hometown_state":"OH"},{"name":"Zach Hackleman","year":2026,"position":"WR","stars":3,"rating_247":84.0,"committed_to":"Ohio","lat":41.4819932,"lng":-81.7981908,"hometown_city":"Lakewood","hometown_state":"OH"},{"name":"Pauly Sadler","year":2026,"position":"WR","stars":3,"rating_247":83.0,"committed_to":"Bowling Green","lat":41.5051613,"lng":-81.6934446,"hometown_city":"Cleveland","hometown_state":"OH"},{"name":"Scoop Smith","year":2026,"position":"WR","stars":3,"rating_247":83.0,"committed_to":"Miami (OH)","lat":40.4416941,"lng":-79.9900861,"hometown_city":"Pittsburgh","hometown_state":"PA"},{"name":"Isaiah Hayward","year":2026,"position":"WR","stars":3,"rating_247":83.0,"committed_to":"Bowling Green","lat":41.6786754,"lng":-83.5127283,"hometown_city":"Toledo","hometown_state":"OH"},{"name":"Preston Jackson","year":2026,"position":"WR","stars":3,"rating_247":82.0,"committed_to":"Rice","lat":32.747893,"lng":-96.4719289,"hometown_city":"Forney","hometown_state":"TX"},{"name":"Cade Brooks","year":2026,"position":"WR","stars":3,"rating_247":82.0,"committed_to":"Bowling Green","lat":36.5486597,"lng":-86.6961102,"hometown_city":"Cross Plains","hometown_state":"TN"},{"name":"Jeff Ward","year":2026,"position":"WR","stars":null,"rating_247":null,"committed_to":null,"lat":40.2862,"lng":-82.7937,"hometown_city":"Cleveland","hometown_state":"OH"},{"name":"Caleb Anthony","year":2026,"position":"WR","stars":null,"rating_247":null,"committed_to":"Youngstown State","lat":40.2862,"lng":-82.7937,"hometown_city":"Columbus","hometown_state":"OH"},{"name":"Andrew Sloan","year":2026,"position":"WR","stars":null,"rating_247":null,"committed_to":"Butler","lat":39.8942,"lng":-86.2816,"hometown_city":"Indianapolis","hometown_state":"IN"},{"name":"Jaydon Wiseman","year":2026,"position":"WR","stars":null,"rating_247":null,"committed_to":null,"lat":34.2744,"lng":-111.6602,"hometown_city":"Scottsdale","hometown_state":"AZ"},{"name":"Jovan Green","year":2026,"position":"WR","stars":null,"rating_247":null,"committed_to":"South Dakota State","lat":40.0417,"lng":-89.1965,"hometown_city":"Oak Lawn","hometown_state":"IL"},{"name":"Elijah Hardy","year":2026,"position":"WR","stars":null,"rating_247":null,"committed_to":null,"lat":28.6305,"lng":-82.4497,"hometown_city":"Hollywood","hometown_state":"FL"},{"name":"Zacharias Walls","year":2026,"position":"WR","stars":null,"rating_247":null,"committed_to":null,"lat":28.6305,"lng":-82.4497,"hometown_city":"Boca Raton","hometown_state":"FL"},{"name":"Kyle Andrews","year":2026,"position":"WR","stars":null,"rating_247":null,"committed_to":"West Georgia","lat":28.6305,"lng":-82.4497,"hometown_city":"Boca Raton","hometown_state":"FL"},{"name":"Terron Bush","year":2026,"position":"WR","stars":null,"rating_247":null,"committed_to":null,"lat":44.3467,"lng":-85.4102,"hometown_city":"Detroit","hometown_state":"MI"},{"name":"Lincoln Keyes","year":2026,"position":"TE","stars":4,"rating_247":95.0,"committed_to":"Georgia","lat":42.1667072,"lng":-83.7816075,"hometown_city":"Saline","hometown_state":"MI"},{"name":"Brayden Fogle","year":2026,"position":"TE","stars":4,"rating_247":90.0,"committed_to":"Georgia","lat":40.75839,"lng":-82.5154471,"hometown_city":"Mansfield","hometown_state":"OH"},{"name":"Nick Lautar","year":2026,"position":"TE","stars":3,"rating_247":89.0,"committed_to":"Ohio State","lat":39.4353373,"lng":-84.2029922,"hometown_city":"Lebanon","hometown_state":"OH"},{"name":"Kentrell White","year":2026,"position":"TE","stars":3,"rating_247":88.0,"committed_to":"Bowling Green","lat":33.7490987,"lng":-84.3901849,"hometown_city":"Atlanta","hometown_state":"GA"},{"name":"Jack Janda","year":2026,"position":"TE","stars":3,"rating_247":87.0,"committed_to":"Iowa","lat":42.5869558,"lng":-83.36895696372882,"hometown_city":"Orchard Lake","hometown_state":"MI"},{"name":"Landen Miree","year":2026,"position":"TE","stars":3,"rating_247":87.0,"committed_to":"Arizona State","lat":39.1014537,"lng":-84.5124602,"hometown_city":"Cincinnati","hometown_state":"OH"},{"name":"Jalen Williams","year":2026,"position":"TE","stars":3,"rating_247":87.0,"committed_to":"Cincinnati","lat":33.9528472,"lng":-84.5496148,"hometown_city":"Marietta","hometown_state":"GA"},{"name":"Adam Gehm","year":2026,"position":"TE","stars":3,"rating_247":87.0,"committed_to":"Vanderbilt","lat":40.8027772,"lng":-80.1280528,"hometown_city":"Harmony","hometown_state":"PA"},{"name":"Maddox Hunstad","year":2026,"position":"TE","stars":3,"rating_247":86.0,"committed_to":"Bowling Green","lat":30.3321838,"lng":-81.655651,"hometown_city":"Jacksonville","hometown_state":"FL"},{"name":"Sam Hamilton","year":2026,"position":"TE","stars":3,"rating_247":86.0,"committed_to":"West Virginia","lat":39.1014537,"lng":-84.5124602,"hometown_city":"Cincinnati","hometown_state":"OH"},{"name":"Derron Gray Jr.","year":2026,"position":"TE","stars":3,"rating_247":85.0,"committed_to":"Bowling Green","lat":39.9622601,"lng":-83.0007065,"hometown_city":"Columbus","hometown_state":"OH"},{"name":"Owen Pollock","year":2026,"position":"TE","stars":3,"rating_247":85.0,"committed_to":"Florida Atlantic","lat":40.2425623,"lng":-82.8590673,"hometown_city":"Sunbury","hometown_state":"OH"},{"name":"Eli Wilt","year":2026,"position":"TE","stars":3,"rating_247":85.0,"committed_to":"Western Kentucky","lat":36.1622296,"lng":-86.7743531,"hometown_city":"Nashville","hometown_state":"TN"},{"name":"Rowen Walsh","year":2026,"position":"TE","stars":3,"rating_247":84.0,"committed_to":"Delaware","lat":39.1532123,"lng":-77.0668408,"hometown_city":"Olney","hometown_state":"MD"},{"name":"Trent Taylor","year":2026,"position":"TE","stars":3,"rating_247":84.0,"committed_to":"Bowling Green","lat":41.760326,"lng":-81.140932,"hometown_city":"Perry","hometown_state":"OH"},{"name":"Zack Wagner","year":2026,"position":"TE","stars":3,"rating_247":84.0,"committed_to":"Central Michigan","lat":42.4932575,"lng":-83.0062746,"hometown_city":"Warren","hometown_state":"MI"},{"name":"Max Jansenvanvuren","year":2026,"position":"TE","stars":null,"rating_247":83.0,"committed_to":"Charlotte","lat":44.3467,"lng":-85.4102,"hometown_city":"Waterford","hometown_state":"MI"},{"name":"Jackson Stoner","year":2026,"position":"TE","stars":3,"rating_247":83.0,"committed_to":"Texas-El Paso","lat":32.9312336,"lng":-96.4597089,"hometown_city":"Rockwall","hometown_state":"TX"},{"name":"Tripp Brown","year":2026,"position":"TE","stars":null,"rating_247":null,"committed_to":null,"lat":28.6305,"lng":-82.4497,"hometown_city":"Tampa","hometown_state":"FL"},{"name":"Lance Dawson","year":2026,"position":"OT","stars":4,"rating_247":92.0,"committed_to":"Cincinnati","lat":41.4516512,"lng":-82.0350598,"hometown_city":"Avon","hometown_state":"OH"},{"name":"Charlie Thom","year":2026,"position":"OT","stars":4,"rating_247":92.0,"committed_to":"Notre Dame","lat":41.8098209,"lng":-72.8306541,"hometown_city":"Avon","hometown_state":"CT"},{"name":"Tommy Fraumann","year":2026,"position":"OT","stars":3,"rating_247":91.0,"committed_to":"Michigan","lat":42.0757315,"lng":-87.7193768,"hometown_city":"Wilmette","hometown_state":"IL"},{"name":"Adam Guthrie","year":2026,"position":"OT","stars":4,"rating_247":89.0,"committed_to":"Clemson","lat":39.5364511,"lng":-83.4390843,"hometown_city":"Washington Court House","hometown_state":"OH"},{"name":"Travis Robertson","year":2026,"position":"OT","stars":3,"rating_247":88.0,"committed_to":"Bowling Green","lat":42.5679,"lng":-83.3733,"hometown_city":"West Bloomfield","hometown_state":"MI"},{"name":"Richard Thigpen","year":2026,"position":"OT","stars":3,"rating_247":87.0,"committed_to":"Memphis","lat":36.1622296,"lng":-86.7743531,"hometown_city":"Nashville","hometown_state":"TN"},{"name":"Jacob Crow","year":2026,"position":"OT","stars":3,"rating_247":87.0,"committed_to":"Texas Tech","lat":35.7895271,"lng":-83.9737935,"hometown_city":"Alcoa","hometown_state":"TN"},{"name":"Landry Brede","year":2026,"position":"OT","stars":3,"rating_247":87.0,"committed_to":"Ohio State","lat":41.6661573,"lng":-81.339552,"hometown_city":"Mentor","hometown_state":"OH"},{"name":"Ben Novak","year":2026,"position":"OT","stars":null,"rating_247":87.0,"committed_to":"Indiana","lat":39.8942,"lng":-86.2816,"hometown_city":"Merrillville","hometown_state":"IN"},{"name":"Lucas Tielsch","year":2026,"position":"OT","stars":3,"rating_247":86.0,"committed_to":"Minnesota","lat":41.083064,"lng":-81.518485,"hometown_city":"Akron","hometown_state":"OH"},{"name":"Mason Mathis","year":2026,"position":"OT","stars":3,"rating_247":86.0,"committed_to":"Auburn","lat":30.6324149,"lng":-87.0396881,"hometown_city":"Milton","hometown_state":"FL"},{"name":"Preston Dazey","year":2026,"position":"OT","stars":3,"rating_247":86.0,"committed_to":"Toledo","lat":40.7967244,"lng":-81.5215093,"hometown_city":"Massillon","hometown_state":"OH"},{"name":"Cameron Miller Jr.","year":2026,"position":"OT","stars":null,"rating_247":85.0,"committed_to":"Kentucky","lat":39.8942,"lng":-86.2816,"hometown_city":"Hammond","hometown_state":"IN"},{"name":"Tre Glover","year":2026,"position":"OT","stars":3,"rating_247":85.0,"committed_to":"Appalachian State","lat":32.6200973,"lng":-83.606568,"hometown_city":"Warner Robins","hometown_state":"GA"},{"name":"Owen Winder","year":2026,"position":"OT","stars":3,"rating_247":85.0,"committed_to":"Connecticut","lat":42.3386044,"lng":-83.8891514,"hometown_city":"Dexter","hometown_state":"MI"},{"name":"Luke Grover","year":2026,"position":"OT","stars":3,"rating_247":85.0,"committed_to":"Cincinnati","lat":40.1983958,"lng":-83.0101843,"hometown_city":"Lewis Center","hometown_state":"OH"},{"name":"Pete Eglitis","year":2026,"position":"OT","stars":3,"rating_247":85.0,"committed_to":"Penn State","lat":39.9622601,"lng":-83.0007065,"hometown_city":"Columbus","hometown_state":"OH"},{"name":"Alejandro Schmitt","year":2026,"position":"OT","stars":3,"rating_247":84.0,"committed_to":"Florida Atlantic","lat":26.02322025,"lng":-80.34123906625615,"hometown_city":"Pembroke Pines","hometown_state":"FL"},{"name":"Jake Palucki","year":2026,"position":"OT","stars":3,"rating_247":84.0,"committed_to":"Toledo","lat":41.7003302,"lng":-88.0717708,"hometown_city":"Bolingbrook","hometown_state":"IL"},{"name":"Jacob Timmer","year":2026,"position":"OT","stars":3,"rating_247":84.0,"committed_to":"Central Michigan","lat":42.9632405,"lng":-85.6678639,"hometown_city":"Grand Rapids","hometown_state":"MI"},{"name":"Pete Pendergest","year":2026,"position":"OT","stars":3,"rating_247":84.0,"committed_to":"Bowling Green","lat":39.3995067,"lng":-84.5613428,"hometown_city":"Hamilton","hometown_state":"OH"},{"name":"Nily Taylor","year":2026,"position":"OT","stars":null,"rating_247":83.0,"committed_to":"Eastern Michigan","lat":40.2862,"lng":-82.7937,"hometown_city":"Westerville","hometown_state":"OH"},{"name":"Maddux Murphy","year":2026,"position":"OT","stars":3,"rating_247":83.0,"committed_to":"Bowling Green","lat":42.1095808,"lng":-86.4799538,"hometown_city":"St. Joseph","hometown_state":"MI"},{"name":"Demetrius Hixson","year":2026,"position":"OT","stars":null,"rating_247":null,"committed_to":null,"lat":28.6305,"lng":-82.4497,"hometown_city":"Wellington","hometown_state":"FL"},{"name":"Dylan Tabb","year":2026,"position":"OT","stars":null,"rating_247":null,"committed_to":null,"lat":32.7794,"lng":-86.8287,"hometown_city":"Orange Beach","hometown_state":"AL"},{"name":"Da'Ron Parks","year":2026,"position":"IOL","stars":4,"rating_247":88.0,"committed_to":"North Carolina","lat":38.417919499999996,"lng":-81.84361448523134,"hometown_city":"Nitro","hometown_state":"WV"},{"name":"Mason Wilhelm","year":2026,"position":"IOL","stars":3,"rating_247":88.0,"committed_to":"Ohio State","lat":41.4819932,"lng":-81.7981908,"hometown_city":"Lakewood","hometown_state":"OH"},{"name":"Brock Brownfield","year":2026,"position":"IOL","stars":3,"rating_247":87.0,"committed_to":"Purdue","lat":39.7219882,"lng":-85.8891471,"hometown_city":"New Palestine","hometown_state":"IN"},{"name":"Eli Sanchez","year":2026,"position":"IOL","stars":3,"rating_247":86.0,"committed_to":"Nevada, Las Vegas","lat":41.4489397,"lng":-82.7079605,"hometown_city":"Sandusky","hometown_state":"OH"},{"name":"Justyn Lyles","year":2026,"position":"IOL","stars":3,"rating_247":86.0,"committed_to":"Marshall","lat":39.1014537,"lng":-84.5124602,"hometown_city":"Cincinnati","hometown_state":"OH"},{"name":"Owen Jakubczak","year":2026,"position":"IOL","stars":3,"rating_247":85.0,"committed_to":"Northwestern","lat":42.1105779,"lng":-88.0336888,"hometown_city":"Palatine","hometown_state":"IL"},{"name":"Brendan Alexander","year":2026,"position":"IOL","stars":3,"rating_247":85.0,"committed_to":"Northern Illinois","lat":40.6872885,"lng":-80.2714505,"hometown_city":"Monaca","hometown_state":"PA"},{"name":"Jayvon Perry","year":2026,"position":"IOL","stars":3,"rating_247":85.0,"committed_to":"Georgia Southern","lat":33.5670562,"lng":-84.5810418,"hometown_city":"Fairburn","hometown_state":"GA"},{"name":"John Curran","year":2026,"position":"IOL","stars":3,"rating_247":85.0,"committed_to":"Pittsburgh","lat":40.6300671,"lng":-79.9695004,"hometown_city":"Gibsonia","hometown_state":"PA"},{"name":"Luke Collins","year":2026,"position":"IOL","stars":3,"rating_247":85.0,"committed_to":"Cincinnati","lat":39.9622601,"lng":-83.0007065,"hometown_city":"Columbus","hometown_state":"OH"},{"name":"Jacob Rathbone","year":2026,"position":"IOL","stars":3,"rating_247":85.0,"committed_to":"Central Arkansas","lat":35.925193,"lng":-86.8689365,"hometown_city":"Franklin","hometown_state":"TN"},{"name":"Nathan Zappitelli","year":2026,"position":"IOL","stars":3,"rating_247":84.0,"committed_to":"Cincinnati","lat":41.6661573,"lng":-81.339552,"hometown_city":"Mentor","hometown_state":"OH"},{"name":"William Hathcock","year":2026,"position":"IOL","stars":null,"rating_247":84.0,"committed_to":"Jacksonville State","lat":28.6305,"lng":-82.4497,"hometown_city":"Perry","hometown_state":"FL"},{"name":"Colton Crosley","year":2026,"position":"IOL","stars":3,"rating_247":84.0,"committed_to":"Ohio","lat":41.1596261,"lng":-81.4406258,"hometown_city":"Stow","hometown_state":"OH"},{"name":"William Johnson III","year":2026,"position":"IOL","stars":null,"rating_247":84.0,"committed_to":"Kent State","lat":39.8942,"lng":-86.2816,"hometown_city":"Avon","hometown_state":"IN"},{"name":"Vern Faulk","year":2026,"position":"IOL","stars":3,"rating_247":83.0,"committed_to":"Jacksonville State","lat":30.1174351,"lng":-83.5818147,"hometown_city":"Perry","hometown_state":"FL"},{"name":"Andrew Baggott","year":2026,"position":"IOL","stars":3,"rating_247":82.0,"committed_to":null,"lat":41.582466,"lng":-81.20334,"hometown_city":"Chardon","hometown_state":"OH"},{"name":"Nolan Cicero","year":2026,"position":"IOL","stars":3,"rating_247":82.0,"committed_to":"Ball State","lat":41.4169806,"lng":-87.3653136,"hometown_city":"Crown Point","hometown_state":"IN"},{"name":"Mason Ramsey","year":2026,"position":"IOL","stars":3,"rating_247":82.0,"committed_to":"Marshall","lat":38.4192496,"lng":-82.445154,"hometown_city":"Huntington","hometown_state":"WV"},{"name":"Andrew Trahin","year":2026,"position":"IOL","stars":3,"rating_247":82.0,"committed_to":"Eastern Michigan","lat":41.0799898,"lng":-85.1386015,"hometown_city":"Fort Wayne","hometown_state":"IN"},{"name":"Daniel Davis","year":2026,"position":"IOL","stars":null,"rating_247":null,"committed_to":null,"lat":38.4937,"lng":-98.3804,"hometown_city":"Coffeyville","hometown_state":"KS"},{"name":"Radon Love","year":2026,"position":"IOL","stars":null,"rating_247":null,"committed_to":null,"lat":44.3467,"lng":-85.4102,"hometown_city":"Linden","hometown_state":"MI"},{"name":"JoJo LoDuca","year":2026,"position":"IOL","stars":null,"rating_247":null,"committed_to":"Navy","lat":40.2862,"lng":-82.7937,"hometown_city":"Mentor","hometown_state":"OH"},{"name":"Cincere Johnson","year":2026,"position":"Edge","stars":4,"rating_247":98.0,"committed_to":"Ohio State","lat":41.5051613,"lng":-81.6934446,"hometown_city":"Cleveland","hometown_state":"OH"},{"name":"Malachi Ervin","year":2026,"position":"Edge","stars":3,"rating_247":90.0,"committed_to":"Buffalo","lat":39.896277299999994,"lng":-82.77319049748806,"hometown_city":"Pickerington","hometown_state":"OH"},{"name":"Parker Crim","year":2026,"position":"Edge","stars":null,"rating_247":88.0,"committed_to":"Illinois","lat":40.2862,"lng":-82.7937,"hometown_city":"Elida","hometown_state":"OH"},{"name":"Kymani Morales","year":2026,"position":"Edge","stars":3,"rating_247":87.0,"committed_to":"Georgia Tech","lat":26.1223084,"lng":-80.1433786,"hometown_city":"Fort Lauderdale","hometown_state":"FL"},{"name":"James Tilus","year":2026,"position":"Edge","stars":3,"rating_247":87.0,"committed_to":"Connecticut","lat":28.10708845,"lng":-81.80358011667643,"hometown_city":"Auburndale","hometown_state":"FL"},{"name":"Elijah Durham-Smith","year":2026,"position":"Edge","stars":3,"rating_247":86.0,"committed_to":"Bowling Green","lat":39.896277299999994,"lng":-82.77319049748806,"hometown_city":"Pickerington","hometown_state":"OH"},{"name":"Ryan Harrington","year":2026,"position":"Edge","stars":3,"rating_247":86.0,"committed_to":"Wake Forest","lat":42.5869558,"lng":-83.36895696372882,"hometown_city":"Orchard Lake","hometown_state":"MI"},{"name":"JR Hardrick","year":2026,"position":"Edge","stars":3,"rating_247":86.0,"committed_to":"Clemson","lat":35.0122635,"lng":-85.7058445,"hometown_city":"South Pittsburg","hometown_state":"TN"},{"name":"Samuel Dossous","year":2026,"position":"Edge","stars":3,"rating_247":86.0,"committed_to":"Bowling Green","lat":40.7967244,"lng":-81.5215093,"hometown_city":"Massillon","hometown_state":"OH"},{"name":"Lawrence Brown Jr.","year":2026,"position":"Edge","stars":null,"rating_247":85.0,"committed_to":"North Carolina State","lat":32.6415,"lng":-83.4426,"hometown_city":"Loganville","hometown_state":"GA"},{"name":"Seth Clarke","year":2026,"position":"Edge","stars":3,"rating_247":85.0,"committed_to":"Rice","lat":40.3492744,"lng":-74.6592958,"hometown_city":"Princeton","hometown_state":"NJ"},{"name":"Connor Coxwell","year":2026,"position":"Edge","stars":3,"rating_247":85.0,"committed_to":"Kennesaw State","lat":34.0514898,"lng":-84.0712997,"hometown_city":"Suwanee","hometown_state":"GA"},{"name":"JD Singletary","year":2026,"position":"Edge","stars":3,"rating_247":85.0,"committed_to":"Rice","lat":39.5150576,"lng":-84.3982763,"hometown_city":"Middletown","hometown_state":"OH"},{"name":"Trent Merrell","year":2026,"position":"Edge","stars":null,"rating_247":85.0,"committed_to":"Bowling Green","lat":40.2862,"lng":-82.7937,"hometown_city":"Elyria","hometown_state":"OH"},{"name":"Rodarion Tellez","year":2026,"position":"Edge","stars":3,"rating_247":84.0,"committed_to":"Connecticut","lat":26.1223084,"lng":-80.1433786,"hometown_city":"Fort Lauderdale","hometown_state":"FL"},{"name":"Isaiah Harris","year":2026,"position":"Edge","stars":3,"rating_247":84.0,"committed_to":"Miami (OH)","lat":42.1667072,"lng":-83.7816075,"hometown_city":"Saline","hometown_state":"MI"},{"name":"Mateo Kipke","year":2026,"position":"Edge","stars":3,"rating_247":84.0,"committed_to":"Connecticut","lat":42.3386044,"lng":-83.8891514,"hometown_city":"Dexter","hometown_state":"MI"},{"name":"London Vickroy","year":2026,"position":"Edge","stars":3,"rating_247":84.0,"committed_to":"Miami (OH)","lat":40.126139,"lng":-82.9295287,"hometown_city":"Westerville","hometown_state":"OH"},{"name":"Mikey Domanik","year":2026,"position":"Edge","stars":null,"rating_247":83.0,"committed_to":"Charlotte","lat":32.6415,"lng":-83.4426,"hometown_city":"Marietta","hometown_state":"GA"},{"name":"Joshua Shaw","year":2026,"position":"Edge","stars":null,"rating_247":83.0,"committed_to":"Texas-El Paso","lat":31.4757,"lng":-99.3312,"hometown_city":"Allen","hometown_state":"TX"},{"name":"Darian Hawkins","year":2026,"position":"Edge","stars":null,"rating_247":83.0,"committed_to":"Bowling Green","lat":37.1841,"lng":-119.4696,"hometown_city":"West Hills","hometown_state":"CA"},{"name":"Cameron Simmons","year":2026,"position":"Edge","stars":null,"rating_247":83.0,"committed_to":"Bowling Green","lat":32.6415,"lng":-83.4426,"hometown_city":"Buford","hometown_state":"GA"},{"name":"Cameron Simmons","year":2026,"position":"Edge","stars":null,"rating_247":83.0,"committed_to":"Bowling Green","lat":32.6415,"lng":-83.4426,"hometown_city":"Buford","hometown_state":"GA"},{"name":"Jacob Broach","year":2026,"position":"Edge","stars":3,"rating_247":82.0,"committed_to":"Kent State","lat":39.1014537,"lng":-84.5124602,"hometown_city":"Cincinnati","hometown_state":"OH"},{"name":"Matthew Sexton","year":2026,"position":"Edge","stars":3,"rating_247":82.0,"committed_to":"Central Michigan","lat":42.9632405,"lng":-85.6678639,"hometown_city":"Grand Rapids","hometown_state":"MI"},{"name":"Errol West Jr.","year":2026,"position":"Edge","stars":3,"rating_247":82.0,"committed_to":"Sam Houston","lat":33.2150386,"lng":-97.1330516,"hometown_city":"Denton","hometown_state":"TX"},{"name":"Darrius Summers III","year":2026,"position":"Edge","stars":null,"rating_247":80.0,"committed_to":"Northern Illinois","lat":44.3467,"lng":-85.4102,"hometown_city":"Detroit","hometown_state":"MI"},{"name":"Reginald Camille","year":2026,"position":"Edge","stars":null,"rating_247":null,"committed_to":null,"lat":28.6305,"lng":-82.4497,"hometown_city":"Plantation","hometown_state":"FL"},{"name":"Zedrick Patterson","year":2026,"position":"Edge","stars":null,"rating_247":null,"committed_to":"Stony Brook","lat":32.6415,"lng":-83.4426,"hometown_city":"Snellville","hometown_state":"GA"},{"name":"Anthony Jalloh","year":2026,"position":"Edge","stars":null,"rating_247":null,"committed_to":null,"lat":40.2862,"lng":-82.7937,"hometown_city":"Columbus","hometown_state":"OH"},{"name":"Michael Harris","year":2026,"position":"Edge","stars":null,"rating_247":null,"committed_to":null,"lat":28.6305,"lng":-82.4497,"hometown_city":"Homestead","hometown_state":"FL"},{"name":"Carmelow Reed","year":2026,"position":"DL","stars":3,"rating_247":92.0,"committed_to":"Mississippi","lat":41.8755616,"lng":-87.6244212,"hometown_city":"Chicago","hometown_state":"IL"},{"name":"Reece Beck","year":2026,"position":"DL","stars":3,"rating_247":89.0,"committed_to":"Rutgers","lat":30.2396865,"lng":-81.3856384,"hometown_city":"Ponte Vedra Beach","hometown_state":"FL"},{"name":"Kamron Wilson","year":2026,"position":"DL","stars":3,"rating_247":89.0,"committed_to":"Syracuse","lat":25.7742658,"lng":-80.1936589,"hometown_city":"Miami","hometown_state":"FL"},{"name":"Cameron Brickle II","year":2026,"position":"DL","stars":null,"rating_247":89.0,"committed_to":"Maryland","lat":28.6305,"lng":-82.4497,"hometown_city":"Bradenton","hometown_state":"FL"},{"name":"Ryan Miret","year":2026,"position":"DL","stars":3,"rating_247":88.0,"committed_to":"Louisiana State","lat":25.7742658,"lng":-80.1936589,"hometown_city":"Miami","hometown_state":"FL"},{"name":"Jamir Perez","year":2026,"position":"DL","stars":3,"rating_247":88.0,"committed_to":"Ohio State","lat":41.5051613,"lng":-81.6934446,"hometown_city":"Cleveland","hometown_state":"OH"},{"name":"King Liggins","year":2026,"position":"DL","stars":3,"rating_247":87.0,"committed_to":"Illinois","lat":41.8755616,"lng":-87.6244212,"hometown_city":"Chicago","hometown_state":"IL"},{"name":"Bull Richardson","year":2026,"position":"DL","stars":null,"rating_247":87.0,"committed_to":"Virginia","lat":37.5215,"lng":-78.8537,"hometown_city":"Richmond","hometown_state":"VA"},{"name":"Jermaine Polk","year":2026,"position":"DL","stars":3,"rating_247":86.0,"committed_to":"Rutgers","lat":41.6786754,"lng":-83.5127283,"hometown_city":"Toledo","hometown_state":"OH"},{"name":"Freddie Wilson","year":2026,"position":"DL","stars":3,"rating_247":86.0,"committed_to":"Georgia State","lat":29.101628050000002,"lng":-81.01059617608054,"hometown_city":"Port Orange","hometown_state":"FL"},{"name":"Xavier Fleming","year":2026,"position":"DL","stars":3,"rating_247":86.0,"committed_to":"Houston","lat":33.046233,"lng":-96.994174,"hometown_city":"Lewisville","hometown_state":"TX"},{"name":"Arthur Scott III","year":2026,"position":"DL","stars":null,"rating_247":86.0,"committed_to":"Wisconsin","lat":40.2862,"lng":-82.7937,"hometown_city":"Streetsboro","hometown_state":"OH"},{"name":"Tyrell O'Neal","year":2026,"position":"DL","stars":3,"rating_247":86.0,"committed_to":"Toledo","lat":41.5051613,"lng":-81.6934446,"hometown_city":"Cleveland","hometown_state":"OH"},{"name":"Iverson Garcia-Ponce","year":2026,"position":"DL","stars":3,"rating_247":86.0,"committed_to":"South Florida","lat":36.0317472,"lng":-84.0279677,"hometown_city":"Powell","hometown_state":"TN"},{"name":"Calvin Lorek","year":2026,"position":"DL","stars":3,"rating_247":85.0,"committed_to":"Northwestern","lat":39.2689562,"lng":-84.2638406,"hometown_city":"Loveland","hometown_state":"OH"},{"name":"Jvon Hatcher","year":2026,"position":"DL","stars":3,"rating_247":85.0,"committed_to":"Northern Illinois","lat":26.4614625,"lng":-80.0728201,"hometown_city":"Delray Beach","hometown_state":"FL"},{"name":"Cory Simon","year":2026,"position":"DL","stars":3,"rating_247":85.0,"committed_to":"James Madison","lat":26.1223084,"lng":-80.1433786,"hometown_city":"Fort Lauderdale","hometown_state":"FL"},{"name":"Bryce Brewster","year":2026,"position":"DL","stars":3,"rating_247":85.0,"committed_to":"Bowling Green","lat":39.1014537,"lng":-84.5124602,"hometown_city":"Cincinnati","hometown_state":"OH"},{"name":"Jeremiah Benson","year":2026,"position":"DL","stars":3,"rating_247":84.0,"committed_to":"Minnesota","lat":42.5679,"lng":-83.3733,"hometown_city":"West Bloomfield","hometown_state":"MI"},{"name":"Kore Thomas","year":2026,"position":"DL","stars":3,"rating_247":83.0,"committed_to":"Bowling Green","lat":32.7762719,"lng":-96.7968559,"hometown_city":"Dallas","hometown_state":"TX"},{"name":"Kaiden Bower","year":2026,"position":"DL","stars":3,"rating_247":83.0,"committed_to":"Charlotte","lat":39.9788017,"lng":-86.1189257,"hometown_city":"Carmel","hometown_state":"IN"},{"name":"Xavier Reid","year":2026,"position":"DL","stars":3,"rating_247":83.0,"committed_to":"Liberty","lat":26.3586885,"lng":-80.0830984,"hometown_city":"Boca Raton","hometown_state":"FL"},{"name":"Isaac Tanis","year":2026,"position":"DL","stars":3,"rating_247":83.0,"committed_to":"Western Kentucky","lat":26.1223084,"lng":-80.1433786,"hometown_city":"Fort Lauderdale","hometown_state":"FL"},{"name":"Christien Moreau","year":2026,"position":"DL","stars":null,"rating_247":83.0,"committed_to":"Middle Tennessee","lat":28.6305,"lng":-82.4497,"hometown_city":"Fort Lauderdale","hometown_state":"FL"},{"name":"Zayvion Hayes","year":2026,"position":"DL","stars":null,"rating_247":80.0,"committed_to":"Presbyterian","lat":28.6305,"lng":-82.4497,"hometown_city":"Delray Beach","hometown_state":"FL"},{"name":"Elijah Berman","year":2026,"position":"DL","stars":null,"rating_247":null,"committed_to":"Eastern Michigan","lat":40.2862,"lng":-82.7937,"hometown_city":"Dayton","hometown_state":"OH"},{"name":"Lucas Rice","year":2026,"position":"DL","stars":null,"rating_247":null,"committed_to":null,"lat":39.8942,"lng":-86.2816,"hometown_city":"Bloomington","hometown_state":"IN"},{"name":"Cedric Mickens","year":2026,"position":"DL","stars":null,"rating_247":null,"committed_to":null,"lat":28.6305,"lng":-82.4497,"hometown_city":"Wellington","hometown_state":"FL"},{"name":"Ja'Dyn Williams","year":2026,"position":"LB","stars":4,"rating_247":91.0,"committed_to":"Indiana","lat":40.7967244,"lng":-81.5215093,"hometown_city":"Massillon","hometown_state":"OH"},{"name":"Derek Uran","year":2026,"position":"LB","stars":3,"rating_247":90.0,"committed_to":"Virginia","lat":39.1014537,"lng":-84.5124602,"hometown_city":"Cincinnati","hometown_state":"OH"},{"name":"CJ Sanna","year":2026,"position":"LB","stars":4,"rating_247":90.0,"committed_to":"Ohio State","lat":40.1983958,"lng":-83.0101843,"hometown_city":"Lewis Center","hometown_state":"OH"},{"name":"Storm Miller","year":2026,"position":"LB","stars":4,"rating_247":89.0,"committed_to":"Texas A&M","lat":41.3144733,"lng":-81.83511,"hometown_city":"Strongsville","hometown_state":"OH"},{"name":"Trevor Gibbs","year":2026,"position":"LB","stars":3,"rating_247":89.0,"committed_to":"Indiana","lat":41.4169806,"lng":-87.3653136,"hometown_city":"Crown Point","hometown_state":"IN"},{"name":"Billy Weivoda","year":2026,"position":"LB","stars":3,"rating_247":88.0,"committed_to":"Iowa","lat":34.0709576,"lng":-84.2747329,"hometown_city":"Alpharetta","hometown_state":"GA"},{"name":"Aden Reeder","year":2026,"position":"LB","stars":3,"rating_247":88.0,"committed_to":"Michigan","lat":39.1014537,"lng":-84.5124602,"hometown_city":"Cincinnati","hometown_state":"OH"},{"name":"Taj Powell","year":2026,"position":"LB","stars":3,"rating_247":87.0,"committed_to":"Louisville","lat":39.9242266,"lng":-83.8088172,"hometown_city":"Springfield","hometown_state":"OH"},{"name":"Bryson Castile","year":2026,"position":"LB","stars":3,"rating_247":87.0,"committed_to":"Houston","lat":32.701938999999996,"lng":-97.10562379033699,"hometown_city":"Arlington","hometown_state":"TX"},{"name":"Jaxon Pyatt","year":2026,"position":"LB","stars":3,"rating_247":87.0,"committed_to":"California","lat":39.8211225,"lng":-105.22074299044587,"hometown_city":"Arvada","hometown_state":"CO"},{"name":"Terrence Penick Jr.","year":2026,"position":"LB","stars":null,"rating_247":87.0,"committed_to":"Georgia","lat":32.6415,"lng":-83.4426,"hometown_city":"Snellville","hometown_state":"GA"},{"name":"Dennis King III","year":2026,"position":"LB","stars":3,"rating_247":86.0,"committed_to":"South Florida","lat":29.2108147,"lng":-81.0228331,"hometown_city":"Daytona Beach","hometown_state":"FL"},{"name":"Ryan Stolarski","year":2026,"position":"LB","stars":3,"rating_247":86.0,"committed_to":"Miami (OH)","lat":41.4516512,"lng":-82.0350598,"hometown_city":"Avon","hometown_state":"OH"},{"name":"Joey Kopec","year":2026,"position":"LB","stars":3,"rating_247":86.0,"committed_to":"Rutgers","lat":41.1348213,"lng":-81.4848086,"hometown_city":"Cuyahoga Falls","hometown_state":"OH"},{"name":"Bryce Robinson","year":2026,"position":"LB","stars":3,"rating_247":86.0,"committed_to":"Nevada, Las Vegas","lat":33.9528472,"lng":-84.5496148,"hometown_city":"Marietta","hometown_state":"GA"},{"name":"Nathan Gersh","year":2026,"position":"LB","stars":3,"rating_247":85.0,"committed_to":"Toledo","lat":42.3386044,"lng":-83.8891514,"hometown_city":"Dexter","hometown_state":"MI"},{"name":"Andre Parker","year":2026,"position":"LB","stars":3,"rating_247":85.0,"committed_to":"Marshall","lat":39.1014537,"lng":-84.5124602,"hometown_city":"Cincinnati","hometown_state":"OH"},{"name":"Duane Johnson","year":2026,"position":"LB","stars":3,"rating_247":85.0,"committed_to":"West Georgia","lat":25.7742658,"lng":-80.1936589,"hometown_city":"Miami","hometown_state":"FL"},{"name":"Brian Stovall Jr.","year":2026,"position":"LB","stars":null,"rating_247":85.0,"committed_to":"Toledo","lat":44.3467,"lng":-85.4102,"hometown_city":"Detroit","hometown_state":"MI"},{"name":"Caden Carter","year":2026,"position":"LB","stars":3,"rating_247":85.0,"committed_to":"Bowling Green","lat":41.1596261,"lng":-81.4406258,"hometown_city":"Stow","hometown_state":"OH"},{"name":"Jayden Cupitt","year":2026,"position":"LB","stars":3,"rating_247":85.0,"committed_to":"Rice","lat":32.5631924,"lng":-97.1416768,"hometown_city":"Mansfield","hometown_state":"TX"},{"name":"Japrei Wafer","year":2026,"position":"LB","stars":3,"rating_247":84.0,"committed_to":"Texas-El Paso","lat":33.1031744,"lng":-96.6705503,"hometown_city":"Allen","hometown_state":"TX"},{"name":"Amarion Jones","year":2026,"position":"LB","stars":3,"rating_247":84.0,"committed_to":"Kennesaw State","lat":33.5670562,"lng":-84.5810418,"hometown_city":"Fairburn","hometown_state":"GA"},{"name":"Brayden Sweeney","year":2026,"position":"LB","stars":3,"rating_247":84.0,"committed_to":"Purdue","lat":42.9632405,"lng":-85.6678639,"hometown_city":"Grand Rapids","hometown_state":"MI"},{"name":"Jerimia Collier","year":2026,"position":"LB","stars":3,"rating_247":84.0,"committed_to":"Alabama State","lat":33.5215013,"lng":-84.3538128,"hometown_city":"Jonesboro","hometown_state":"GA"},{"name":"Desmond Cox","year":2026,"position":"LB","stars":3,"rating_247":83.0,"committed_to":"Memphis","lat":32.5117104,"lng":-96.80836332870047,"hometown_city":"Red Oak","hometown_state":"TX"},{"name":"Jeremiah Harkins","year":2026,"position":"LB","stars":3,"rating_247":83.0,"committed_to":null,"lat":33.4956744,"lng":-88.4272627,"hometown_city":"Columbus","hometown_state":"MS"},{"name":"Breck Mallory","year":2026,"position":"LB","stars":3,"rating_247":82.0,"committed_to":"Western Michigan","lat":39.7683331,"lng":-86.1583502,"hometown_city":"Indianapolis","hometown_state":"IN"},{"name":"Preston Patterson","year":2026,"position":"LB","stars":3,"rating_247":82.0,"committed_to":"Furman","lat":36.1622296,"lng":-86.7743531,"hometown_city":"Nashville","hometown_state":"TN"},{"name":"Dylan Bennett","year":2026,"position":"LB","stars":null,"rating_247":null,"committed_to":null,"lat":28.6305,"lng":-82.4497,"hometown_city":"Plantation","hometown_state":"FL"},{"name":"Kene Obi","year":2026,"position":"LB","stars":null,"rating_247":null,"committed_to":"Vanderbilt","lat":40.2862,"lng":-82.7937,"hometown_city":"Gates Mills","hometown_state":"OH"},{"name":"Breck Mallory","year":2026,"position":"LB","stars":3,"rating_247":null,"committed_to":null,"lat":39.7683331,"lng":-86.1583502,"hometown_city":"Indianapolis","hometown_state":"IN"},{"name":"Omeiza Daniyan","year":2026,"position":"LB","stars":null,"rating_247":null,"committed_to":null,"lat":35.858,"lng":-86.3505,"hometown_city":"Mt. Juliet","hometown_state":"TN"},{"name":"Omeiza Daniyan","year":2026,"position":"LB","stars":null,"rating_247":null,"committed_to":"Army","lat":35.858,"lng":-86.3505,"hometown_city":"Mt. Juliet","hometown_state":"TN"},{"name":"Dezmond Porter","year":2026,"position":"LB","stars":null,"rating_247":null,"committed_to":null,"lat":40.2862,"lng":-82.7937,"hometown_city":"Columbus","hometown_state":"OH"},{"name":"Royal Weber Jr.","year":2026,"position":"LB","stars":null,"rating_247":null,"committed_to":"Missouri State","lat":32.6415,"lng":-83.4426,"hometown_city":"Snellville","hometown_state":"GA"},{"name":"Jaiden Roper","year":2026,"position":"LB","stars":null,"rating_247":null,"committed_to":null,"lat":28.6305,"lng":-82.4497,"hometown_city":"Hollywood","hometown_state":"FL"},{"name":"Jorden Edmonds","year":2026,"position":"CB","stars":5,"rating_247":98.0,"committed_to":"Alabama","lat":33.9528472,"lng":-84.5496148,"hometown_city":"Marietta","hometown_state":"GA"},{"name":"Jay Timmons","year":2026,"position":"CB","stars":4,"rating_247":97.0,"committed_to":"Ohio State","lat":40.6300671,"lng":-79.9695004,"hometown_city":"Gibsonia","hometown_state":"PA"},{"name":"Camren Hamiel","year":2026,"position":"CB","stars":4,"rating_247":93.0,"committed_to":"Texas A&M","lat":33.4353672,"lng":-112.3576005,"hometown_city":"Goodyear","hometown_state":"AZ"},{"name":"Xaier Hiler","year":2026,"position":"CB","stars":4,"rating_247":92.0,"committed_to":"Arizona","lat":33.2150386,"lng":-97.1330516,"hometown_city":"Denton","hometown_state":"TX"},{"name":"Vic Singleton","year":2026,"position":"CB","stars":null,"rating_247":91.0,"committed_to":"Texas A&M","lat":40.2862,"lng":-82.7937,"hometown_city":"Toledo","hometown_state":"OH"},{"name":"AJ Marks","year":2026,"position":"CB","stars":3,"rating_247":90.0,"committed_to":"Wake Forest","lat":27.4989278,"lng":-82.5748194,"hometown_city":"Bradenton","hometown_state":"FL"},{"name":"Marcus Jennings","year":2026,"position":"CB","stars":3,"rating_247":90.0,"committed_to":"Pittsburgh","lat":42.3315509,"lng":-83.0466403,"hometown_city":"Detroit","hometown_state":"MI"},{"name":"Da'Ron Barksdale","year":2026,"position":"CB","stars":3,"rating_247":88.0,"committed_to":"Pittsburgh","lat":40.4059025,"lng":-79.9119948,"hometown_city":"Homestead","hometown_state":"PA"},{"name":"DaQuwan Dunn","year":2026,"position":"CB","stars":3,"rating_247":87.0,"committed_to":"Arizona State","lat":32.9481789,"lng":-96.7297206,"hometown_city":"Richardson","hometown_state":"TX"},{"name":"Jordan Lampkins","year":2026,"position":"CB","stars":3,"rating_247":87.0,"committed_to":"Minnesota","lat":41.7003302,"lng":-88.0717708,"hometown_city":"Bolingbrook","hometown_state":"IL"},{"name":"Emari Peterson","year":2026,"position":"CB","stars":3,"rating_247":86.0,"committed_to":"Louisiana State","lat":28.5421109,"lng":-81.3790304,"hometown_city":"Orlando","hometown_state":"FL"},{"name":"Elijah Keys","year":2026,"position":"CB","stars":3,"rating_247":86.0,"committed_to":"UCF","lat":30.311908,"lng":-81.3964734,"hometown_city":"Neptune Beach","hometown_state":"FL"},{"name":"Henry Perrymond","year":2026,"position":"CB","stars":3,"rating_247":86.0,"committed_to":"Akron","lat":41.5051613,"lng":-81.6934446,"hometown_city":"Cleveland","hometown_state":"OH"},{"name":"Kris Brunson","year":2026,"position":"CB","stars":3,"rating_247":86.0,"committed_to":"Louisville","lat":33.857328,"lng":-84.0199108,"hometown_city":"Snellville","hometown_state":"GA"},{"name":"LaRon Dues","year":2026,"position":"CB","stars":3,"rating_247":86.0,"committed_to":"James Madison","lat":27.3364347,"lng":-82.5306527,"hometown_city":"Sarasota","hometown_state":"FL"},{"name":"Jalen Williams","year":2026,"position":"CB","stars":3,"rating_247":86.0,"committed_to":"Arizona State","lat":33.9528472,"lng":-84.5496148,"hometown_city":"Marietta","hometown_state":"GA"},{"name":"Makhi Boone","year":2026,"position":"CB","stars":3,"rating_247":86.0,"committed_to":"West Virginia","lat":41.4819932,"lng":-81.7981908,"hometown_city":"Lakewood","hometown_state":"OH"},{"name":"Derrick Nichols III","year":2026,"position":"CB","stars":3,"rating_247":85.0,"committed_to":"South Florida","lat":26.1223084,"lng":-80.1433786,"hometown_city":"Fort Lauderdale","hometown_state":"FL"},{"name":"Rodarion Jones","year":2026,"position":"CB","stars":3,"rating_247":85.0,"committed_to":"Jacksonville State","lat":30.6255617,"lng":-84.4153769,"hometown_city":"Havana","hometown_state":"FL"},{"name":"Corey Warner","year":2026,"position":"CB","stars":3,"rating_247":85.0,"committed_to":"Massachusetts","lat":38.2542376,"lng":-85.759407,"hometown_city":"Louisville","hometown_state":"KY"},{"name":"Kindall Brown","year":2026,"position":"CB","stars":3,"rating_247":84.0,"committed_to":"Ohio","lat":41.4153313,"lng":-81.565956,"hometown_city":"Maple Heights","hometown_state":"OH"},{"name":"Aldarius Johnson Jr.","year":2026,"position":"CB","stars":3,"rating_247":84.0,"committed_to":"Rhode Island","lat":26.1223084,"lng":-80.1433786,"hometown_city":"Fort Lauderdale","hometown_state":"FL"},{"name":"Kevin White","year":2026,"position":"CB","stars":3,"rating_247":84.0,"committed_to":"Wofford","lat":25.7742658,"lng":-80.1936589,"hometown_city":"Miami","hometown_state":"FL"},{"name":"TeJuan Barbour","year":2026,"position":"CB","stars":3,"rating_247":84.0,"committed_to":"Kent State","lat":39.9622601,"lng":-83.0007065,"hometown_city":"Columbus","hometown_state":"OH"},{"name":"Cedarius Christian","year":2026,"position":"CB","stars":3,"rating_247":83.0,"committed_to":"Bowling Green","lat":27.9014133,"lng":-81.5859099,"hometown_city":"Lake Wales","hometown_state":"FL"},{"name":"David Williams","year":2026,"position":"CB","stars":3,"rating_247":83.0,"committed_to":"Central Michigan","lat":42.4932575,"lng":-83.0062746,"hometown_city":"Warren","hometown_state":"MI"},{"name":"Jabari Monds","year":2026,"position":"CB","stars":3,"rating_247":82.0,"committed_to":"Eastern Michigan","lat":27.4467056,"lng":-80.3256056,"hometown_city":"Fort Pierce","hometown_state":"FL"},{"name":"Martece Smith","year":2026,"position":"CB","stars":3,"rating_247":82.0,"committed_to":"Connecticut","lat":41.5833658,"lng":-87.500043,"hometown_city":"Hammond","hometown_state":"IN"},{"name":"Damyon Pearson","year":2026,"position":"CB","stars":3,"rating_247":82.0,"committed_to":"Western Kentucky","lat":33.857328,"lng":-84.0199108,"hometown_city":"Snellville","hometown_state":"GA"},{"name":"Kendall Griffin","year":2026,"position":"CB","stars":3,"rating_247":82.0,"committed_to":"Wyoming","lat":41.8755616,"lng":-87.6244212,"hometown_city":"Chicago","hometown_state":"IL"},{"name":"JaMichael Hill","year":2026,"position":"CB","stars":3,"rating_247":81.0,"committed_to":"South Dakota","lat":28.5421109,"lng":-81.3790304,"hometown_city":"Orlando","hometown_state":"FL"},{"name":"DiJon Wilson","year":2026,"position":"CB","stars":null,"rating_247":null,"committed_to":null,"lat":44.3467,"lng":-85.4102,"hometown_city":"River Rouge","hometown_state":"MI"},{"name":"Lovie Berry","year":2026,"position":"CB","stars":null,"rating_247":null,"committed_to":null,"lat":31.4757,"lng":-99.3312,"hometown_city":"Richardson","hometown_state":"TX"},{"name":"Kemaury Tye","year":2026,"position":"CB","stars":null,"rating_247":null,"committed_to":"Fordham","lat":40.2862,"lng":-82.7937,"hometown_city":"Cincinnati","hometown_state":"OH"},{"name":"Nate Stallworth","year":2026,"position":"CB","stars":null,"rating_247":null,"committed_to":null,"lat":44.3467,"lng":-85.4102,"hometown_city":"River Rouge","hometown_state":"MI"},{"name":"Caleb Williams","year":2026,"position":"CB","stars":null,"rating_247":null,"committed_to":null,"lat":28.6305,"lng":-82.4497,"hometown_city":"Fort Lauderdale","hometown_state":"FL"},{"name":"Jordan Tarver","year":2026,"position":"CB","stars":null,"rating_247":null,"committed_to":null,"lat":28.6305,"lng":-82.4497,"hometown_city":"Auburndale","hometown_state":"FL"},{"name":"Antonio Williams","year":2026,"position":"CB","stars":null,"rating_247":null,"committed_to":null,"lat":40.2862,"lng":-82.7937,"hometown_city":"Akron","hometown_state":"OH"},{"name":"Evin McDowell","year":2026,"position":"CB","stars":null,"rating_247":null,"committed_to":null,"lat":32.6415,"lng":-83.4426,"hometown_city":"Snellville","hometown_state":"GA"},{"name":"Daveon Black","year":2026,"position":"CB","stars":null,"rating_247":null,"committed_to":null,"lat":28.6305,"lng":-82.4497,"hometown_city":"Hollywood","hometown_state":"FL"},{"name":"Jordan Smith","year":2026,"position":"S","stars":4,"rating_247":94.0,"committed_to":"Georgia","lat":32.6200973,"lng":-83.606568,"hometown_city":"Warner Robins","hometown_state":"GA"},{"name":"CJ Hester","year":2026,"position":"S","stars":4,"rating_247":88.0,"committed_to":"Florida","lat":28.3553873,"lng":-80.7318827,"hometown_city":"Cocoa","hometown_state":"FL"},{"name":"Jaidon Windom","year":2026,"position":"S","stars":3,"rating_247":88.0,"committed_to":"Cincinnati","lat":42.3315509,"lng":-83.0466403,"hometown_city":"Detroit","hometown_state":"MI"},{"name":"Isaac Patterson","year":2026,"position":"S","stars":3,"rating_247":87.0,"committed_to":"Pittsburgh","lat":40.126139,"lng":-82.9295287,"hometown_city":"Westerville","hometown_state":"OH"},{"name":"Brayden Thomas","year":2026,"position":"S","stars":3,"rating_247":87.0,"committed_to":"Michigan State","lat":41.4819932,"lng":-81.7981908,"hometown_city":"Lakewood","hometown_state":"OH"},{"name":"Gabe Davis-Ray","year":2026,"position":"S","stars":3,"rating_247":86.0,"committed_to":"Northwestern","lat":39.9622601,"lng":-83.0007065,"hometown_city":"Columbus","hometown_state":"OH"},{"name":"Rocky Dunn","year":2026,"position":"S","stars":3,"rating_247":85.0,"committed_to":"Boise State","lat":33.2860549,"lng":-96.5725952,"hometown_city":"Melissa","hometown_state":"TX"},{"name":"Chris Newell Jr.","year":2026,"position":"S","stars":3,"rating_247":85.0,"committed_to":"Bowling Green","lat":41.5051613,"lng":-81.6934446,"hometown_city":"Cleveland","hometown_state":"OH"},{"name":"Bryce Williams","year":2026,"position":"S","stars":3,"rating_247":85.0,"committed_to":"Middle Tennessee","lat":40.3284403,"lng":-74.790718,"hometown_city":"Pennington","hometown_state":"NJ"},{"name":"Julian Holt","year":2026,"position":"S","stars":3,"rating_247":85.0,"committed_to":"Bowling Green","lat":30.3321838,"lng":-81.655651,"hometown_city":"Jacksonville","hometown_state":"FL"},{"name":"Atticus Tillman","year":2026,"position":"S","stars":3,"rating_247":85.0,"committed_to":"Colorado State","lat":39.8211225,"lng":-105.22074299044587,"hometown_city":"Arvada","hometown_state":"CO"},{"name":"Amar'e Miller","year":2026,"position":"S","stars":3,"rating_247":84.0,"committed_to":"Navy","lat":39.896277299999994,"lng":-82.77319049748806,"hometown_city":"Pickerington","hometown_state":"OH"},{"name":"Justus Donahoo","year":2026,"position":"S","stars":3,"rating_247":84.0,"committed_to":"Northern Illinois","lat":30.5168639,"lng":-86.482172,"hometown_city":"Niceville","hometown_state":"FL"},{"name":"RJ Holland","year":2026,"position":"S","stars":3,"rating_247":84.0,"committed_to":"Central State","lat":39.896277299999994,"lng":-82.77319049748806,"hometown_city":"Pickerington","hometown_state":"OH"},{"name":"Robert Reddick","year":2026,"position":"S","stars":3,"rating_247":84.0,"committed_to":"Kansas","lat":39.7683331,"lng":-86.1583502,"hometown_city":"Indianapolis","hometown_state":"IN"},{"name":"Taron Essex","year":2026,"position":"S","stars":3,"rating_247":83.0,"committed_to":"Western Kentucky","lat":33.7737582,"lng":-84.296069,"hometown_city":"Decatur","hometown_state":"GA"},{"name":"Jaylen Pollard","year":2026,"position":"S","stars":3,"rating_247":83.0,"committed_to":"Western Kentucky","lat":36.0325687,"lng":-86.7825235,"hometown_city":"Brentwood","hometown_state":"TN"},{"name":"Ziiyahn Blair","year":2026,"position":"S","stars":3,"rating_247":82.0,"committed_to":"Toledo","lat":41.083064,"lng":-81.518485,"hometown_city":"Akron","hometown_state":"OH"},{"name":"Traveon Townsend","year":2026,"position":"S","stars":null,"rating_247":null,"committed_to":null,"lat":28.6305,"lng":-82.4497,"hometown_city":"Vero Beach","hometown_state":"FL"},{"name":"Ricky Thomas","year":2026,"position":"S","stars":null,"rating_247":null,"committed_to":null,"lat":40.2862,"lng":-82.7937,"hometown_city":"Cincinnati","hometown_state":"OH"},{"name":"Chase Dexter","year":2026,"position":"S","stars":null,"rating_247":null,"committed_to":null,"lat":31.4757,"lng":-99.3312,"hometown_city":"Kilgore","hometown_state":"TX"},{"name":"Marek Marcellus","year":2026,"position":"S","stars":null,"rating_247":null,"committed_to":"Wofford","lat":28.6305,"lng":-82.4497,"hometown_city":"Hollywood","hometown_state":"FL"},{"name":"Damon Ferguson","year":2026,"position":"ATH","stars":4,"rating_247":93.0,"committed_to":"Pittsburgh","lat":39.2908816,"lng":-76.610759,"hometown_city":"Baltimore","hometown_state":"MD"},{"name":"Tyriq Green","year":2026,"position":"ATH","stars":4,"rating_247":93.0,"committed_to":"Georgia","lat":34.1206564,"lng":-84.0043513,"hometown_city":"Buford","hometown_state":"GA"},{"name":"Devonte Anderson","year":2026,"position":"ATH","stars":3,"rating_247":90.0,"committed_to":"Rutgers","lat":28.5656649,"lng":-81.5856742,"hometown_city":"Winter Garden","hometown_state":"FL"},{"name":"Jyron Hughley","year":2026,"position":"ATH","stars":3,"rating_247":89.0,"committed_to":"West Virginia","lat":26.715364,"lng":-80.0532942,"hometown_city":"West Palm Beach","hometown_state":"FL"},{"name":"Rihyael Kelley","year":2026,"position":"ATH","stars":3,"rating_247":89.0,"committed_to":"Alabama","lat":39.1014537,"lng":-84.5124602,"hometown_city":"Cincinnati","hometown_state":"OH"},{"name":"Darryon Williams","year":2026,"position":"ATH","stars":3,"rating_247":87.0,"committed_to":"Florida State","lat":27.9477595,"lng":-82.458444,"hometown_city":"Tampa","hometown_state":"FL"},{"name":"Michael Dukes III","year":2026,"position":"ATH","stars":null,"rating_247":87.0,"committed_to":"Rutgers","lat":44.3467,"lng":-85.4102,"hometown_city":"Detroit","hometown_state":"MI"},{"name":"Joshua Smith","year":2026,"position":"ATH","stars":null,"rating_247":87.0,"committed_to":"Cincinnati","lat":40.2862,"lng":-82.7937,"hometown_city":"Columbus","hometown_state":"OH"},{"name":"Daniel Vollmer Jr.","year":2026,"position":"ATH","stars":null,"rating_247":87.0,"committed_to":"Vanderbilt","lat":40.2862,"lng":-82.7937,"hometown_city":"Cincinnati","hometown_state":"OH"},{"name":"Hannibal Navies II","year":2026,"position":"ATH","stars":null,"rating_247":87.0,"committed_to":"Arizona","lat":32.6415,"lng":-83.4426,"hometown_city":"Loganville","hometown_state":"GA"},{"name":"Isaac Nelson","year":2026,"position":"ATH","stars":3,"rating_247":87.0,"committed_to":"Wake Forest","lat":39.7683331,"lng":-86.1583502,"hometown_city":"Indianapolis","hometown_state":"IN"},{"name":"Tony Williams","year":2026,"position":"ATH","stars":3,"rating_247":86.0,"committed_to":"Illinois","lat":30.3321838,"lng":-81.655651,"hometown_city":"Jacksonville","hometown_state":"FL"},{"name":"Emoni Smith","year":2026,"position":"ATH","stars":3,"rating_247":86.0,"committed_to":"Purdue","lat":39.9139207,"lng":-83.1633336,"hometown_city":"Galloway","hometown_state":"OH"},{"name":"Arthur Lewis IV","year":2026,"position":"ATH","stars":3,"rating_247":86.0,"committed_to":"UCF","lat":30.3321838,"lng":-81.655651,"hometown_city":"Jacksonville","hometown_state":"FL"},{"name":"E'Shawn Sutton","year":2026,"position":"ATH","stars":3,"rating_247":86.0,"committed_to":"Central Michigan","lat":26.13784445,"lng":-81.75399813758739,"hometown_city":"Winter Park","hometown_state":"FL"},{"name":"Dana Greenhow","year":2026,"position":"ATH","stars":3,"rating_247":86.0,"committed_to":"Purdue","lat":33.4713249,"lng":-84.5972005,"hometown_city":"Tyrone","hometown_state":"GA"},{"name":"Malachi Taylor","year":2026,"position":"ATH","stars":3,"rating_247":86.0,"committed_to":"Ohio","lat":39.896277299999994,"lng":-82.77319049748806,"hometown_city":"Pickerington","hometown_state":"OH"},{"name":"Kingston Seals","year":2026,"position":"ATH","stars":3,"rating_247":86.0,"committed_to":"Bowling Green","lat":41.5051613,"lng":-81.6934446,"hometown_city":"Cleveland","hometown_state":"OH"},{"name":"Jordan Jackson","year":2026,"position":"ATH","stars":3,"rating_247":85.0,"committed_to":"North Carolina State","lat":26.13784445,"lng":-81.75399813758739,"hometown_city":"Winter Park","hometown_state":"FL"},{"name":"James Brewer III","year":2026,"position":"ATH","stars":3,"rating_247":85.0,"committed_to":"Ohio","lat":41.1596261,"lng":-81.4406258,"hometown_city":"Stow","hometown_state":"OH"},{"name":"Donovan Triplett","year":2026,"position":"ATH","stars":3,"rating_247":85.0,"committed_to":"Western Michigan","lat":42.537811,"lng":-83.4810481,"hometown_city":"Walled Lake","hometown_state":"MI"},{"name":"Nate Dawson","year":2026,"position":"ATH","stars":3,"rating_247":85.0,"committed_to":"Northwestern","lat":39.1014537,"lng":-84.5124602,"hometown_city":"Cincinnati","hometown_state":"OH"},{"name":"Ross Ogden","year":2026,"position":"ATH","stars":3,"rating_247":85.0,"committed_to":"Northern Illinois","lat":39.1670396,"lng":-86.5342881,"hometown_city":"Bloomington","hometown_state":"IN"},{"name":"Ace Brown","year":2026,"position":"ATH","stars":3,"rating_247":84.0,"committed_to":"Colorado State","lat":41.083064,"lng":-81.518485,"hometown_city":"Akron","hometown_state":"OH"},{"name":"Adam Kirtley","year":2026,"position":"ATH","stars":3,"rating_247":84.0,"committed_to":"Cincinnati","lat":39.1014537,"lng":-84.5124602,"hometown_city":"Cincinnati","hometown_state":"OH"},{"name":"Camari Patterson","year":2026,"position":"ATH","stars":3,"rating_247":84.0,"committed_to":"Western Michigan","lat":42.5869558,"lng":-83.36895696372882,"hometown_city":"Orchard Lake","hometown_state":"MI"},{"name":"Jordin Price","year":2026,"position":"ATH","stars":3,"rating_247":83.0,"committed_to":"UAB","lat":30.1654707,"lng":-81.7016346,"hometown_city":"Orange Park","hometown_state":"FL"},{"name":"Clarence Tucker","year":2026,"position":"ATH","stars":3,"rating_247":82.0,"committed_to":null,"lat":32.7174209,"lng":-117.1627714,"hometown_city":"San Diego","hometown_state":"CA"},{"name":"Amir Morelan","year":2026,"position":"ATH","stars":3,"rating_247":82.0,"committed_to":"Miami (OH)","lat":42.9815877,"lng":-82.440466,"hometown_city":"Port Huron","hometown_state":"MI"},{"name":"Jamarcus Jones","year":2026,"position":"ATH","stars":3,"rating_247":82.0,"committed_to":"Buffalo","lat":39.9622601,"lng":-83.0007065,"hometown_city":"Columbus","hometown_state":"OH"},{"name":"Phoenix Donghia","year":2026,"position":"ATH","stars":3,"rating_247":82.0,"committed_to":"James Madison","lat":26.715364,"lng":-80.0532942,"hometown_city":"West Palm Beach","hometown_state":"FL"},{"name":"Drew Williams","year":2026,"position":"ATH","stars":3,"rating_247":81.0,"committed_to":"Marshall","lat":38.8949855,"lng":-77.0365708,"hometown_city":"Washington","hometown_state":"DC"},{"name":"Geno Seets","year":2026,"position":"ATH","stars":3,"rating_247":81.0,"committed_to":"Central Michigan","lat":42.6907,"lng":-83.4066,"hometown_city":"Waterford","hometown_state":"MI"},{"name":"Kareem Pruitt","year":2026,"position":"ATH","stars":3,"rating_247":81.0,"committed_to":"Massachusetts","lat":42.5869558,"lng":-83.36895696372882,"hometown_city":"Orchard Lake","hometown_state":"MI"},{"name":"Antonio Solares-Vitti","year":2026,"position":"ATH","stars":3,"rating_247":81.0,"committed_to":"Eastern Michigan","lat":42.3222599,"lng":-83.1763145,"hometown_city":"Dearborn","hometown_state":"MI"},{"name":"Cooper Enochs","year":2026,"position":"ATH","stars":null,"rating_247":null,"committed_to":null,"lat":40.2862,"lng":-82.7937,"hometown_city":"Washington Court House","hometown_state":"OH"},{"name":"Jay Fields","year":2026,"position":"ATH","stars":null,"rating_247":null,"committed_to":null,"lat":28.6305,"lng":-82.4497,"hometown_city":"Fort Pierce","hometown_state":"FL"},{"name":"Eli Beal","year":2026,"position":"ATH","stars":null,"rating_247":null,"committed_to":null,"lat":40.2862,"lng":-82.7937,"hometown_city":"Toledo","hometown_state":"OH"},{"name":"Kenneth McClinton","year":2026,"position":"ATH","stars":null,"rating_247":null,"committed_to":null,"lat":44.3467,"lng":-85.4102,"hometown_city":"Detroit","hometown_state":"MI"},{"name":"Carson Lovett","year":2026,"position":"ATH","stars":null,"rating_247":null,"committed_to":null,"lat":44.3467,"lng":-85.4102,"hometown_city":"Detroit","hometown_state":"MI"},{"name":"Bryce Shelton","year":2026,"position":"ATH","stars":null,"rating_247":null,"committed_to":"William & Mary","lat":32.6415,"lng":-83.4426,"hometown_city":"Marietta","hometown_state":"GA"},{"name":"Kameron Mills","year":2026,"position":"ATH","stars":null,"rating_247":null,"committed_to":null,"lat":28.6305,"lng":-82.4497,"hometown_city":"Lake City","hometown_state":"FL"},{"name":"Cameron Melvin","year":2026,"position":"ATH","stars":null,"rating_247":null,"committed_to":"Anderson","lat":35.5557,"lng":-79.3877,"hometown_city":"Clayton","hometown_state":"NC"},{"name":"Jayden Walker","year":2026,"position":"ATH","stars":null,"rating_247":null,"committed_to":"North Carolina Central","lat":37.5215,"lng":-78.8537,"hometown_city":"Richmond","hometown_state":"VA"},{"name":"Calix Lemp","year":2026,"position":"ATH","stars":null,"rating_247":null,"committed_to":"Air Force","lat":40.2862,"lng":-82.7937,"hometown_city":"Wadsworth","hometown_state":"OH"},{"name":"James Rush","year":2026,"position":"ATH","stars":null,"rating_247":null,"committed_to":"Dartmouth","lat":44.3467,"lng":-85.4102,"hometown_city":"Saline","hometown_state":"MI"},{"name":"Donte Swain","year":2026,"position":"ATH","stars":null,"rating_247":null,"committed_to":null,"lat":40.2862,"lng":-82.7937,"hometown_city":"Akron","hometown_state":"OH"},{"name":"Kalil Mazone","year":2026,"position":"ATH","stars":null,"rating_247":null,"committed_to":"Army","lat":32.6415,"lng":-83.4426,"hometown_city":"Suwanee","hometown_state":"GA"}],"2027":[{"name":"Jameson Purcell","year":2027,"position":"QB","stars":null,"rating_247":88.0,"committed_to":"Indiana","lat":40.0417,"lng":-89.1965,"hometown_city":"Park Ridge","hometown_state":"IL"},{"name":"Collin Boff","year":2027,"position":"QB","stars":null,"rating_247":86.0,"committed_to":"Bowling Green","lat":40.2862,"lng":-82.7937,"hometown_city":"Columbus","hometown_state":"OH"},{"name":"Cooper Newman","year":2027,"position":"QB","stars":null,"rating_247":86.0,"committed_to":"Connecticut","lat":35.858,"lng":-86.3505,"hometown_city":"Sevierville","hometown_state":"TN"},{"name":"Caden Gutzmer","year":2027,"position":"QB","stars":null,"rating_247":85.0,"committed_to":"North Dakota","lat":46.2807,"lng":-94.3053,"hometown_city":"Minnetonka","hometown_state":"MN"},{"name":"Kade Goodin","year":2027,"position":"QB","stars":null,"rating_247":85.0,"committed_to":"Ball State","lat":37.5347,"lng":-85.3021,"hometown_city":"Shelbyville","hometown_state":"KY"},{"name":"RJ Day","year":2027,"position":"QB","stars":null,"rating_247":84.0,"committed_to":"Northwestern","lat":40.2862,"lng":-82.7937,"hometown_city":"Columbus","hometown_state":"OH"},{"name":"Donovan Shirley","year":2027,"position":"QB","stars":null,"rating_247":82.0,"committed_to":null,"lat":37.1841,"lng":-119.4696,"hometown_city":"Los Angeles","hometown_state":"CA"},{"name":"Jabin Gonzalez","year":2027,"position":"QB","stars":null,"rating_247":null,"committed_to":null,"lat":44.3467,"lng":-85.4102,"hometown_city":"Orchard Lake","hometown_state":"MI"},{"name":"Kayden Edwards","year":2027,"position":"QB","stars":null,"rating_247":null,"committed_to":null,"lat":40.2862,"lng":-82.7937,"hometown_city":"Ironton","hometown_state":"OH"},{"name":"Max Griner","year":2027,"position":"QB","stars":null,"rating_247":null,"committed_to":null,"lat":28.6305,"lng":-82.4497,"hometown_city":"Lantana","hometown_state":"FL"},{"name":"Kendall Franklin","year":2027,"position":"QB","stars":null,"rating_247":null,"committed_to":null,"lat":44.3467,"lng":-85.4102,"hometown_city":"Belleville","hometown_state":"MI"},{"name":"Oscar Frye","year":2027,"position":"QB","stars":null,"rating_247":null,"committed_to":"Illinois State","lat":39.8942,"lng":-86.2816,"hometown_city":"Brownsburg","hometown_state":"IN"},{"name":"Tyler Chance","year":2027,"position":"QB","stars":null,"rating_247":null,"committed_to":null,"lat":28.6305,"lng":-82.4497,"hometown_city":"Fort Lauderdale","hometown_state":"FL"},{"name":"Jack VanOrman","year":2027,"position":"QB","stars":null,"rating_247":null,"committed_to":null,"lat":35.858,"lng":-86.3505,"hometown_city":"Nashville","hometown_state":"TN"},{"name":"Tristan Karl","year":2027,"position":"QB","stars":null,"rating_247":null,"committed_to":null,"lat":46.2807,"lng":-94.3053,"hometown_city":"Saint Paul","hometown_state":"MN"},{"name":"David Krall","year":2027,"position":"QB","stars":null,"rating_247":null,"committed_to":null,"lat":44.3467,"lng":-85.4102,"hometown_city":"Walled Lake","hometown_state":"MI"},{"name":"Joseph Allen","year":2027,"position":"QB","stars":null,"rating_247":null,"committed_to":null,"lat":28.6305,"lng":-82.4497,"hometown_city":"Melbourne","hometown_state":"FL"},{"name":"Armand Hill","year":2027,"position":"RB","stars":null,"rating_247":88.0,"committed_to":null,"lat":40.8781,"lng":-77.7996,"hometown_city":"West Mifflin","hometown_state":"PA"},{"name":"Kenyon Norman","year":2027,"position":"RB","stars":null,"rating_247":87.0,"committed_to":null,"lat":40.2862,"lng":-82.7937,"hometown_city":"West Chester","hometown_state":"OH"},{"name":"Arwin Jackson","year":2027,"position":"RB","stars":null,"rating_247":87.0,"committed_to":null,"lat":28.6305,"lng":-82.4497,"hometown_city":"Opa Locka","hometown_state":"FL"},{"name":"Xavier Bala","year":2027,"position":"RB","stars":null,"rating_247":87.0,"committed_to":"Boston College","lat":42.9538,"lng":-75.5268,"hometown_city":"Long Island City","hometown_state":"NY"},{"name":"Connail Jackson","year":2027,"position":"RB","stars":null,"rating_247":86.0,"committed_to":"UCF","lat":28.6305,"lng":-82.4497,"hometown_city":"Sarasota","hometown_state":"FL"},{"name":"Keyon Thomas","year":2027,"position":"RB","stars":null,"rating_247":86.0,"committed_to":null,"lat":39.8942,"lng":-86.2816,"hometown_city":"Indianapolis","hometown_state":"IN"},{"name":"Savior Owens","year":2027,"position":"RB","stars":null,"rating_247":86.0,"committed_to":"Michigan State","lat":40.2862,"lng":-82.7937,"hometown_city":"Massillon","hometown_state":"OH"},{"name":"Caleb Mattison","year":2027,"position":"RB","stars":null,"rating_247":86.0,"committed_to":null,"lat":28.6305,"lng":-82.4497,"hometown_city":"Jacksonville","hometown_state":"FL"},{"name":"Jayven Williams","year":2027,"position":"RB","stars":null,"rating_247":85.0,"committed_to":null,"lat":33.9169,"lng":-80.8964,"hometown_city":"Summerville","hometown_state":"SC"},{"name":"Tommy Scott","year":2027,"position":"RB","stars":null,"rating_247":84.0,"committed_to":"Florida Atlantic","lat":28.6305,"lng":-82.4497,"hometown_city":"Riverview","hometown_state":"FL"},{"name":"Camden Morton","year":2027,"position":"RB","stars":null,"rating_247":null,"committed_to":null,"lat":28.6305,"lng":-82.4497,"hometown_city":"St. Johns","hometown_state":"FL"},{"name":"Jett Jerwers","year":2027,"position":"RB","stars":null,"rating_247":null,"committed_to":"Harvard","lat":40.2862,"lng":-82.7937,"hometown_city":"New Albany","hometown_state":"OH"},{"name":"Isaiah Garrett","year":2027,"position":"RB","stars":null,"rating_247":null,"committed_to":null,"lat":40.2862,"lng":-82.7937,"hometown_city":"Cincinnati","hometown_state":"OH"},{"name":"Julian Baker","year":2027,"position":"RB","stars":null,"rating_247":null,"committed_to":"Kent State","lat":40.2862,"lng":-82.7937,"hometown_city":"Washington Court House","hometown_state":"OH"},{"name":"Artrell Vance","year":2027,"position":"RB","stars":null,"rating_247":null,"committed_to":null,"lat":28.6305,"lng":-82.4497,"hometown_city":"Miami","hometown_state":"FL"},{"name":"Jance Henry Jr.","year":2027,"position":"RB","stars":null,"rating_247":null,"committed_to":"Bowling Green","lat":40.2862,"lng":-82.7937,"hometown_city":"Akron","hometown_state":"OH"},{"name":"Jeremiah Fuller","year":2027,"position":"RB","stars":null,"rating_247":null,"committed_to":null,"lat":40.2862,"lng":-82.7937,"hometown_city":"Toledo","hometown_state":"OH"},{"name":"Jamon Holmes","year":2027,"position":"RB","stars":null,"rating_247":null,"committed_to":"Western Michigan","lat":40.2862,"lng":-82.7937,"hometown_city":"Toledo","hometown_state":"OH"},{"name":"Preston Beckham","year":2027,"position":"RB","stars":null,"rating_247":null,"committed_to":null,"lat":28.6305,"lng":-82.4497,"hometown_city":"Ruskin","hometown_state":"FL"},{"name":"Brayden Johnson","year":2027,"position":"RB","stars":null,"rating_247":null,"committed_to":null,"lat":39.8942,"lng":-86.2816,"hometown_city":"Bloomington","hometown_state":"IN"},{"name":"Jordan Hall","year":2027,"position":"RB","stars":null,"rating_247":null,"committed_to":"Miami (OH)","lat":40.2862,"lng":-82.7937,"hometown_city":"Cincinnati","hometown_state":"OH"},{"name":"Andyriq Thomas","year":2027,"position":"RB","stars":null,"rating_247":null,"committed_to":"Ohio","lat":40.2862,"lng":-82.7937,"hometown_city":"Pickerington","hometown_state":"OH"},{"name":"Dakota Guerrant","year":2027,"position":"WR","stars":null,"rating_247":98.0,"committed_to":null,"lat":44.3467,"lng":-85.4102,"hometown_city":"Harper Woods","hometown_state":"MI"},{"name":"Deshawn Hall","year":2027,"position":"WR","stars":null,"rating_247":91.0,"committed_to":null,"lat":32.7794,"lng":-86.8287,"hometown_city":"Prattville","hometown_state":"AL"},{"name":"Branden Sharpe","year":2027,"position":"WR","stars":null,"rating_247":90.0,"committed_to":"Indiana","lat":39.8942,"lng":-86.2816,"hometown_city":"Brownsburg","hometown_state":"IN"},{"name":"Javien Robinson","year":2027,"position":"WR","stars":null,"rating_247":90.0,"committed_to":"South Carolina","lat":40.8781,"lng":-77.7996,"hometown_city":"McKeesport","hometown_state":"PA"},{"name":"Ah'Mari Stevens","year":2027,"position":"WR","stars":null,"rating_247":90.0,"committed_to":"Louisiana State","lat":28.6305,"lng":-82.4497,"hometown_city":"Hollywood","hometown_state":"FL"},{"name":"Don Spillers","year":2027,"position":"WR","stars":null,"rating_247":87.0,"committed_to":null,"lat":44.3467,"lng":-85.4102,"hometown_city":"Detroit","hometown_state":"MI"},{"name":"Jacob Thomas","year":2027,"position":"WR","stars":null,"rating_247":86.0,"committed_to":"Pittsburgh","lat":28.6305,"lng":-82.4497,"hometown_city":"Pembroke Pines","hometown_state":"FL"},{"name":"Tavares Powell","year":2027,"position":"WR","stars":null,"rating_247":86.0,"committed_to":"Kansas","lat":28.6305,"lng":-82.4497,"hometown_city":"Bradenton","hometown_state":"FL"},{"name":"Austin Busso","year":2027,"position":"WR","stars":null,"rating_247":86.0,"committed_to":"South Florida","lat":40.1907,"lng":-74.6728,"hometown_city":"Oradell","hometown_state":"NJ"},{"name":"Hunter Ratkevich","year":2027,"position":"WR","stars":null,"rating_247":null,"committed_to":null,"lat":41.6219,"lng":-72.7273,"hometown_city":"Salisbury","hometown_state":"CT"},{"name":"Damacio Ortegon","year":2027,"position":"WR","stars":null,"rating_247":null,"committed_to":null,"lat":40.0417,"lng":-89.1965,"hometown_city":"Lombard","hometown_state":"IL"},{"name":"Jayden Cawthon","year":2027,"position":"WR","stars":null,"rating_247":null,"committed_to":null,"lat":40.0417,"lng":-89.1965,"hometown_city":"Plainfield","hometown_state":"IL"},{"name":"Quintero Frierson","year":2027,"position":"WR","stars":null,"rating_247":null,"committed_to":null,"lat":28.6305,"lng":-82.4497,"hometown_city":"Miami","hometown_state":"FL"},{"name":"Bryce Graham","year":2027,"position":"WR","stars":null,"rating_247":null,"committed_to":null,"lat":44.3467,"lng":-85.4102,"hometown_city":"Detroit","hometown_state":"MI"},{"name":"Amari Eliano","year":2027,"position":"WR","stars":null,"rating_247":null,"committed_to":null,"lat":40.2862,"lng":-82.7937,"hometown_city":"Toledo","hometown_state":"OH"},{"name":"Deuce Olden II","year":2027,"position":"WR","stars":null,"rating_247":null,"committed_to":null,"lat":28.6305,"lng":-82.4497,"hometown_city":"Fort Lauderdale","hometown_state":"FL"},{"name":"Trey Haddad","year":2027,"position":"WR","stars":null,"rating_247":null,"committed_to":null,"lat":40.2862,"lng":-82.7937,"hometown_city":"Cleveland","hometown_state":"OH"},{"name":"Noah Park","year":2027,"position":"WR","stars":null,"rating_247":null,"committed_to":null,"lat":41.6219,"lng":-72.7273,"hometown_city":"Greenwich","hometown_state":"CT"},{"name":"Christian Mollino","year":2027,"position":"WR","stars":null,"rating_247":null,"committed_to":null,"lat":28.6305,"lng":-82.4497,"hometown_city":"Riverview","hometown_state":"FL"},{"name":"Carter Kilburg","year":2027,"position":"WR","stars":null,"rating_247":null,"committed_to":null,"lat":35.858,"lng":-86.3505,"hometown_city":"Nashville","hometown_state":"TN"},{"name":"Audric Williams","year":2027,"position":"WR","stars":null,"rating_247":null,"committed_to":null,"lat":31.4757,"lng":-99.3312,"hometown_city":"Pflugerville","hometown_state":"TX"},{"name":"Curt Ellis","year":2027,"position":"WR","stars":null,"rating_247":null,"committed_to":null,"lat":28.6305,"lng":-82.4497,"hometown_city":"Blountstown","hometown_state":"FL"},{"name":"Zykarious Wilson","year":2027,"position":"WR","stars":null,"rating_247":null,"committed_to":null,"lat":32.7794,"lng":-86.8287,"hometown_city":"Mobile","hometown_state":"AL"},{"name":"John Johnson","year":2027,"position":"WR","stars":null,"rating_247":null,"committed_to":"Bowling Green","lat":40.2862,"lng":-82.7937,"hometown_city":"Akron","hometown_state":"OH"},{"name":"Reilly Newman","year":2027,"position":"TE","stars":null,"rating_247":90.0,"committed_to":"Iowa","lat":40.2862,"lng":-82.7937,"hometown_city":"West Chester","hometown_state":"OH"},{"name":"D'Angelo White","year":2027,"position":"TE","stars":null,"rating_247":89.0,"committed_to":"Louisville","lat":40.2862,"lng":-82.7937,"hometown_city":"Cleveland","hometown_state":"OH"},{"name":"Colton Johnson","year":2027,"position":"TE","stars":null,"rating_247":88.0,"committed_to":null,"lat":35.858,"lng":-86.3505,"hometown_city":"Baxter","hometown_state":"TN"},{"name":"Anthony Cartwright","year":2027,"position":"TE","stars":null,"rating_247":88.0,"committed_to":null,"lat":44.3467,"lng":-85.4102,"hometown_city":"Franklin","hometown_state":"MI"},{"name":"Holden Niemi","year":2027,"position":"TE","stars":null,"rating_247":87.0,"committed_to":"Texas A&M","lat":44.3467,"lng":-85.4102,"hometown_city":"Dexter","hometown_state":"MI"},{"name":"Parker Keenan","year":2027,"position":"TE","stars":null,"rating_247":86.0,"committed_to":"Arkansas","lat":35.858,"lng":-86.3505,"hometown_city":"Clarksville","hometown_state":"TN"},{"name":"Xavier Ratica","year":2027,"position":"TE","stars":null,"rating_247":84.0,"committed_to":"Louisville","lat":40.2862,"lng":-82.7937,"hometown_city":"West Chester","hometown_state":"OH"},{"name":"Leo McQuillan","year":2027,"position":"TE","stars":null,"rating_247":null,"committed_to":"Bowling Green","lat":39.8942,"lng":-86.2816,"hometown_city":"Brownsburg","hometown_state":"IN"},{"name":"Ryan Wanner","year":2027,"position":"TE","stars":null,"rating_247":null,"committed_to":"Navy","lat":28.6305,"lng":-82.4497,"hometown_city":"Sarasota","hometown_state":"FL"},{"name":"Joe Moore","year":2027,"position":"TE","stars":null,"rating_247":null,"committed_to":"Connecticut","lat":40.2862,"lng":-82.7937,"hometown_city":"Lakewood","hometown_state":"OH"},{"name":"Chase Phifer","year":2027,"position":"TE","stars":null,"rating_247":null,"committed_to":null,"lat":28.6305,"lng":-82.4497,"hometown_city":"Ponte Vedra Beach","hometown_state":"FL"},{"name":"Michael Glover","year":2027,"position":"TE","stars":null,"rating_247":null,"committed_to":null,"lat":40.8781,"lng":-77.7996,"hometown_city":"Reading","hometown_state":"PA"},{"name":"Jake Sneed","year":2027,"position":"TE","stars":null,"rating_247":null,"committed_to":"Toledo","lat":31.4757,"lng":-99.3312,"hometown_city":"The Woodlands","hometown_state":"TX"},{"name":"Owen Matela","year":2027,"position":"TE","stars":null,"rating_247":null,"committed_to":"Miami (OH)","lat":40.0417,"lng":-89.1965,"hometown_city":"La Grange","hometown_state":"IL"},{"name":"Collin Walls","year":2027,"position":"TE","stars":null,"rating_247":null,"committed_to":"Temple","lat":40.1907,"lng":-74.6728,"hometown_city":"Princeton","hometown_state":"NJ"},{"name":"Jack Evitts","year":2027,"position":"TE","stars":null,"rating_247":null,"committed_to":null,"lat":35.858,"lng":-86.3505,"hometown_city":"Dunlap","hometown_state":"TN"},{"name":"John Lumpkin","year":2027,"position":"TE","stars":null,"rating_247":null,"committed_to":null,"lat":40.2862,"lng":-82.7937,"hometown_city":"Dayton","hometown_state":"OH"},{"name":"Kellen Wymer","year":2027,"position":"OT","stars":null,"rating_247":94.0,"committed_to":"Ohio State","lat":40.2862,"lng":-82.7937,"hometown_city":"Liberty Center","hometown_state":"OH"},{"name":"David Tarawallie","year":2027,"position":"OT","stars":null,"rating_247":94.0,"committed_to":"Penn State","lat":40.2862,"lng":-82.7937,"hometown_city":"Painesville","hometown_state":"OH"},{"name":"Caleb Johnson","year":2027,"position":"OT","stars":null,"rating_247":90.0,"committed_to":null,"lat":39.8942,"lng":-86.2816,"hometown_city":"Noblesville","hometown_state":"IN"},{"name":"Davis Seaman","year":2027,"position":"OT","stars":null,"rating_247":90.0,"committed_to":"Ohio State","lat":40.2862,"lng":-82.7937,"hometown_city":"Columbus","hometown_state":"OH"},{"name":"Kal-El Johnson","year":2027,"position":"OT","stars":null,"rating_247":90.0,"committed_to":null,"lat":40.2862,"lng":-82.7937,"hometown_city":"Cincinnati","hometown_state":"OH"},{"name":"Kal-El Johnson","year":2027,"position":"OT","stars":null,"rating_247":90.0,"committed_to":null,"lat":40.2862,"lng":-82.7937,"hometown_city":"Cincinnati","hometown_state":"OH"},{"name":"Jack Carlson","year":2027,"position":"OT","stars":null,"rating_247":89.0,"committed_to":"Michigan State","lat":44.3467,"lng":-85.4102,"hometown_city":"Brighton","hometown_state":"MI"},{"name":"Reed Gerken","year":2027,"position":"OT","stars":null,"rating_247":88.0,"committed_to":"Kentucky","lat":40.2862,"lng":-82.7937,"hometown_city":"Perrysburg","hometown_state":"OH"},{"name":"Conner Rutherford","year":2027,"position":"OT","stars":null,"rating_247":88.0,"committed_to":"North Carolina State","lat":40.2862,"lng":-82.7937,"hometown_city":"Chillicothe","hometown_state":"OH"},{"name":"Patrick O'Brien","year":2027,"position":"OT","stars":null,"rating_247":87.0,"committed_to":"Purdue","lat":40.2862,"lng":-82.7937,"hometown_city":"Cincinnati","hometown_state":"OH"},{"name":"Teagan Parizek","year":2027,"position":"OT","stars":null,"rating_247":87.0,"committed_to":"Arkansas","lat":35.858,"lng":-86.3505,"hometown_city":"Hendersonville","hometown_state":"TN"},{"name":"Lual Aleu","year":2027,"position":"OT","stars":null,"rating_247":86.0,"committed_to":"Missouri","lat":40.2862,"lng":-82.7937,"hometown_city":"Cincinnati","hometown_state":"OH"},{"name":"Jack Marquard","year":2027,"position":"OT","stars":null,"rating_247":86.0,"committed_to":"Missouri","lat":40.2862,"lng":-82.7937,"hometown_city":"Lakewood","hometown_state":"OH"},{"name":"Eric Anderson","year":2027,"position":"OT","stars":null,"rating_247":85.0,"committed_to":null,"lat":44.3467,"lng":-85.4102,"hometown_city":"Novi","hometown_state":"MI"},{"name":"Krystian Oakley","year":2027,"position":"OT","stars":null,"rating_247":85.0,"committed_to":null,"lat":39.8942,"lng":-86.2816,"hometown_city":"Indianapolis","hometown_state":"IN"},{"name":"Nick Vecrumba","year":2027,"position":"OT","stars":null,"rating_247":85.0,"committed_to":"Kansas","lat":39.8942,"lng":-86.2816,"hometown_city":"Brownsburg","hometown_state":"IN"},{"name":"Isaiah Bryant","year":2027,"position":"OT","stars":null,"rating_247":80.0,"committed_to":null,"lat":35.858,"lng":-86.3505,"hometown_city":"Nashville","hometown_state":"TN"},{"name":"Aden Norris","year":2027,"position":"OT","stars":null,"rating_247":null,"committed_to":"Connecticut","lat":40.2862,"lng":-82.7937,"hometown_city":"Louisville","hometown_state":"OH"},{"name":"Ben Hale","year":2027,"position":"OT","stars":null,"rating_247":null,"committed_to":null,"lat":35.858,"lng":-86.3505,"hometown_city":"Nashville","hometown_state":"TN"},{"name":"RJ Clem","year":2027,"position":"OT","stars":null,"rating_247":null,"committed_to":null,"lat":39.8942,"lng":-86.2816,"hometown_city":"Logansport","hometown_state":"IN"},{"name":"Michael Golden","year":2027,"position":"OT","stars":null,"rating_247":null,"committed_to":null,"lat":41.6219,"lng":-72.7273,"hometown_city":"Avon","hometown_state":"CT"},{"name":"Bo Scheetz","year":2027,"position":"OT","stars":null,"rating_247":null,"committed_to":"Bowling Green","lat":40.2862,"lng":-82.7937,"hometown_city":"Navarre","hometown_state":"OH"},{"name":"Nowlin Lawson","year":2027,"position":"OT","stars":null,"rating_247":null,"committed_to":"Eastern Michigan","lat":28.6305,"lng":-82.4497,"hometown_city":"Bradenton","hometown_state":"FL"},{"name":"Samuel McGrath","year":2027,"position":"OT","stars":null,"rating_247":null,"committed_to":"Akron","lat":44.3467,"lng":-85.4102,"hometown_city":"Roseville","hometown_state":"MI"},{"name":"Kaden Buchanan","year":2027,"position":"IOL","stars":null,"rating_247":90.0,"committed_to":"Virginia Tech","lat":35.858,"lng":-86.3505,"hometown_city":"Lebanon","hometown_state":"TN"},{"name":"DaJohn Yarborough","year":2027,"position":"IOL","stars":null,"rating_247":89.0,"committed_to":null,"lat":34.2744,"lng":-111.6602,"hometown_city":"Chandler","hometown_state":"AZ"},{"name":"Jameer Henry","year":2027,"position":"IOL","stars":null,"rating_247":88.0,"committed_to":null,"lat":44.3467,"lng":-85.4102,"hometown_city":"Detroit","hometown_state":"MI"},{"name":"Grant Adloff","year":2027,"position":"IOL","stars":null,"rating_247":88.0,"committed_to":"Michigan State","lat":44.3467,"lng":-85.4102,"hometown_city":"Grand Rapids","hometown_state":"MI"},{"name":"Nicholas Schurman","year":2027,"position":"IOL","stars":null,"rating_247":87.0,"committed_to":null,"lat":39.8942,"lng":-86.2816,"hometown_city":"Westfield","hometown_state":"IN"},{"name":"Matthias Burrell","year":2027,"position":"IOL","stars":null,"rating_247":87.0,"committed_to":"Kentucky","lat":40.2862,"lng":-82.7937,"hometown_city":"Columbus","hometown_state":"OH"},{"name":"Kenny Fairley","year":2027,"position":"IOL","stars":null,"rating_247":87.0,"committed_to":"Colorado","lat":32.6415,"lng":-83.4426,"hometown_city":"Fairburn","hometown_state":"GA"},{"name":"Nico Ramos","year":2027,"position":"IOL","stars":null,"rating_247":86.0,"committed_to":"Syracuse","lat":28.6305,"lng":-82.4497,"hometown_city":"Plantation","hometown_state":"FL"},{"name":"Louis Esposito","year":2027,"position":"IOL","stars":null,"rating_247":86.0,"committed_to":"Michigan","lat":44.3467,"lng":-85.4102,"hometown_city":"Saline","hometown_state":"MI"},{"name":"Braden Chaffin","year":2027,"position":"IOL","stars":null,"rating_247":86.0,"committed_to":"Stanford","lat":44.3467,"lng":-85.4102,"hometown_city":"Livonia","hometown_state":"MI"},{"name":"Jayden Dean","year":2027,"position":"IOL","stars":null,"rating_247":85.0,"committed_to":null,"lat":28.6305,"lng":-82.4497,"hometown_city":"Fort Lauderdale","hometown_state":"FL"},{"name":"Jalen Webb","year":2027,"position":"IOL","stars":null,"rating_247":85.0,"committed_to":"Cincinnati","lat":40.2862,"lng":-82.7937,"hometown_city":"Toledo","hometown_state":"OH"},{"name":"Chase Clark","year":2027,"position":"IOL","stars":null,"rating_247":85.0,"committed_to":"Oklahoma State","lat":40.0417,"lng":-89.1965,"hometown_city":"Chicago","hometown_state":"IL"},{"name":"Skyler Smith","year":2027,"position":"IOL","stars":null,"rating_247":85.0,"committed_to":"Duke","lat":35.858,"lng":-86.3505,"hometown_city":"Nashville","hometown_state":"TN"},{"name":"Bryce Daniels","year":2027,"position":"IOL","stars":null,"rating_247":null,"committed_to":"UAB","lat":28.6305,"lng":-82.4497,"hometown_city":"Gainesville","hometown_state":"FL"},{"name":"Cash Freeman","year":2027,"position":"IOL","stars":null,"rating_247":null,"committed_to":null,"lat":35.5557,"lng":-79.3877,"hometown_city":"Arden","hometown_state":"NC"},{"name":"Giovanni Garner","year":2027,"position":"IOL","stars":null,"rating_247":null,"committed_to":null,"lat":28.6305,"lng":-82.4497,"hometown_city":"Opa Locka","hometown_state":"FL"},{"name":"Preston Ashmore","year":2027,"position":"IOL","stars":null,"rating_247":null,"committed_to":"Navy","lat":35.858,"lng":-86.3505,"hometown_city":"Franklin","hometown_state":"TN"},{"name":"Jeremiah Ogbeifun","year":2027,"position":"IOL","stars":null,"rating_247":null,"committed_to":null,"lat":40.2862,"lng":-82.7937,"hometown_city":"Pickerington","hometown_state":"OH"},{"name":"Gerren Bray","year":2027,"position":"IOL","stars":null,"rating_247":null,"committed_to":null,"lat":28.6305,"lng":-82.4497,"hometown_city":"Fort Lauderdale","hometown_state":"FL"},{"name":"Alex Bolar","year":2027,"position":"IOL","stars":null,"rating_247":null,"committed_to":null,"lat":40.2862,"lng":-82.7937,"hometown_city":"Cincinnati","hometown_state":"OH"},{"name":"William Tobin","year":2027,"position":"IOL","stars":null,"rating_247":null,"committed_to":"Miami (OH)","lat":44.3467,"lng":-85.4102,"hometown_city":"Hartland","hometown_state":"MI"},{"name":"Max Koback","year":2027,"position":"IOL","stars":null,"rating_247":null,"committed_to":null,"lat":40.2862,"lng":-82.7937,"hometown_city":"Toledo","hometown_state":"OH"},{"name":"Trevor Burick","year":2027,"position":"IOL","stars":null,"rating_247":null,"committed_to":null,"lat":40.2862,"lng":-82.7937,"hometown_city":"Louisville","hometown_state":"OH"},{"name":"Desmond Malpress","year":2027,"position":"Edge","stars":null,"rating_247":90.0,"committed_to":"Clemson","lat":28.6305,"lng":-82.4497,"hometown_city":"Jacksonville","hometown_state":"FL"},{"name":"Ifeanyi Emedobi","year":2027,"position":"Edge","stars":null,"rating_247":89.0,"committed_to":null,"lat":39.8942,"lng":-86.2816,"hometown_city":"Fort Wayne","hometown_state":"IN"},{"name":"Jaylen Mercer","year":2027,"position":"Edge","stars":null,"rating_247":88.0,"committed_to":null,"lat":40.2862,"lng":-82.7937,"hometown_city":"Cincinnati","hometown_state":"OH"},{"name":"Kaylon Bailey","year":2027,"position":"Edge","stars":null,"rating_247":88.0,"committed_to":null,"lat":40.2862,"lng":-82.7937,"hometown_city":"Cleveland","hometown_state":"OH"},{"name":"Jayce Brewer","year":2027,"position":"Edge","stars":null,"rating_247":88.0,"committed_to":"Michigan","lat":39.8942,"lng":-86.2816,"hometown_city":"Indianapolis","hometown_state":"IN"},{"name":"Jaxon Holly","year":2027,"position":"Edge","stars":null,"rating_247":88.0,"committed_to":null,"lat":32.6415,"lng":-83.4426,"hometown_city":"Roswell","hometown_state":"GA"},{"name":"Munir Lewis","year":2027,"position":"Edge","stars":null,"rating_247":88.0,"committed_to":"Louisville","lat":40.2862,"lng":-82.7937,"hometown_city":"Cleveland","hometown_state":"OH"},{"name":"Trevoris Finley","year":2027,"position":"Edge","stars":null,"rating_247":87.0,"committed_to":"West Virginia","lat":28.6305,"lng":-82.4497,"hometown_city":"Opa Locka","hometown_state":"FL"},{"name":"Lawrence Kanneh","year":2027,"position":"Edge","stars":null,"rating_247":87.0,"committed_to":"Michigan State","lat":40.2862,"lng":-82.7937,"hometown_city":"Columbus","hometown_state":"OH"},{"name":"Roy Price","year":2027,"position":"Edge","stars":null,"rating_247":87.0,"committed_to":"Minnesota","lat":40.2862,"lng":-82.7937,"hometown_city":"Newark","hometown_state":"OH"},{"name":"Dominic Letlow","year":2027,"position":"Edge","stars":null,"rating_247":87.0,"committed_to":"Pittsburgh","lat":40.2862,"lng":-82.7937,"hometown_city":"Youngstown","hometown_state":"OH"},{"name":"Bradyn Paulozzi","year":2027,"position":"Edge","stars":null,"rating_247":86.0,"committed_to":"Syracuse","lat":40.2862,"lng":-82.7937,"hometown_city":"Lakewood","hometown_state":"OH"},{"name":"Lamier Wade","year":2027,"position":"Edge","stars":null,"rating_247":86.0,"committed_to":"Connecticut","lat":40.8781,"lng":-77.7996,"hometown_city":"Pittsburgh","hometown_state":"PA"},{"name":"Mason Wright","year":2027,"position":"Edge","stars":null,"rating_247":null,"committed_to":null,"lat":32.6415,"lng":-83.4426,"hometown_city":"Dallas","hometown_state":"GA"},{"name":"Damion King","year":2027,"position":"Edge","stars":null,"rating_247":null,"committed_to":null,"lat":40.2862,"lng":-82.7937,"hometown_city":"Westerville","hometown_state":"OH"},{"name":"Justin Kemp","year":2027,"position":"Edge","stars":null,"rating_247":null,"committed_to":null,"lat":28.6305,"lng":-82.4497,"hometown_city":"Orlando","hometown_state":"FL"},{"name":"Trace Johnson","year":2027,"position":"Edge","stars":null,"rating_247":null,"committed_to":null,"lat":28.6305,"lng":-82.4497,"hometown_city":"Orlando","hometown_state":"FL"},{"name":"Troy Butler","year":2027,"position":"Edge","stars":null,"rating_247":null,"committed_to":"Liberty","lat":28.6305,"lng":-82.4497,"hometown_city":"Jacksonville","hometown_state":"FL"},{"name":"Mark Shiloh","year":2027,"position":"Edge","stars":null,"rating_247":null,"committed_to":null,"lat":28.6305,"lng":-82.4497,"hometown_city":"Jacksonville","hometown_state":"FL"},{"name":"Max Bollman","year":2027,"position":"Edge","stars":null,"rating_247":null,"committed_to":"Miami (OH)","lat":44.3467,"lng":-85.4102,"hometown_city":"Big Rapids","hometown_state":"MI"},{"name":"Ar'Modd Alexander","year":2027,"position":"Edge","stars":null,"rating_247":null,"committed_to":null,"lat":31.4757,"lng":-99.3312,"hometown_city":"Forney","hometown_state":"TX"},{"name":"Leslie Woodson","year":2027,"position":"Edge","stars":null,"rating_247":null,"committed_to":null,"lat":39.8942,"lng":-86.2816,"hometown_city":"Fort Wayne","hometown_state":"IN"},{"name":"Asher Newman","year":2027,"position":"Edge","stars":null,"rating_247":null,"committed_to":null,"lat":44.3467,"lng":-85.4102,"hometown_city":"Haslett","hometown_state":"MI"},{"name":"Zeke Walkup","year":2027,"position":"Edge","stars":null,"rating_247":null,"committed_to":null,"lat":35.858,"lng":-86.3505,"hometown_city":"Woodbury","hometown_state":"TN"},{"name":"Israel Hayward","year":2027,"position":"Edge","stars":null,"rating_247":null,"committed_to":null,"lat":28.6305,"lng":-82.4497,"hometown_city":"Jacksonville","hometown_state":"FL"},{"name":"Austin Wright","year":2027,"position":"Edge","stars":null,"rating_247":null,"committed_to":"Eastern Michigan","lat":40.8781,"lng":-77.7996,"hometown_city":"Philadelphia","hometown_state":"PA"},{"name":"Wyatt Smith","year":2027,"position":"DL","stars":null,"rating_247":93.0,"committed_to":"Ohio State","lat":28.6305,"lng":-82.4497,"hometown_city":"Fort Lauderdale","hometown_state":"FL"},{"name":"Brayden Parks","year":2027,"position":"DL","stars":null,"rating_247":91.0,"committed_to":null,"lat":40.0417,"lng":-89.1965,"hometown_city":"Oak Lawn","hometown_state":"IL"},{"name":"Reinaldo Perez","year":2027,"position":"DL","stars":null,"rating_247":89.0,"committed_to":"Indiana","lat":40.2862,"lng":-82.7937,"hometown_city":"Columbus","hometown_state":"OH"},{"name":"Dami Sowunmi","year":2027,"position":"DL","stars":null,"rating_247":89.0,"committed_to":"Missouri","lat":39.8942,"lng":-86.2816,"hometown_city":"Brownsburg","hometown_state":"IN"},{"name":"Amari Vickerson","year":2027,"position":"DL","stars":null,"rating_247":88.0,"committed_to":"SMU","lat":31.4757,"lng":-99.3312,"hometown_city":"Cypress","hometown_state":"TX"},{"name":"Keilan Neal","year":2027,"position":"DL","stars":null,"rating_247":88.0,"committed_to":null,"lat":35.858,"lng":-86.3505,"hometown_city":"Nashville","hometown_state":"TN"},{"name":"Joshua Simmons","year":2027,"position":"DL","stars":null,"rating_247":87.0,"committed_to":null,"lat":42.9538,"lng":-75.5268,"hometown_city":"New Rochelle","hometown_state":"NY"},{"name":"James Stewart","year":2027,"position":"DL","stars":null,"rating_247":87.0,"committed_to":"Arkansas","lat":35.858,"lng":-86.3505,"hometown_city":"Murfreesboro","hometown_state":"TN"},{"name":"Jaiden Davis","year":2027,"position":"DL","stars":null,"rating_247":86.0,"committed_to":null,"lat":40.2862,"lng":-82.7937,"hometown_city":"Middletown","hometown_state":"OH"},{"name":"Josiah Ampofo","year":2027,"position":"DL","stars":null,"rating_247":86.0,"committed_to":null,"lat":38.9101,"lng":-77.0147,"hometown_city":"Washington","hometown_state":"DC"},