{"2026":[{"name":"Ryder Lyons","year":2026,"position":"QB","stars":4,"rating_247":96.0,"committed_to":"BYU","lat":38.6779591,"lng":-121.1760583,"hometown_city":"Folsom","hometown_state":"CA"},{"name":"Bowe Bentley","year":2026,"position":"QB","stars":4,"rating_247":95.0,"committed_to":"Oklahoma","lat":33.3238976,"lng":-96.785342,"hometown_city":"Celina","hometown_state":"TX"},{"name":"Legend Bey","year":2026,"position":"QB","stars":4,"rating_247":93.0,"committed_to":"Ohio State","lat":32.747893,"lng":-96.4719289,"hometown_city":"Forney","hometown_state":"TX"},{"name":"Jake Fette","year":2026,"position":"QB","stars":4,"rating_247":93.0,"committed_to":"Arizona State","lat":31.7754152,"lng":-106.4646348,"hometown_city":"El Paso","hometown_state":"TX"},{"name":"Oscar Rios","year":2026,"position":"QB","stars":4,"rating_247":89.0,"committed_to":"Arizona","lat":33.942215,"lng":-118.1235646,"hometown_city":"Downey","hometown_state":"CA"},{"name":"Troy Huhn","year":2026,"position":"QB","stars":4,"rating_247":89.0,"committed_to":"Virginia Tech","lat":33.1433723,"lng":-117.1661449,"hometown_city":"San Marcos","hometown_state":"CA"},{"name":"Nainoa Lopes","year":2026,"position":"QB","stars":3,"rating_247":88.0,"committed_to":"California","lat":21.304547,"lng":-157.8556764,"hometown_city":"Honolulu","hometown_state":"HI"},{"name":"Brady Smigiel","year":2026,"position":"QB","stars":4,"rating_247":88.0,"committed_to":"Michigan","lat":34.183671,"lng":-118.9118302,"hometown_city":"Newbury Park","hometown_state":"CA"},{"name":"Luke Fahey","year":2026,"position":"QB","stars":4,"rating_247":88.0,"committed_to":"Ohio State","lat":33.5965685,"lng":-117.659405,"hometown_city":"Mission Viejo","hometown_state":"CA"},{"name":"Cash Herrera","year":2026,"position":"QB","stars":3,"rating_247":88.0,"committed_to":"Boise State","lat":32.83259,"lng":-117.2716839,"hometown_city":"La Jolla","hometown_state":"CA"},{"name":"Ryan Hopkins","year":2026,"position":"QB","stars":3,"rating_247":87.0,"committed_to":"Wisconsin","lat":33.7494951,"lng":-117.8732213,"hometown_city":"Santa Ana","hometown_state":"CA"},{"name":"Jaden O'Neal","year":2026,"position":"QB","stars":4,"rating_247":87.0,"committed_to":"Florida State","lat":35.384227,"lng":-97.7244813,"hometown_city":"Mustang","hometown_state":"OK"},{"name":"Deagan Rose","year":2026,"position":"QB","stars":3,"rating_247":87.0,"committed_to":"Fresno State","lat":36.8252277,"lng":-119.7029194,"hometown_city":"Clovis","hometown_state":"CA"},{"name":"Corin Berry","year":2026,"position":"QB","stars":3,"rating_247":87.0,"committed_to":"Purdue","lat":34.1024,"lng":-117.85486499999999,"hometown_city":"Covina","hometown_state":"CA"},{"name":"Brady Palmer","year":2026,"position":"QB","stars":3,"rating_247":86.0,"committed_to":"Minnesota","lat":26.1223084,"lng":-80.1433786,"hometown_city":"Fort Lauderdale","hometown_state":"FL"},{"name":"Mike Mitchell Jr.","year":2026,"position":"QB","stars":null,"rating_247":86.0,"committed_to":"Stanford","lat":37.1841,"lng":-119.4696,"hometown_city":"San Francisco","hometown_state":"CA"},{"name":"Derek Garcia","year":2026,"position":"QB","stars":3,"rating_247":86.0,"committed_to":"Nevada, Las Vegas","lat":34.3435092,"lng":-119.29560423163717,"hometown_city":"Ventura","hometown_state":"CA"},{"name":"Tayden-Evan Kaawa","year":2026,"position":"QB","stars":null,"rating_247":86.0,"committed_to":"Alabama","lat":39.321,"lng":-111.0937,"hometown_city":"Orem","hometown_state":"UT"},{"name":"Brooks Goodman","year":2026,"position":"QB","stars":3,"rating_247":85.0,"committed_to":"Cincinnati","lat":34.02332,"lng":-84.360022,"hometown_city":"Roswell","hometown_state":"GA"},{"name":"Ashton Pannell","year":2026,"position":"QB","stars":3,"rating_247":84.0,"committed_to":"Chicago State","lat":33.4942189,"lng":-111.9260184,"hometown_city":"Scottsdale","hometown_state":"AZ"},{"name":"Wyatt Brown","year":2026,"position":"QB","stars":3,"rating_247":84.0,"committed_to":"West Virginia","lat":34.1508718,"lng":-118.4489865,"hometown_city":"Sherman Oaks","hometown_state":"CA"},{"name":"Grant Smith","year":2026,"position":"QB","stars":3,"rating_247":83.0,"committed_to":"Towson","lat":30.0798826,"lng":-95.4172549,"hometown_city":"Spring","hometown_state":"TX"},{"name":"KJ Edwards","year":2026,"position":"RB","stars":4,"rating_247":97.0,"committed_to":"Texas A&M","lat":32.1570412,"lng":-94.338114,"hometown_city":"Carthage","hometown_state":"TX"},{"name":"Tradarian Ball","year":2026,"position":"RB","stars":4,"rating_247":96.0,"committed_to":"Oregon","lat":33.44628645,"lng":-94.07638067493534,"hometown_city":"Texarkana","hometown_state":"TX"},{"name":"Deshonne Redeaux","year":2026,"position":"RB","stars":4,"rating_247":95.0,"committed_to":"Southern California","lat":34.1460234,"lng":-118.8061794,"hometown_city":"Westlake Village","hometown_state":"CA"},{"name":"Jonathan Hatton Jr.","year":2026,"position":"RB","stars":4,"rating_247":95.0,"committed_to":"Oklahoma","lat":29.5707831,"lng":-98.2330927,"hometown_city":"Cibolo","hometown_state":"TX"},{"name":"Brian Bonner Jr.","year":2026,"position":"RB","stars":null,"rating_247":94.0,"committed_to":"Washington","lat":37.1841,"lng":-119.4696,"hometown_city":"Valencia","hometown_state":"CA"},{"name":"Amari Latimer","year":2026,"position":"RB","stars":4,"rating_247":90.0,"committed_to":"West Virginia","lat":33.4713249,"lng":-84.5972005,"hometown_city":"Tyrone","hometown_state":"GA"},{"name":"Ace Martin","year":2026,"position":"RB","stars":null,"rating_247":90.0,"committed_to":"Texas Christian","lat":31.4757,"lng":-99.3312,"hometown_city":"Port Arthur","hometown_state":"TX"},{"name":"KD Jones","year":2026,"position":"RB","stars":3,"rating_247":89.0,"committed_to":"Oklahoma State","lat":36.0228734,"lng":-95.9683278,"hometown_city":"Jenks","hometown_state":"OK"},{"name":"Victor Santino","year":2026,"position":"RB","stars":4,"rating_247":89.0,"committed_to":"California","lat":25.7742658,"lng":-80.1936589,"hometown_city":"Miami","hometown_state":"FL"},{"name":"LaMarcus Bell","year":2026,"position":"RB","stars":3,"rating_247":89.0,"committed_to":"Utah","lat":45.4206749,"lng":-122.6706498,"hometown_city":"Lake Oswego","hometown_state":"OR"},{"name":"Ryan Estrada","year":2026,"position":"RB","stars":4,"rating_247":89.0,"committed_to":"Minnesota","lat":31.7754152,"lng":-106.4646348,"hometown_city":"El Paso","hometown_state":"TX"},{"name":"Keilan Chavies","year":2026,"position":"RB","stars":3,"rating_247":88.0,"committed_to":"Boise State","lat":30.5427638,"lng":-97.5468898,"hometown_city":"Hutto","hometown_state":"TX"},{"name":"Sean Morris II","year":2026,"position":"RB","stars":3,"rating_247":87.0,"committed_to":"Northwestern","lat":33.7872568,"lng":-117.8503088,"hometown_city":"Orange","hometown_state":"CA"},{"name":"Ashton Rowden","year":2026,"position":"RB","stars":4,"rating_247":87.0,"committed_to":"Texas Tech","lat":33.4598415,"lng":-94.4154787,"hometown_city":"New Boston","hometown_state":"TX"},{"name":"Josiah Lucas","year":2026,"position":"RB","stars":3,"rating_247":86.0,"committed_to":"San Diego State","lat":32.657368000000005,"lng":-97.02846624175038,"hometown_city":"Grand Prairie","hometown_state":"TX"},{"name":"Izayah Lee","year":2026,"position":"RB","stars":3,"rating_247":85.0,"committed_to":"Vanderbilt","lat":32.5920798,"lng":-96.7561083,"hometown_city":"Lancaster","hometown_state":"TX"},{"name":"Caleb Crenshaw","year":2026,"position":"RB","stars":3,"rating_247":84.0,"committed_to":"Stephen F. Austin","lat":30.2711286,"lng":-97.7436995,"hometown_city":"Austin","hometown_state":"TX"},{"name":"Javion Garrett","year":2026,"position":"RB","stars":null,"rating_247":null,"committed_to":null,"lat":31.4757,"lng":-99.3312,"hometown_city":"Katy","hometown_state":"TX"},{"name":"Keisean Henderson","year":2026,"position":"WR","stars":5,"rating_247":100.0,"committed_to":"Houston","lat":30.0798826,"lng":-95.4172549,"hometown_city":"Spring","hometown_state":"TX"},{"name":"Kayden Dixon-Wyatt","year":2026,"position":"WR","stars":4,"rating_247":97.0,"committed_to":"Southern California","lat":33.7494951,"lng":-117.8732213,"hometown_city":"Santa Ana","hometown_state":"CA"},{"name":"Ethan Feaster","year":2026,"position":"WR","stars":4,"rating_247":96.0,"committed_to":"Southern California","lat":32.6061241,"lng":-96.865612653687,"hometown_city":"DeSoto","hometown_state":"TX"},{"name":"R.J. Mosley","year":2026,"position":"WR","stars":null,"rating_247":94.0,"committed_to":"Arizona","lat":37.1841,"lng":-119.4696,"hometown_city":"Pittsburg","hometown_state":"CA"},{"name":"Jabari Mack","year":2026,"position":"WR","stars":4,"rating_247":91.0,"committed_to":"Louisiana State","lat":29.960933,"lng":-90.3705407077716,"hometown_city":"Destrehan","hometown_state":"LA"},{"name":"Mason James","year":2026,"position":"WR","stars":4,"rating_247":91.0,"committed_to":"Washington","lat":35.2225717,"lng":-97.4394816,"hometown_city":"Norman","hometown_state":"OK"},{"name":"Luc Weaver","year":2026,"position":"WR","stars":4,"rating_247":91.0,"committed_to":"Southern California","lat":34.1508718,"lng":-118.4489865,"hometown_city":"Sherman Oaks","hometown_state":"CA"},{"name":"Messiah Hampton","year":2026,"position":"WR","stars":4,"rating_247":91.0,"committed_to":"Oregon","lat":43.157285,"lng":-77.615214,"hometown_city":"Rochester","hometown_state":"NY"},{"name":"Kohen Brown","year":2026,"position":"WR","stars":3,"rating_247":90.0,"committed_to":"Texas","lat":32.3944908,"lng":-96.8439365,"hometown_city":"Waxahachie","hometown_state":"TX"},{"name":"Rico Blassingame","year":2026,"position":"WR","stars":3,"rating_247":90.0,"committed_to":"Minnesota","lat":33.4500497,"lng":-112.2593093,"hometown_city":"Tolleson","hometown_state":"AZ"},{"name":"Vance Spafford","year":2026,"position":"WR","stars":4,"rating_247":90.0,"committed_to":"Miami","lat":33.5965685,"lng":-117.659405,"hometown_city":"Mission Viejo","hometown_state":"CA"},{"name":"Brayden Robinson","year":2026,"position":"WR","stars":4,"rating_247":90.0,"committed_to":"Notre Dame","lat":32.5117104,"lng":-96.80836332870047,"hometown_city":"Red Oak","hometown_state":"TX"},{"name":"Daniel Odom","year":2026,"position":"WR","stars":4,"rating_247":90.0,"committed_to":"Oklahoma","lat":33.8825705,"lng":-118.1167679,"hometown_city":"Bellflower","hometown_state":"CA"},{"name":"Kennan Pula","year":2026,"position":"WR","stars":3,"rating_247":90.0,"committed_to":"BYU","lat":40.3768954,"lng":-111.7957645,"hometown_city":"American Fork","hometown_state":"UT"},{"name":"Rodney Dunbar","year":2026,"position":"WR","stars":null,"rating_247":89.0,"committed_to":"Pittsburgh","lat":32.6415,"lng":-83.4426,"hometown_city":"Thomasville","hometown_state":"GA"},{"name":"Xavier Warren","year":2026,"position":"WR","stars":3,"rating_247":89.0,"committed_to":"Texas State","lat":30.671598,"lng":-97.65500660120435,"hometown_city":"Georgetown","hometown_state":"TX"},{"name":"Kenneth Moore III","year":2026,"position":"WR","stars":4,"rating_247":89.0,"committed_to":"UCLA","lat":37.9577016,"lng":-121.2907796,"hometown_city":"Stockton","hometown_state":"CA"},{"name":"Cynai Thomas","year":2026,"position":"WR","stars":3,"rating_247":89.0,"committed_to":"Oregon State","lat":37.7790262,"lng":-122.4199061,"hometown_city":"San Francisco","hometown_state":"CA"},{"name":"EJ Morgan","year":2026,"position":"WR","stars":3,"rating_247":89.0,"committed_to":"California","lat":36.7295295,"lng":-119.70886126075588,"hometown_city":"Fresno","hometown_state":"CA"},{"name":"Khamill Pruitt","year":2026,"position":"WR","stars":3,"rating_247":88.0,"committed_to":"Texas Christian","lat":32.701938999999996,"lng":-97.10562379033699,"hometown_city":"Arlington","hometown_state":"TX"},{"name":"Langdon Horace","year":2026,"position":"WR","stars":3,"rating_247":88.0,"committed_to":"Stanford","lat":37.9577016,"lng":-121.2907796,"hometown_city":"Stockton","hometown_state":"CA"},{"name":"Kai Meza","year":2026,"position":"WR","stars":3,"rating_247":88.0,"committed_to":"California","lat":40.5246711,"lng":-111.8638226,"hometown_city":"Draper","hometown_state":"UT"},{"name":"Xavier Green","year":2026,"position":"WR","stars":3,"rating_247":88.0,"committed_to":"Tulsa","lat":33.0890094,"lng":-96.8863922,"hometown_city":"The Colony","hometown_state":"TX"},{"name":"Daylen Sharper","year":2026,"position":"WR","stars":3,"rating_247":88.0,"committed_to":"Stanford","lat":33.4484367,"lng":-112.0741417,"hometown_city":"Phoenix","hometown_state":"AZ"},{"name":"Brock Boyd","year":2026,"position":"WR","stars":3,"rating_247":87.0,"committed_to":"Ohio State","lat":32.9412363,"lng":-97.1341783,"hometown_city":"Southlake","hometown_state":"TX"},{"name":"Cooper Reid","year":2026,"position":"WR","stars":3,"rating_247":87.0,"committed_to":"Texas Christian","lat":30.1902067,"lng":-98.0866781,"hometown_city":"Dripping Springs","hometown_state":"TX"},{"name":"Henry Harris","year":2026,"position":"WR","stars":3,"rating_247":87.0,"committed_to":null,"lat":29.8826436,"lng":-97.9405828,"hometown_city":"San Marcos","hometown_state":"TX"},{"name":"Graham Livingston","year":2026,"position":"WR","stars":3,"rating_247":87.0,"committed_to":"BYU","lat":41.6815987,"lng":-111.8229982,"hometown_city":"Millville","hometown_state":"UT"},{"name":"Kobie Watson","year":2026,"position":"WR","stars":3,"rating_247":86.0,"committed_to":null,"lat":35.3738712,"lng":-119.0194639,"hometown_city":"Bakersfield","hometown_state":"CA"},{"name":"AJ Logan","year":2026,"position":"WR","stars":3,"rating_247":86.0,"committed_to":"Boise State","lat":39.0800023,"lng":-122.5963989,"hometown_city":"Spring Valley","hometown_state":"CA"},{"name":"Markus Kier","year":2026,"position":"WR","stars":3,"rating_247":86.0,"committed_to":"UCLA","lat":33.7872568,"lng":-117.8503088,"hometown_city":"Orange","hometown_state":"CA"},{"name":"Camden Capehart","year":2026,"position":"WR","stars":null,"rating_247":85.0,"committed_to":"Mississippi State","lat":31.4757,"lng":-99.3312,"hometown_city":"Winnsboro","hometown_state":"TX"},{"name":"Wyatt Villarreal","year":2026,"position":"WR","stars":3,"rating_247":85.0,"committed_to":"Pittsburgh","lat":33.3238976,"lng":-96.785342,"hometown_city":"Celina","hometown_state":"TX"},{"name":"Judge Nash","year":2026,"position":"WR","stars":3,"rating_247":85.0,"committed_to":"Harvard","lat":37.7790262,"lng":-122.4199061,"hometown_city":"San Francisco","hometown_state":"CA"},{"name":"Kei'Maurii Miles","year":2026,"position":"WR","stars":3,"rating_247":85.0,"committed_to":null,"lat":32.4609764,"lng":-84.9877094,"hometown_city":"Columbus","hometown_state":"GA"},{"name":"Devin Olmande","year":2026,"position":"WR","stars":3,"rating_247":85.0,"committed_to":"San Jose State","lat":34.183671,"lng":-118.9118302,"hometown_city":"Newbury Park","hometown_state":"CA"},{"name":"Keidric Osunde-Brown","year":2026,"position":"WR","stars":3,"rating_247":84.0,"committed_to":"Louisiana-Monroe","lat":32.701938999999996,"lng":-97.10562379033699,"hometown_city":"Arlington","hometown_state":"TX"},{"name":"David Brewer","year":2026,"position":"WR","stars":3,"rating_247":84.0,"committed_to":null,"lat":29.5821811,"lng":-95.7607832,"hometown_city":"Richmond","hometown_state":"TX"},{"name":"Isaiah Williams","year":2026,"position":"WR","stars":3,"rating_247":83.0,"committed_to":"Nevada","lat":38.6779591,"lng":-121.1760583,"hometown_city":"Folsom","hometown_state":"CA"},{"name":"Marcus Adam Carter Jr.","year":2026,"position":"WR","stars":null,"rating_247":null,"committed_to":null,"lat":32.6415,"lng":-83.4426,"hometown_city":"Douglasville","hometown_state":"GA"},{"name":"Logan Batt","year":2026,"position":"WR","stars":null,"rating_247":null,"committed_to":null,"lat":39.321,"lng":-111.0937,"hometown_city":"West Jordan","hometown_state":"UT"},{"name":"Brock Harris","year":2026,"position":"TE","stars":4,"rating_247":94.0,"committed_to":"BYU","lat":37.104153,"lng":-113.5841313,"hometown_city":"St. George","hometown_state":"UT"},{"name":"Ty Goettsche","year":2026,"position":"TE","stars":4,"rating_247":92.0,"committed_to":"BYU","lat":39.6482059,"lng":-104.9879641,"hometown_city":"Englewood","hometown_state":"CO"},{"name":"Matt Ludwig","year":2026,"position":"TE","stars":4,"rating_247":91.0,"committed_to":"Texas Tech","lat":45.7874957,"lng":-108.49607,"hometown_city":"Billings","hometown_state":"MT"},{"name":"Taimane Purcell","year":2026,"position":"TE","stars":3,"rating_247":90.0,"committed_to":"California","lat":21.304547,"lng":-157.8556764,"hometown_city":"Honolulu","hometown_state":"HI"},{"name":"Israel Briggs","year":2026,"position":"TE","stars":4,"rating_247":90.0,"committed_to":"Miami","lat":36.8252277,"lng":-119.7029194,"hometown_city":"Clovis","hometown_state":"CA"},{"name":"Jaivion Martin","year":2026,"position":"TE","stars":3,"rating_247":89.0,"committed_to":"Houston","lat":30.4241219,"lng":-95.4796587,"hometown_city":"Willis","hometown_state":"TX"},{"name":"Luke Sorensen","year":2026,"position":"TE","stars":3,"rating_247":89.0,"committed_to":"Nebraska","lat":33.8347516,"lng":-117.911732,"hometown_city":"Anaheim","hometown_state":"CA"},{"name":"Caleb Tafua","year":2026,"position":"TE","stars":4,"rating_247":88.0,"committed_to":"Texas A&M","lat":33.4151117,"lng":-111.8314773,"hometown_city":"Mesa","hometown_state":"AZ"},{"name":"Kekua Aumua","year":2026,"position":"TE","stars":3,"rating_247":88.0,"committed_to":"Washington","lat":21.679124,"lng":-157.94838,"hometown_city":"Kahuku","hometown_state":"HI"},{"name":"Jack Sievers","year":2026,"position":"TE","stars":3,"rating_247":88.0,"committed_to":"Wisconsin","lat":47.9673056,"lng":-122.2013998,"hometown_city":"Everett","hometown_state":"WA"},{"name":"Hayden Vercher","year":2026,"position":"TE","stars":4,"rating_247":88.0,"committed_to":"Arizona State","lat":34.17142715,"lng":-118.91058772974445,"hometown_city":"Thousand Oaks","hometown_state":"CA"},{"name":"Mason Bonner","year":2026,"position":"TE","stars":3,"rating_247":88.0,"committed_to":"Michigan","lat":39.7392364,"lng":-104.9848623,"hometown_city":"Denver","hometown_state":"CO"},{"name":"Camden Jensen","year":2026,"position":"TE","stars":3,"rating_247":88.0,"committed_to":"UCLA","lat":39.613321,"lng":-105.0166498,"hometown_city":"Littleton","hometown_state":"CO"},{"name":"Keawe Browne","year":2026,"position":"TE","stars":3,"rating_247":88.0,"committed_to":"Boise State","lat":33.8752945,"lng":-117.5664449,"hometown_city":"Corona","hometown_state":"CA"},{"name":"Kai Wesley","year":2026,"position":"TE","stars":3,"rating_247":88.0,"committed_to":"Baylor","lat":40.2971825,"lng":-111.694943,"hometown_city":"Orem","hometown_state":"UT"},{"name":"Josiah Jefferson","year":2026,"position":"TE","stars":null,"rating_247":88.0,"committed_to":"Southern California","lat":37.1841,"lng":-119.4696,"hometown_city":"Chula Vista","hometown_state":"CA"},{"name":"Ryder Mix","year":2026,"position":"TE","stars":3,"rating_247":87.0,"committed_to":"Oklahoma","lat":33.1506744,"lng":-96.8236116,"hometown_city":"Frisco","hometown_state":"TX"},{"name":"Kevin Sullivan","year":2026,"position":"TE","stars":3,"rating_247":87.0,"committed_to":"Kansas","lat":39.100105,"lng":-94.5781416,"hometown_city":"Kansas City","hometown_state":"MO"},{"name":"Marcus Monroe","year":2026,"position":"TE","stars":3,"rating_247":86.0,"committed_to":"Stanford","lat":35.7803977,"lng":-78.6390989,"hometown_city":"Raleigh","hometown_state":"NC"},{"name":"Colby Simpson","year":2026,"position":"TE","stars":3,"rating_247":85.0,"committed_to":"Tulane","lat":34.1460234,"lng":-118.8061794,"hometown_city":"Westlake Village","hometown_state":"CA"},{"name":"Bryton Niu","year":2026,"position":"TE","stars":3,"rating_247":84.0,"committed_to":"Utah Tech","lat":40.3880902,"lng":-111.8491619,"hometown_city":"Lehi","hometown_state":"UT"},{"name":"Felix Ojo","year":2026,"position":"OT","stars":5,"rating_247":98.0,"committed_to":"Texas Tech","lat":32.5631924,"lng":-97.1416768,"hometown_city":"Mansfield","hometown_state":"TX"},{"name":"Kodi Greene","year":2026,"position":"OT","stars":5,"rating_247":98.0,"committed_to":"Washington","lat":33.7494951,"lng":-117.8732213,"hometown_city":"Santa Ana","hometown_state":"CA"},{"name":"Gabriel Osenda","year":2026,"position":"OT","stars":4,"rating_247":98.0,"committed_to":"Tennessee","lat":35.0457219,"lng":-85.3094883,"hometown_city":"Chattanooga","hometown_state":"TN"},{"name":"Kelvin Obot","year":2026,"position":"OT","stars":5,"rating_247":97.0,"committed_to":"Utah","lat":44.0076639,"lng":-116.9165461,"hometown_city":"Fruitland","hometown_state":"ID"},{"name":"Tommy Tofi","year":2026,"position":"OT","stars":4,"rating_247":97.0,"committed_to":"Oregon","lat":37.7790262,"lng":-122.4199061,"hometown_city":"San Francisco","hometown_state":"CA"},{"name":"Malakai Lee","year":2026,"position":"OT","stars":4,"rating_247":95.0,"committed_to":"Michigan","lat":21.304547,"lng":-157.8556764,"hometown_city":"Honolulu","hometown_state":"HI"},{"name":"Daniel McMorris","year":2026,"position":"OT","stars":4,"rating_247":95.0,"committed_to":"California","lat":35.2225717,"lng":-97.4394816,"hometown_city":"Norman","hometown_state":"OK"},{"name":"Vlad Dyakonov","year":2026,"position":"OT","stars":4,"rating_247":94.0,"committed_to":"Southern California","lat":38.6779591,"lng":-121.1760583,"hometown_city":"Folsom","hometown_state":"CA"},{"name":"Bryce Gilmore","year":2026,"position":"OT","stars":4,"rating_247":93.0,"committed_to":"Texas Tech","lat":33.2385763,"lng":-96.7866058,"hometown_city":"Prosper","hometown_state":"TX"},{"name":"John Turntine III","year":2026,"position":"OT","stars":4,"rating_247":93.0,"committed_to":"Texas","lat":32.753177,"lng":-97.3327459,"hometown_city":"Fort Worth","hometown_state":"TX"},{"name":"Mataalii Benjamin","year":2026,"position":"OT","stars":4,"rating_247":92.0,"committed_to":"Utah","lat":40.3880902,"lng":-111.8491619,"hometown_city":"Lehi","hometown_state":"UT"},{"name":"Collin Campbell","year":2026,"position":"OT","stars":4,"rating_247":90.0,"committed_to":"Michigan State","lat":33.3527632,"lng":-111.7890373,"hometown_city":"Gilbert","hometown_state":"AZ"},{"name":"Drew Evers","year":2026,"position":"OT","stars":4,"rating_247":89.0,"committed_to":"SMU","lat":33.0283854,"lng":-97.0867203,"hometown_city":"Flower Mound","hometown_state":"TX"},{"name":"Sam Utu","year":2026,"position":"OT","stars":4,"rating_247":88.0,"committed_to":"SMU","lat":33.7872568,"lng":-117.8503088,"hometown_city":"Orange","hometown_state":"CA"},{"name":"Owen Linder","year":2026,"position":"OT","stars":3,"rating_247":88.0,"committed_to":"Iowa","lat":44.8618403,"lng":-93.5307207,"hometown_city":"Chanhassen","hometown_state":"MN"},{"name":"Aaron Thomas","year":2026,"position":"OT","stars":3,"rating_247":88.0,"committed_to":"Minnesota","lat":33.4484367,"lng":-112.0741417,"hometown_city":"Phoenix","hometown_state":"AZ"},{"name":"Dominic Harris","year":2026,"position":"OT","stars":3,"rating_247":88.0,"committed_to":"Washington","lat":36.1672559,"lng":-115.1485163,"hometown_city":"Las Vegas","hometown_state":"NV"},{"name":"Esaiah Wong","year":2026,"position":"OT","stars":3,"rating_247":87.0,"committed_to":"California","lat":21.394833,"lng":-157.72989134661873,"hometown_city":"Kailua","hometown_state":"HI"},{"name":"Quinn Buckey","year":2026,"position":"OT","stars":3,"rating_247":87.0,"committed_to":"UCLA","lat":35.3738712,"lng":-119.0194639,"hometown_city":"Bakersfield","hometown_state":"CA"},{"name":"Elisha Faamatuainu","year":2026,"position":"OT","stars":3,"rating_247":87.0,"committed_to":"California","lat":33.577752399999994,"lng":-117.18845420205307,"hometown_city":"Murrieta","hometown_state":"CA"},{"name":"Khalil Sanogo","year":2026,"position":"OT","stars":3,"rating_247":86.0,"committed_to":"Arizona","lat":32.5631924,"lng":-97.1416768,"hometown_city":"Mansfield","hometown_state":"TX"},{"name":"Siosaia Lapuaho","year":2026,"position":"OT","stars":null,"rating_247":86.0,"committed_to":"Arizona State","lat":38.4937,"lng":-98.3804,"hometown_city":"Garden City","hometown_state":"KS"},{"name":"Jonah Rodriguez","year":2026,"position":"OT","stars":null,"rating_247":86.0,"committed_to":"North Carolina","lat":37.1841,"lng":-119.4696,"hometown_city":"Chula Vista","hometown_state":"CA"},{"name":"Sekope Wallace","year":2026,"position":"OT","stars":null,"rating_247":86.0,"committed_to":"Texas-San Antonio","lat":39.321,"lng":-111.0937,"hometown_city":"Ephraim","hometown_state":"UT"},{"name":"Packs Ahovelo","year":2026,"position":"OT","stars":3,"rating_247":85.0,"committed_to":"Colorado State","lat":21.394833,"lng":-157.72989134661873,"hometown_city":"Kailua","hometown_state":"HI"},{"name":"Kingston Kerkhoff","year":2026,"position":"OT","stars":3,"rating_247":85.0,"committed_to":"Idaho","lat":47.2495798,"lng":-122.4398746,"hometown_city":"Tacoma","hometown_state":"WA"},{"name":"Jesus Garcia II","year":2026,"position":"OT","stars":null,"rating_247":85.0,"committed_to":"Nevada, Las Vegas","lat":37.1841,"lng":-119.4696,"hometown_city":"San Diego","hometown_state":"CA"},{"name":"Roger Vanderhoef","year":2026,"position":"OT","stars":3,"rating_247":84.0,"committed_to":"California","lat":38.5815719,"lng":-121.4943996,"hometown_city":"Sacramento","hometown_state":"CA"},{"name":"Iosua Faleagafua","year":2026,"position":"OT","stars":3,"rating_247":84.0,"committed_to":"Boise State","lat":39.0800023,"lng":-122.5963989,"hometown_city":"Spring Valley","hometown_state":"CA"},{"name":"JaKolby Jones","year":2026,"position":"OT","stars":null,"rating_247":84.0,"committed_to":"Louisiana State","lat":32.7364,"lng":-89.6678,"hometown_city":"Wesson","hometown_state":"MS"},{"name":"Zaheer Young","year":2026,"position":"OT","stars":null,"rating_247":84.0,"committed_to":"UCLA","lat":37.1841,"lng":-119.4696,"hometown_city":"Pleasant Hill","hometown_state":"CA"},{"name":"Adam Berns","year":2026,"position":"OT","stars":null,"rating_247":null,"committed_to":"Navy","lat":31.4757,"lng":-99.3312,"hometown_city":"North Richland Hills","hometown_state":"TX"},{"name":"Esun Tafa","year":2026,"position":"IOL","stars":4,"rating_247":94.0,"committed_to":"Southern California","lat":40.5246711,"lng":-111.8638226,"hometown_city":"Draper","hometown_state":"UT"},{"name":"Zaden Krempin","year":2026,"position":"IOL","stars":4,"rating_247":90.0,"committed_to":"Texas A&M","lat":33.2385763,"lng":-96.7866058,"hometown_city":"Prosper","hometown_state":"TX"},{"name":"Deacon Schmitt","year":2026,"position":"IOL","stars":4,"rating_247":89.0,"committed_to":"Oklahoma","lat":40.4774818,"lng":-104.9013617,"hometown_city":"Windsor","hometown_state":"CO"},{"name":"Noah Best","year":2026,"position":"IOL","stars":3,"rating_247":89.0,"committed_to":"Oklahoma","lat":32.482361,"lng":-96.9944489,"hometown_city":"Midlothian","hometown_state":"TX"},{"name":"Jax Tanner","year":2026,"position":"IOL","stars":4,"rating_247":89.0,"committed_to":"BYU","lat":43.6086295,"lng":-116.392326,"hometown_city":"Meridian","hometown_state":"ID"},{"name":"Pulelei'ite Primus","year":2026,"position":"IOL","stars":3,"rating_247":89.0,"committed_to":"Vanderbilt","lat":31.9973662,"lng":-102.0779482,"hometown_city":"Midland","hometown_state":"TX"},{"name":"Kamo'i Huihui-White","year":2026,"position":"IOL","stars":3,"rating_247":88.0,"committed_to":"California","lat":21.304547,"lng":-157.8556764,"hometown_city":"Honolulu","hometown_state":"HI"},{"name":"Parker Pritchett","year":2026,"position":"IOL","stars":3,"rating_247":88.0,"committed_to":"Auburn","lat":32.4609764,"lng":-84.9877094,"hometown_city":"Columbus","hometown_state":"GA"},{"name":"Nicolas Robertson","year":2026,"position":"IOL","stars":4,"rating_247":88.0,"committed_to":"Texas","lat":30.0798826,"lng":-95.4172549,"hometown_city":"Spring","hometown_state":"TX"},{"name":"Jalayne Miller","year":2026,"position":"IOL","stars":4,"rating_247":88.0,"committed_to":"Stanford","lat":33.4353672,"lng":-112.3576005,"hometown_city":"Goodyear","hometown_state":"AZ"},{"name":"Koloi Keli","year":2026,"position":"IOL","stars":3,"rating_247":87.0,"committed_to":"Oregon","lat":21.304547,"lng":-157.8556764,"hometown_city":"Honolulu","hometown_state":"HI"},{"name":"Jerald Mays","year":2026,"position":"IOL","stars":3,"rating_247":87.0,"committed_to":"Texas Tech","lat":30.4393696,"lng":-97.6200043,"hometown_city":"Pflugerville","hometown_state":"TX"},{"name":"Maika Matelau","year":2026,"position":"IOL","stars":null,"rating_247":87.0,"committed_to":"Illinois","lat":37.1841,"lng":-119.4696,"hometown_city":"Walnut","hometown_state":"CA"},{"name":"Artem Korchagin Jr.","year":2026,"position":"IOL","stars":null,"rating_247":86.0,"committed_to":"South Alabama","lat":32.6415,"lng":-83.4426,"hometown_city":"Thomasville","hometown_state":"GA"},{"name":"Nathan Allen","year":2026,"position":"IOL","stars":3,"rating_247":85.0,"committed_to":"Arizona","lat":33.1580933,"lng":-117.3505966,"hometown_city":"Carlsbad","hometown_state":"CA"},{"name":"Niniva Nicholson","year":2026,"position":"IOL","stars":3,"rating_247":84.0,"committed_to":"Arizona State","lat":33.1958696,"lng":-117.3794834,"hometown_city":"Oceanside","hometown_state":"CA"},{"name":"Blake Graham","year":2026,"position":"IOL","stars":3,"rating_247":83.0,"committed_to":"Cal Poly","lat":33.8885217,"lng":-118.3531991,"hometown_city":"Lawndale","hometown_state":"CA"},{"name":"Luke Kingman","year":2026,"position":"IOL","stars":3,"rating_247":83.0,"committed_to":"Idaho State","lat":33.577752399999994,"lng":-117.18845420205307,"hometown_city":"Murrieta","hometown_state":"CA"},{"name":"Tristian Givens","year":2026,"position":"Edge","stars":4,"rating_247":97.0,"committed_to":"Texas A&M","lat":32.4609764,"lng":-84.9877094,"hometown_city":"Columbus","hometown_state":"GA"},{"name":"Khary Wilder","year":2026,"position":"Edge","stars":4,"rating_247":95.0,"committed_to":"Ohio State","lat":33.8963593,"lng":-118.3053037,"hometown_city":"Gardena","hometown_state":"CA"},{"name":"Richard Wesley","year":2026,"position":"Edge","stars":5,"rating_247":95.0,"committed_to":"Texas","lat":34.2595715,"lng":-118.6023247,"hometown_city":"Chatsworth","hometown_state":"CA"},{"name":"Landon Barnes","year":2026,"position":"Edge","stars":4,"rating_247":94.0,"committed_to":"Mississippi","lat":32.6518004,"lng":-96.9083366,"hometown_city":"Duncanville","hometown_state":"TX"},{"name":"Derek Colman-Brusa","year":2026,"position":"Edge","stars":4,"rating_247":94.0,"committed_to":"Washington","lat":47.469918,"lng":-122.3485274,"hometown_city":"Burien","hometown_state":"WA"},{"name":"Simote Katoanga","year":2026,"position":"Edge","stars":4,"rating_247":92.0,"committed_to":"Southern California","lat":33.6408845,"lng":-117.6029341,"hometown_city":"Rancho Santa Margarita","hometown_state":"CA"},{"name":"Anthony Jones","year":2026,"position":"Edge","stars":3,"rating_247":91.0,"committed_to":"Oregon","lat":33.6856969,"lng":-117.8259819,"hometown_city":"Irvine","hometown_state":"CA"},{"name":"Julian Hugo","year":2026,"position":"Edge","stars":4,"rating_247":91.0,"committed_to":"Arizona State","lat":29.5707831,"lng":-98.2330927,"hometown_city":"Cibolo","hometown_state":"TX"},{"name":"Shaun Scott","year":2026,"position":"Edge","stars":4,"rating_247":90.0,"committed_to":"Southern California","lat":33.7494951,"lng":-117.8732213,"hometown_city":"Santa Ana","hometown_state":"CA"},{"name":"Kole Cronin","year":2026,"position":"Edge","stars":3,"rating_247":90.0,"committed_to":"Boise State","lat":39.5261206,"lng":-119.8126581,"hometown_city":"Reno","hometown_state":"NV"},{"name":"Colton Yarbrough","year":2026,"position":"Edge","stars":3,"rating_247":89.0,"committed_to":"Arkansas","lat":33.9958945,"lng":-96.3814259,"hometown_city":"Durant","hometown_state":"OK"},{"name":"PJ Takitaki","year":2026,"position":"Edge","stars":3,"rating_247":89.0,"committed_to":"Utah","lat":40.3880902,"lng":-111.8491619,"hometown_city":"Lehi","hometown_state":"UT"},{"name":"Tariq Boney","year":2026,"position":"Edge","stars":3,"rating_247":89.0,"committed_to":"Michigan","lat":38.8949855,"lng":-77.0365708,"hometown_city":"Washington","hometown_state":"DC"},{"name":"Hudson Woods","year":2026,"position":"Edge","stars":3,"rating_247":89.0,"committed_to":"SMU","lat":29.885073249999998,"lng":-98.4196833729311,"hometown_city":"Spring Branch","hometown_state":"TX"},{"name":"Samu Moala","year":2026,"position":"Edge","stars":4,"rating_247":88.0,"committed_to":"Texas A&M","lat":33.8885217,"lng":-118.3531991,"hometown_city":"Lawndale","hometown_state":"CA"},{"name":"David Schwerzel","year":2026,"position":"Edge","stars":3,"rating_247":88.0,"committed_to":"Washington","lat":47.6038321,"lng":-122.3300624,"hometown_city":"Seattle","hometown_state":"WA"},{"name":"Cam Brooks","year":2026,"position":"Edge","stars":3,"rating_247":88.0,"committed_to":"Florida State","lat":30.8365815,"lng":-83.9787808,"hometown_city":"Thomasville","hometown_state":"GA"},{"name":"Fameitau Siale","year":2026,"position":"Edge","stars":3,"rating_247":88.0,"committed_to":"Utah","lat":47.6038321,"lng":-122.3300624,"hometown_city":"Seattle","hometown_state":"WA"},{"name":"Max Meier","year":2026,"position":"Edge","stars":3,"rating_247":88.0,"committed_to":"Stanford","lat":34.0536909,"lng":-118.2427666,"hometown_city":"Los Angeles","hometown_state":"CA"},{"name":"Dutch Horisk","year":2026,"position":"Edge","stars":3,"rating_247":88.0,"committed_to":"Oregon","lat":33.8825705,"lng":-118.1167679,"hometown_city":"Bellflower","hometown_state":"CA"},{"name":"Tucker Ashford","year":2026,"position":"Edge","stars":3,"rating_247":87.0,"committed_to":"Kansas State","lat":32.8342952,"lng":-97.2289029,"hometown_city":"North Richland Hills","hometown_state":"TX"},{"name":"Keytrin Harris","year":2026,"position":"Edge","stars":3,"rating_247":87.0,"committed_to":"Arizona","lat":33.3062223,"lng":-111.8413317,"hometown_city":"Chandler","hometown_state":"AZ"},{"name":"Prince Williams","year":2026,"position":"Edge","stars":3,"rating_247":87.0,"committed_to":"Arizona","lat":36.1672559,"lng":-115.1485163,"hometown_city":"Las Vegas","hometown_state":"NV"},{"name":"Dakota Dickson","year":2026,"position":"Edge","stars":3,"rating_247":87.0,"committed_to":"SMU","lat":37.8215929,"lng":-121.9999606,"hometown_city":"Danville","hometown_state":"CA"},{"name":"Alhassan Iddrissu","year":2026,"position":"Edge","stars":3,"rating_247":87.0,"committed_to":"UCF","lat":41.4662093,"lng":-72.1573008,"hometown_city":"Oakdale","hometown_state":"CT"},{"name":"Ezaya Tokio","year":2026,"position":"Edge","stars":3,"rating_247":87.0,"committed_to":"Washington","lat":33.1958696,"lng":-117.3794834,"hometown_city":"Oceanside","hometown_state":"CA"},{"name":"Garrett Witherington","year":2026,"position":"Edge","stars":3,"rating_247":87.0,"committed_to":"Virginia Tech","lat":33.5206824,"lng":-86.8024326,"hometown_city":"Birmingham","hometown_state":"AL"},{"name":"Palmer Riley","year":2026,"position":"Edge","stars":3,"rating_247":86.0,"committed_to":"Vanderbilt","lat":37.4613272,"lng":-122.197743,"hometown_city":"Atherton","hometown_state":"CA"},{"name":"Josiah Anyansi","year":2026,"position":"Edge","stars":3,"rating_247":85.0,"committed_to":"Minnesota","lat":33.577752399999994,"lng":-117.18845420205307,"hometown_city":"Murrieta","hometown_state":"CA"},{"name":"Dycin Davis","year":2026,"position":"Edge","stars":3,"rating_247":85.0,"committed_to":"Texas-El Paso","lat":32.44645,"lng":-99.7475905,"hometown_city":"Abilene","hometown_state":"TX"},{"name":"Michael Holcomb","year":2026,"position":"Edge","stars":3,"rating_247":84.0,"committed_to":"Temple","lat":39.5355063,"lng":-76.3490396,"hometown_city":"Bel Air","hometown_state":"MD"},{"name":"Harvie Moeai","year":2026,"position":"Edge","stars":3,"rating_247":84.0,"committed_to":"Arizona","lat":40.3880902,"lng":-111.8491619,"hometown_city":"Lehi","hometown_state":"UT"},{"name":"Sir Nathanial Young","year":2026,"position":"Edge","stars":3,"rating_247":84.0,"committed_to":null,"lat":32.5888072,"lng":-96.9553675,"hometown_city":"Cedar Hill","hometown_state":"TX"},{"name":"Sosaia Noa","year":2026,"position":"Edge","stars":3,"rating_247":82.0,"committed_to":"California","lat":38.5815719,"lng":-121.4943996,"hometown_city":"Sacramento","hometown_state":"CA"},{"name":"Tomuhini Topui","year":2026,"position":"DL","stars":4,"rating_247":95.0,"committed_to":"Southern California","lat":33.7494951,"lng":-117.8732213,"hometown_city":"Santa Ana","hometown_state":"CA"},{"name":"Alister Vallejo","year":2026,"position":"DL","stars":4,"rating_247":94.0,"committed_to":"Michigan","lat":30.6649119,"lng":-97.9225161,"hometown_city":"Liberty Hill","hometown_state":"TX"},{"name":"Prince Tavizon","year":2026,"position":"DL","stars":4,"rating_247":90.0,"committed_to":"Oregon","lat":32.7174209,"lng":-117.1627714,"hometown_city":"San Diego","hometown_state":"CA"},{"name":"Jimmy-Phrisco Alo-Suliafu","year":2026,"position":"DL","stars":3,"rating_247":90.0,"committed_to":"North Carolina","lat":29.690292,"lng":-95.8996261,"hometown_city":"Fulshear","hometown_state":"TX"},{"name":"Kamron Wilson","year":2026,"position":"DL","stars":3,"rating_247":89.0,"committed_to":"Syracuse","lat":25.7742658,"lng":-80.1936589,"hometown_city":"Miami","hometown_state":"FL"},{"name":"Tufanua Ionatana Umu-Cais","year":2026,"position":"DL","stars":3,"rating_247":89.0,"committed_to":"Washington","lat":39.6482059,"lng":-104.9879641,"hometown_city":"Englewood","hometown_state":"CO"},{"name":"Cameron Brickle II","year":2026,"position":"DL","stars":null,"rating_247":89.0,"committed_to":"Maryland","lat":28.6305,"lng":-82.4497,"hometown_city":"Bradenton","hometown_state":"FL"},{"name":"Damaad Lewis","year":2026,"position":"DL","stars":3,"rating_247":89.0,"committed_to":"North Carolina State","lat":35.2272,"lng":-80.843083,"hometown_city":"Charlotte","hometown_state":"NC"},{"name":"Nemyah Telona","year":2026,"position":"DL","stars":3,"rating_247":88.0,"committed_to":"California","lat":37.9768525,"lng":-122.0335624,"hometown_city":"Concord","hometown_state":"CA"},{"name":"Daryl Campbell","year":2026,"position":"DL","stars":3,"rating_247":88.0,"committed_to":"Vanderbilt","lat":29.7857853,"lng":-95.8243956,"hometown_city":"Katy","hometown_state":"TX"},{"name":"Kirt Vakalahi","year":2026,"position":"DL","stars":null,"rating_247":88.0,"committed_to":"Arizona State","lat":34.4071,"lng":-106.1126,"hometown_city":"Roswell","hometown_state":"NM"},{"name":"Ben Duncum","year":2026,"position":"DL","stars":3,"rating_247":87.0,"committed_to":"Kentucky","lat":30.2711286,"lng":-97.7436995,"hometown_city":"Austin","hometown_state":"TX"},{"name":"Jake Johnson","year":2026,"position":"DL","stars":3,"rating_247":87.0,"committed_to":"Southern California","lat":33.2385763,"lng":-96.7866058,"hometown_city":"Prosper","hometown_state":"TX"},{"name":"Joseph Peko","year":2026,"position":"DL","stars":3,"rating_247":87.0,"committed_to":"Washington","lat":34.1460234,"lng":-118.8061794,"hometown_city":"Westlake Village","hometown_state":"CA"},{"name":"Kordae Houston","year":2026,"position":"DL","stars":3,"rating_247":87.0,"committed_to":"Syracuse","lat":32.7762719,"lng":-96.7968559,"hometown_city":"Dallas","hometown_state":"TX"},{"name":"Manoah Faupusa","year":2026,"position":"DL","stars":3,"rating_247":86.0,"committed_to":"Arizona","lat":33.6408845,"lng":-117.6029341,"hometown_city":"Rancho Santa Margarita","hometown_state":"CA"},{"name":"Paz St. John","year":2026,"position":"DL","stars":null,"rating_247":86.0,"committed_to":"Boise State","lat":34.2744,"lng":-111.6602,"hometown_city":"Globe","hometown_state":"AZ"},{"name":"Deuce Alailefaleula","year":2026,"position":"DL","stars":3,"rating_247":86.0,"committed_to":"Boise State","lat":61.2163129,"lng":-149.8948523,"hometown_city":"Anchorage","hometown_state":"AK"},{"name":"Frank Fanua Jr.","year":2026,"position":"DL","stars":null,"rating_247":86.0,"committed_to":"California","lat":37.1841,"lng":-119.4696,"hometown_city":"Spring Valley","hometown_state":"CA"},{"name":"Jowhar Franklin","year":2026,"position":"DL","stars":null,"rating_247":86.0,"committed_to":null,"lat":38.4937,"lng":-98.3804,"hometown_city":"Dodge City","hometown_state":"KS"},{"name":"Bronx Letuligasenoa","year":2026,"position":"DL","stars":3,"rating_247":85.0,"committed_to":"San Jose State","lat":32.7174209,"lng":-117.1627714,"hometown_city":"San Diego","hometown_state":"CA"},{"name":"Joseph Terry","year":2026,"position":"DL","stars":3,"rating_247":85.0,"committed_to":null,"lat":33.5016932,"lng":-117.6625509,"hometown_city":"San Juan Capistrano","hometown_state":"CA"},{"name":"Chris Knauls","year":2026,"position":"DL","stars":null,"rating_247":85.0,"committed_to":"Rice","lat":31.4757,"lng":-99.3312,"hometown_city":"Frisco","hometown_state":"TX"},{"name":"Lucky Schirmer","year":2026,"position":"DL","stars":null,"rating_247":85.0,"committed_to":"California","lat":37.1841,"lng":-119.4696,"hometown_city":"Corona","hometown_state":"CA"},{"name":"Talanoa Ili","year":2026,"position":"LB","stars":4,"rating_247":95.0,"committed_to":"Southern California","lat":21.679124,"lng":-157.94838,"hometown_city":"Kahuku","hometown_state":"HI"},{"name":"Rocky Cummings","year":2026,"position":"LB","stars":3,"rating_247":91.0,"committed_to":"Texas","lat":33.1580933,"lng":-117.3505966,"hometown_city":"Carlsbad","hometown_state":"CA"},{"name":"Tristan Phillips","year":2026,"position":"LB","stars":4,"rating_247":91.0,"committed_to":"Oregon","lat":34.3435092,"lng":-119.29560423163717,"hometown_city":"Ventura","hometown_state":"CA"},{"name":"JD McKinley","year":2026,"position":"LB","stars":null,"rating_247":88.0,"committed_to":"California","lat":37.1841,"lng":-119.4696,"hometown_city":"Corona","hometown_state":"CA"},{"name":"Colsen Gatten","year":2026,"position":"LB","stars":3,"rating_247":87.0,"committed_to":"Duke","lat":40.4416941,"lng":-79.9900861,"hometown_city":"Pittsburgh","hometown_state":"PA"},{"name":"Malaki Soliai-Tui","year":2026,"position":"LB","stars":3,"rating_247":87.0,"committed_to":"UCLA","lat":21.679124,"lng":-157.94838,"hometown_city":"Kahuku","hometown_state":"HI"},{"name":"Jaxon Pyatt","year":2026,"position":"LB","stars":3,"rating_247":87.0,"committed_to":"California","lat":39.8211225,"lng":-105.22074299044587,"hometown_city":"Arvada","hometown_state":"CO"},{"name":"Beau Jandreau","year":2026,"position":"LB","stars":3,"rating_247":86.0,"committed_to":"Oklahoma","lat":33.3062223,"lng":-111.8413317,"hometown_city":"Chandler","hometown_state":"AZ"},{"name":"Noriel Dominguez","year":2026,"position":"LB","stars":3,"rating_247":86.0,"committed_to":"Texas Christian","lat":29.5821811,"lng":-95.7607832,"hometown_city":"Richmond","hometown_state":"TX"},{"name":"Taylor Johnson","year":2026,"position":"LB","stars":3,"rating_247":86.0,"committed_to":"Southern California","lat":34.1083449,"lng":-117.2897652,"hometown_city":"San Bernardino","hometown_state":"CA"},{"name":"Oscar Aguilar Jr.","year":2026,"position":"LB","stars":null,"rating_247":85.0,"committed_to":"Arizona State","lat":37.1841,"lng":-119.4696,"hometown_city":"Downey","hometown_state":"CA"},{"name":"Omari Stephenson","year":2026,"position":"LB","stars":3,"rating_247":85.0,"committed_to":"Kennesaw State","lat":30.8365815,"lng":-83.9787808,"hometown_city":"Thomasville","hometown_state":"GA"},{"name":"Chase Cahoon","year":2026,"position":"LB","stars":3,"rating_247":84.0,"committed_to":"Stanford","lat":37.3893889,"lng":-122.0832101,"hometown_city":"Mountain View","hometown_state":"CA"},{"name":"Davon Benjamin","year":2026,"position":"CB","stars":4,"rating_247":94.0,"committed_to":"Oregon","lat":34.1460234,"lng":-118.8061794,"hometown_city":"Westlake Village","hometown_state":"CA"},{"name":"Camren Hamiel","year":2026,"position":"CB","stars":4,"rating_247":93.0,"committed_to":"Texas A&M","lat":33.4353672,"lng":-112.3576005,"hometown_city":"Goodyear","hometown_state":"AZ"},{"name":"S'Vioarean Martin","year":2026,"position":"CB","stars":4,"rating_247":93.0,"committed_to":"Texas Tech","lat":31.7621153,"lng":-95.6307891,"hometown_city":"Palestine","hometown_state":"TX"},{"name":"Derrick Johnson II","year":2026,"position":"CB","stars":4,"rating_247":92.0,"committed_to":"Oklahoma","lat":33.577752399999994,"lng":-117.18845420205307,"hometown_city":"Murrieta","hometown_state":"CA"},{"name":"Havon Finney Jr.","year":2026,"position":"CB","stars":null,"rating_247":91.0,"committed_to":"Louisiana State","lat":37.1841,"lng":-119.4696,"hometown_city":"Chatsworth","hometown_state":"CA"},{"name":"Jeron Jones","year":2026,"position":"CB","stars":4,"rating_247":90.0,"committed_to":"Washington","lat":33.5965685,"lng":-117.659405,"hometown_city":"Mission Viejo","hometown_state":"CA"},{"name":"Aisa Galea'i","year":2026,"position":"CB","stars":3,"rating_247":89.0,"committed_to":"Utah","lat":40.2971825,"lng":-111.694943,"hometown_city":"Orem","hometown_state":"UT"},{"name":"Mason Lewis","year":2026,"position":"CB","stars":3,"rating_247":88.0,"committed_to":"Vanderbilt","lat":33.3062223,"lng":-111.8413317,"hometown_city":"Chandler","hometown_state":"AZ"},{"name":"Jayden Crowder","year":2026,"position":"CB","stars":3,"rating_247":87.0,"committed_to":"Southern California","lat":33.6408845,"lng":-117.6029341,"hometown_city":"Rancho Santa Margarita","hometown_state":"CA"},{"name":"Ernest Nunley","year":2026,"position":"CB","stars":3,"rating_247":87.0,"committed_to":"Michigan","lat":33.8347516,"lng":-117.911732,"hometown_city":"Anaheim","hometown_state":"CA"},{"name":"DaQuwan Dunn","year":2026,"position":"CB","stars":3,"rating_247":87.0,"committed_to":"Arizona State","lat":32.9481789,"lng":-96.7297206,"hometown_city":"Richardson","hometown_state":"TX"},{"name":"Elijah Durr","year":2026,"position":"CB","stars":3,"rating_247":87.0,"committed_to":"Washington","lat":47.2495798,"lng":-122.4398746,"hometown_city":"Tacoma","hometown_state":"WA"},{"name":"Madden Soliai","year":2026,"position":"CB","stars":3,"rating_247":87.0,"committed_to":"Boise State","lat":21.679124,"lng":-157.94838,"hometown_city":"Kahuku","hometown_state":"HI"},{"name":"Joey Thomas III","year":2026,"position":"CB","stars":3,"rating_247":86.0,"committed_to":"Nevada","lat":39.5261206,"lng":-119.8126581,"hometown_city":"Reno","hometown_state":"NV"},{"name":"Maliek Bracy","year":2026,"position":"CB","stars":3,"rating_247":86.0,"committed_to":"Oklahoma State","lat":33.110156,"lng":-97.17940980147037,"hometown_city":"Argyle","hometown_state":"TX"},{"name":"Trey Brown","year":2026,"position":"CB","stars":null,"rating_247":86.0,"committed_to":"Kansas","lat":37.1841,"lng":-119.4696,"hometown_city":"Chatsworth","hometown_state":"CA"},{"name":"Kai Wheaton","year":2026,"position":"CB","stars":3,"rating_247":86.0,"committed_to":"Oregon State","lat":33.1031744,"lng":-96.6705503,"hometown_city":"Allen","hometown_state":"TX"},{"name":"Major Hinchen","year":2026,"position":"CB","stars":3,"rating_247":86.0,"committed_to":"Utah","lat":33.66365425,"lng":-116.27770251129584,"hometown_city":"La Quinta","hometown_state":"CA"},{"name":"Justice Brathwaite","year":2026,"position":"CB","stars":3,"rating_247":85.0,"committed_to":"BYU","lat":33.3527632,"lng":-111.7890373,"hometown_city":"Gilbert","hometown_state":"AZ"},{"name":"Deon Jackson","year":2026,"position":"CB","stars":3,"rating_247":85.0,"committed_to":null,"lat":33.7690164,"lng":-118.1916048,"hometown_city":"Long Beach","hometown_state":"CA"},{"name":"Jasiah Denmark","year":2026,"position":"CB","stars":3,"rating_247":85.0,"committed_to":"Montana State","lat":47.1849009,"lng":-122.2921406,"hometown_city":"Puyallup","hometown_state":"WA"},{"name":"Syncere Berry","year":2026,"position":"CB","stars":3,"rating_247":84.0,"committed_to":"Appalachian State","lat":33.7490987,"lng":-84.3901849,"hometown_city":"Atlanta","hometown_state":"GA"},{"name":"Parris Vernon","year":2026,"position":"CB","stars":3,"rating_247":83.0,"committed_to":"San Jose State","lat":39.0800023,"lng":-122.5963989,"hometown_city":"Spring Valley","hometown_state":"CA"},{"name":"Jaymier Austin","year":2026,"position":"CB","stars":null,"rating_247":null,"committed_to":null,"lat":40.8781,"lng":-77.7996,"hometown_city":"Murrysville","hometown_state":"PA"},{"name":"Blake Stewart","year":2026,"position":"S","stars":3,"rating_247":90.0,"committed_to":"Georgia","lat":33.7490987,"lng":-84.3901849,"hometown_city":"Atlanta","hometown_state":"GA"},{"name":"Jordan Deck","year":2026,"position":"S","stars":4,"rating_247":90.0,"committed_to":"Michigan","lat":33.1506744,"lng":-96.8236116,"hometown_city":"Frisco","hometown_state":"TX"},{"name":"Chace Calicut","year":2026,"position":"S","stars":4,"rating_247":88.0,"committed_to":"Georgia Southern","lat":29.7589382,"lng":-95.3676974,"hometown_city":"Houston","hometown_state":"TX"},{"name":"Isaiah Williams","year":2026,"position":"S","stars":3,"rating_247":88.0,"committed_to":"Illinois","lat":38.6779591,"lng":-121.1760583,"hometown_city":"Folsom","hometown_state":"CA"},{"name":"Bradley Brown","year":2026,"position":"S","stars":3,"rating_247":87.0,"committed_to":"Vanderbilt","lat":33.0136764,"lng":-96.6925096,"hometown_city":"Plano","hometown_state":"TX"},{"name":"Logan Hirou","year":2026,"position":"S","stars":3,"rating_247":87.0,"committed_to":"UCLA","lat":33.6408845,"lng":-117.6029341,"hometown_city":"Rancho Santa Margarita","hometown_state":"CA"},{"name":"Niles Davis","year":2026,"position":"S","stars":3,"rating_247":87.0,"committed_to":"California","lat":34.1460234,"lng":-118.8061794,"hometown_city":"Westlake Village","hometown_state":"CA"},{"name":"Braylon Edwards","year":2026,"position":"S","stars":3,"rating_247":85.0,"committed_to":"Colorado","lat":32.6518004,"lng":-96.9083366,"hometown_city":"Duncanville","hometown_state":"TX"},{"name":"Jaxon Toala","year":2026,"position":"S","stars":3,"rating_247":85.0,"committed_to":"Weber State","lat":40.7596198,"lng":-111.8867975,"hometown_city":"Salt Lake City","hometown_state":"UT"},{"name":"Cammeron Purnell","year":2026,"position":"S","stars":3,"rating_247":84.0,"committed_to":"San Diego State","lat":32.7174209,"lng":-117.1627714,"hometown_city":"San Diego","hometown_state":"CA"},{"name":"Jalaal Abdullah","year":2026,"position":"S","stars":null,"rating_247":null,"committed_to":"Yale","lat":31.4757,"lng":-99.3312,"hometown_city":"Frisco","hometown_state":"TX"},{"name":"Brandon Arrington","year":2026,"position":"ATH","stars":5,"rating_247":98.0,"committed_to":"Texas A&M","lat":32.7174209,"lng":-117.1627714,"hometown_city":"San Diego","hometown_state":"CA"},{"name":"Aaron Gregory","year":2026,"position":"ATH","stars":4,"rating_247":94.0,"committed_to":"Texas A&M","lat":33.7514966,"lng":-84.7477136,"hometown_city":"Douglasville","hometown_state":"GA"},{"name":"Paris Melvin Jr.","year":2026,"position":"ATH","stars":4,"rating_247":94.0,"committed_to":"Houston","lat":29.9691116,"lng":-95.6971686,"hometown_city":"Cypress","hometown_state":"TX"},{"name":"Rahsjon Duncan","year":2026,"position":"ATH","stars":4,"rating_247":92.0,"committed_to":"Washington","lat":37.8044557,"lng":-122.2713563,"hometown_city":"Oakland","hometown_state":"CA"},{"name":"Jaron Pula","year":2026,"position":"ATH","stars":4,"rating_247":91.0,"committed_to":"BYU","lat":40.3768954,"lng":-111.7957645,"hometown_city":"American Fork","hometown_state":"UT"},{"name":"Roman Voss","year":2026,"position":"ATH","stars":null,"rating_247":91.0,"committed_to":"Minnesota","lat":46.2807,"lng":-94.3053,"hometown_city":"Jackson","hometown_state":"MN"},{"name":"Kaydon Finley","year":2026,"position":"ATH","stars":4,"rating_247":91.0,"committed_to":"Notre Dame","lat":32.69900905,"lng":-97.60396629774493,"hometown_city":"Aledo","hometown_state":"TX"},{"name":"Madden Williams","year":2026,"position":"ATH","stars":4,"rating_247":90.0,"committed_to":"Texas A&M","lat":33.8825705,"lng":-118.1167679,"hometown_city":"Bellflower","hometown_state":"CA"},{"name":"Brandon Smith","year":2026,"position":"ATH","stars":4,"rating_247":90.0,"committed_to":"Oregon","lat":36.7295295,"lng":-119.70886126075588,"hometown_city":"Fresno","hometown_state":"CA"},{"name":"Henry Gabalis","year":2026,"position":"ATH","stars":3,"rating_247":90.0,"committed_to":"Arizona","lat":47.9673056,"lng":-122.2013998,"hometown_city":"Everett","hometown_state":"WA"},{"name":"BJ Thurman","year":2026,"position":"ATH","stars":null,"rating_247":89.0,"committed_to":"Illinois","lat":37.1841,"lng":-119.4696,"hometown_city":"San Mateo","hometown_state":"CA"},{"name":"Madden Riordan","year":2026,"position":"ATH","stars":3,"rating_247":88.0,"committed_to":"Southern California","lat":34.2595715,"lng":-118.6023247,"hometown_city":"Chatsworth","hometown_state":"CA"},{"name":"Jameson Powell","year":2026,"position":"ATH","stars":3,"rating_247":88.0,"committed_to":"Oregon State","lat":38.6779591,"lng":-121.1760583,"hometown_city":"Folsom","hometown_state":"CA"},{"name":"Terrance Saryon","year":2026,"position":"ATH","stars":3,"rating_247":88.0,"committed_to":"BYU","lat":45.6306954,"lng":-122.6744557,"hometown_city":"Vancouver","hometown_state":"WA"},{"name":"Malcolm Watkins","year":2026,"position":"ATH","stars":3,"rating_247":87.0,"committed_to":"Iowa State","lat":35.3738712,"lng":-119.0194639,"hometown_city":"Bakersfield","hometown_state":"CA"},{"name":"Tyree Sams","year":2026,"position":"ATH","stars":3,"rating_247":87.0,"committed_to":"California","lat":36.7295295,"lng":-119.70886126075588,"hometown_city":"Fresno","hometown_state":"CA"},{"name":"Tay Lockett","year":2026,"position":"ATH","stars":3,"rating_247":87.0,"committed_to":"Arkansas","lat":32.7174209,"lng":-117.1627714,"hometown_city":"San Diego","hometown_state":"CA"},{"name":"Kaue Akana","year":2026,"position":"ATH","stars":3,"rating_247":87.0,"committed_to":"BYU","lat":40.2971825,"lng":-111.694943,"hometown_city":"Orem","hometown_state":"UT"},{"name":"Jalen Ford","year":2026,"position":"ATH","stars":3,"rating_247":87.0,"committed_to":"Utah Tech","lat":35.3738712,"lng":-119.0194639,"hometown_city":"Bakersfield","hometown_state":"CA"},{"name":"Jayden Fox","year":2026,"position":"ATH","stars":3,"rating_247":87.0,"committed_to":"UCLA","lat":39.6482059,"lng":-104.9879641,"hometown_city":"Englewood","hometown_state":"CO"},{"name":"Legend Glasker","year":2026,"position":"ATH","stars":3,"rating_247":87.0,"committed_to":"BYU","lat":40.3880902,"lng":-111.8491619,"hometown_city":"Lehi","hometown_state":"UT"},{"name":"Ansu Sanoe","year":2026,"position":"ATH","stars":3,"rating_247":87.0,"committed_to":"Washington","lat":45.4206749,"lng":-122.6706498,"hometown_city":"Lake Oswego","hometown_state":"OR"},{"name":"Sefanaia Alatini","year":2026,"position":"ATH","stars":3,"rating_247":86.0,"committed_to":"BYU","lat":37.3893889,"lng":-122.0832101,"hometown_city":"Mountain View","hometown_state":"CA"},{"name":"Evan Williams","year":2026,"position":"ATH","stars":3,"rating_247":86.0,"committed_to":"Nevada","lat":36.0301134,"lng":-114.9826194,"hometown_city":"Henderson","hometown_state":"NV"},{"name":"Josh Mensah","year":2026,"position":"ATH","stars":null,"rating_247":86.0,"committed_to":"New Mexico","lat":37.1841,"lng":-119.4696,"hometown_city":"Rancho Cucamonga","hometown_state":"CA"},{"name":"Darren Schmitt","year":2026,"position":"ATH","stars":3,"rating_247":84.0,"committed_to":"Nevada","lat":45.6306954,"lng":-122.6744557,"hometown_city":"Vancouver","hometown_state":"WA"},{"name":"Corey Waters","year":2026,"position":"ATH","stars":3,"rating_247":83.0,"committed_to":null,"lat":37.9577016,"lng":-121.2907796,"hometown_city":"Stockton","hometown_state":"CA"},{"name":"Josiah Rivera","year":2026,"position":"ATH","stars":3,"rating_247":81.0,"committed_to":"Northern Arizona","lat":36.1672559,"lng":-115.1485163,"hometown_city":"Las Vegas","hometown_state":"NV"},{"name":"Elijah Pendleton","year":2026,"position":"ATH","stars":3,"rating_247":80.0,"committed_to":null,"lat":34.1816482,"lng":-118.3258554,"hometown_city":"Burbank","hometown_state":"CA"},{"name":"Giancarlo Cereghino","year":2026,"position":"LS","stars":3,"rating_247":80.0,"committed_to":"UCLA","lat":37.834897,"lng":-122.12883,"hometown_city":"Moraga","hometown_state":"CA"}],"2027":[{"name":"Will Mencl","year":2027,"position":"QB","stars":null,"rating_247":94.0,"committed_to":"Oregon","lat":34.2744,"lng":-111.6602,"hometown_city":"Chandler","hometown_state":"AZ"},{"name":"Davin Davidson","year":2027,"position":"QB","stars":null,"rating_247":90.0,"committed_to":"Florida","lat":28.6305,"lng":-82.4497,"hometown_city":"Sarasota","hometown_state":"FL"},{"name":"Braylen Warren","year":2027,"position":"QB","stars":null,"rating_247":90.0,"committed_to":"Missouri","lat":41.5378,"lng":-99.7951,"hometown_city":"Omaha","hometown_state":"NE"},{"name":"Blake Roskopf","year":2027,"position":"QB","stars":null,"rating_247":90.0,"committed_to":"Washington","lat":34.2744,"lng":-111.6602,"hometown_city":"Goodyear","hometown_state":"AZ"},{"name":"Brady Edmunds","year":2027,"position":"QB","stars":null,"rating_247":90.0,"committed_to":"Ohio State","lat":37.1841,"lng":-119.4696,"hometown_city":"Huntington Beach","hometown_state":"CA"},{"name":"Kamden Lopati","year":2027,"position":"QB","stars":null,"rating_247":89.0,"committed_to":"Michigan","lat":39.321,"lng":-111.0937,"hometown_city":"Salt Lake City","hometown_state":"UT"},{"name":"Jameson Purcell","year":2027,"position":"QB","stars":null,"rating_247":88.0,"committed_to":"Indiana","lat":40.0417,"lng":-89.1965,"hometown_city":"Park Ridge","hometown_state":"IL"},{"name":"Dane Weber","year":2027,"position":"QB","stars":null,"rating_247":88.0,"committed_to":"California","lat":37.1841,"lng":-119.4696,"hometown_city":"Temecula","hometown_state":"CA"},{"name":"Sione Kaho","year":2027,"position":"QB","stars":null,"rating_247":88.0,"committed_to":"Stanford","lat":47.3826,"lng":-120.4472,"hometown_city":"Tacoma","hometown_state":"WA"},{"name":"Jaden Jefferson","year":2027,"position":"QB","stars":null,"rating_247":84.0,"committed_to":"Hawaii","lat":37.1841,"lng":-119.4696,"hometown_city":"Corona","hometown_state":"CA"},{"name":"Brody Rudnicki","year":2027,"position":"QB","stars":null,"rating_247":84.0,"committed_to":null,"lat":37.1841,"lng":-119.4696,"hometown_city":"Folsom","hometown_state":"CA"},{"name":"Landen Williams-Callis","year":2027,"position":"RB","stars":null,"rating_247":95.0,"committed_to":null,"lat":31.4757,"lng":-99.3312,"hometown_city":"Richmond","hometown_state":"TX"},{"name":"Lathan Whisenton","year":2027,"position":"RB","stars":null,"rating_247":90.0,"committed_to":"Notre Dame","lat":31.4757,"lng":-99.3312,"hometown_city":"Waco","hometown_state":"TX"},{"name":"Daylon Gordon","year":2027,"position":"RB","stars":null,"rating_247":90.0,"committed_to":"Texas State","lat":31.4757,"lng":-99.3312,"hometown_city":"Wylie","hometown_state":"TX"},{"name":"Ty Keys","year":2027,"position":"RB","stars":null,"rating_247":90.0,"committed_to":"Miami","lat":32.7364,"lng":-89.6678,"hometown_city":"Poplarville","hometown_state":"MS"},{"name":"Tyson Robinson","year":2027,"position":"RB","stars":null,"rating_247":90.0,"committed_to":"Michigan","lat":32.7364,"lng":-89.6678,"hometown_city":"Brandon","hometown_state":"MS"},{"name":"Javian Jones-Priest","year":2027,"position":"RB","stars":null,"rating_247":89.0,"committed_to":"Virginia Tech","lat":31.4757,"lng":-99.3312,"hometown_city":"Arlington","hometown_state":"TX"},{"name":"Noah Roberts","year":2027,"position":"RB","stars":null,"rating_247":88.0,"committed_to":"Texas","lat":34.2744,"lng":-111.6602,"hometown_city":"Chandler","hometown_state":"AZ"},{"name":"Amir Brown","year":2027,"position":"RB","stars":null,"rating_247":88.0,"committed_to":"Nebraska","lat":35.5557,"lng":-79.3877,"hometown_city":"Rolesville","hometown_state":"NC"},{"name":"Jaxsen Stokes","year":2027,"position":"RB","stars":null,"rating_247":88.0,"committed_to":"California","lat":37.1841,"lng":-119.4696,"hometown_city":"Chatsworth","hometown_state":"CA"},{"name":"Duece Jones-Drew","year":2027,"position":"RB","stars":null,"rating_247":88.0,"committed_to":"UCLA","lat":37.1841,"lng":-119.4696,"hometown_city":"Concord","hometown_state":"CA"},{"name":"Tristan Willis","year":2027,"position":"RB","stars":null,"rating_247":88.0,"committed_to":"Georgia Tech","lat":31.4757,"lng":-99.3312,"hometown_city":"Houston","hometown_state":"TX"},{"name":"Jeremy Adeyanju","year":2027,"position":"RB","stars":null,"rating_247":88.0,"committed_to":"Washington","lat":34.2744,"lng":-111.6602,"hometown_city":"Glendale","hometown_state":"AZ"},{"name":"Kelsey Gerald","year":2027,"position":"RB","stars":null,"rating_247":87.0,"committed_to":"Kentucky","lat":28.6305,"lng":-82.4497,"hometown_city":"Lantana","hometown_state":"FL"},{"name":"Terrance Grant Jr.","year":2027,"position":"RB","stars":null,"rating_247":87.0,"committed_to":"Maryland","lat":39.055,"lng":-76.7909,"hometown_city":"Hyattsville","hometown_state":"MD"},{"name":"Amos Bradford","year":2027,"position":"RB","stars":null,"rating_247":86.0,"committed_to":"Purdue","lat":28.6305,"lng":-82.4497,"hometown_city":"Hollywood","hometown_state":"FL"},{"name":"Antwon Sanders","year":2027,"position":"RB","stars":null,"rating_247":86.0,"committed_to":"California","lat":31.4757,"lng":-99.3312,"hometown_city":"Houston","hometown_state":"TX"},{"name":"Ezra Sanelivi","year":2027,"position":"RB","stars":null,"rating_247":86.0,"committed_to":"BYU","lat":39.3289,"lng":-116.6312,"hometown_city":"Henderson","hometown_state":"NV"},{"name":"Malachi McFarland","year":2027,"position":"RB","stars":null,"rating_247":86.0,"committed_to":"Boise State","lat":37.1841,"lng":-119.4696,"hometown_city":"La Verne","hometown_state":"CA"},{"name":"Nikko Juarez","year":2027,"position":"RB","stars":null,"rating_247":84.0,"committed_to":null,"lat":37.1841,"lng":-119.4696,"hometown_city":"Manteca","hometown_state":"CA"},{"name":"Eli Dukes","year":2027,"position":"RB","stars":null,"rating_247":null,"committed_to":null,"lat":37.1841,"lng":-119.4696,"hometown_city":"Salinas","hometown_state":"CA"},{"name":"Ar'mand Stevens","year":2027,"position":"RB","stars":null,"rating_247":null,"committed_to":null,"lat":37.5215,"lng":-78.8537,"hometown_city":"Springfield","hometown_state":"VA"},{"name":"Jordan Smith","year":2027,"position":"RB","stars":null,"rating_247":null,"committed_to":"Texas-San Antonio","lat":31.4757,"lng":-99.3312,"hometown_city":"Waxahachie","hometown_state":"TX"},{"name":"Quentin Hale","year":2027,"position":"WR","stars":null,"rating_247":94.0,"committed_to":"Southern California","lat":37.1841,"lng":-119.4696,"hometown_city":"Corona","hometown_state":"CA"},{"name":"Kesean Bowman","year":2027,"position":"WR","stars":null,"rating_247":93.0,"committed_to":"Tennessee","lat":35.858,"lng":-86.3505,"hometown_city":"Brentwood","hometown_state":"TN"},{"name":"Bode Sparrow","year":2027,"position":"WR","stars":null,"rating_247":93.0,"committed_to":null,"lat":39.321,"lng":-111.0937,"hometown_city":"Kaysville","hometown_state":"UT"},{"name":"Roye Oliver III","year":2027,"position":"WR","stars":null,"rating_247":93.0,"committed_to":"Southern California","lat":34.2744,"lng":-111.6602,"hometown_city":"Chandler","hometown_state":"AZ"},{"name":"Charles Davis","year":2027,"position":"WR","stars":null,"rating_247":93.0,"committed_to":"California","lat":37.1841,"lng":-119.4696,"hometown_city":"Westlake Village","hometown_state":"CA"},{"name":"Briceson Thrower Jr.","year":2027,"position":"WR","stars":null,"rating_247":91.0,"committed_to":"Texas","lat":31.4757,"lng":-99.3312,"hometown_city":"Forney","hometown_state":"TX"},{"name":"Eli Woodard","year":2027,"position":"WR","stars":null,"rating_247":91.0,"committed_to":null,"lat":37.1841,"lng":-119.4696,"hometown_city":"Temecula","hometown_state":"CA"},{"name":"Trenton Yancey","year":2027,"position":"WR","stars":null,"rating_247":90.0,"committed_to":"Purdue","lat":31.4757,"lng":-99.3312,"hometown_city":"Duncanville","hometown_state":"TX"},{"name":"Zion White","year":2027,"position":"WR","stars":null,"rating_247":90.0,"committed_to":null,"lat":20.2927,"lng":-156.3737,"hometown_city":"Mililani","hometown_state":"HI"},{"name":"Demare Dezeurn","year":2027,"position":"WR","stars":null,"rating_247":90.0,"committed_to":"California","lat":37.1841,"lng":-119.4696,"hometown_city":"Westlake Village","hometown_state":"CA"},{"name":"Damani Warren","year":2027,"position":"WR","stars":null,"rating_247":89.0,"committed_to":null,"lat":39.3289,"lng":-116.6312,"hometown_city":"Las Vegas","hometown_state":"NV"},{"name":"Demarcus Brown","year":2027,"position":"WR","stars":null,"rating_247":89.0,"committed_to":"Virginia Tech","lat":37.5215,"lng":-78.8537,"hometown_city":"Roanoke","hometown_state":"VA"},{"name":"Braylon Pope","year":2027,"position":"WR","stars":null,"rating_247":89.0,"committed_to":"Washington","lat":47.3826,"lng":-120.4472,"hometown_city":"Sumner","hometown_state":"WA"},{"name":"Kingston Celifie","year":2027,"position":"WR","stars":null,"rating_247":89.0,"committed_to":"UCLA","lat":37.1841,"lng":-119.4696,"hometown_city":"Calabasas","hometown_state":"CA"},{"name":"Anthony Jennings","year":2027,"position":"WR","stars":null,"rating_247":88.0,"committed_to":"Florida","lat":28.6305,"lng":-82.4497,"hometown_city":"Fort Lauderdale","hometown_state":"FL"},{"name":"Demaje Riley","year":2027,"position":"WR","stars":null,"rating_247":88.0,"committed_to":"Fresno State","lat":37.1841,"lng":-119.4696,"hometown_city":"Tulare","hometown_state":"CA"},{"name":"Tycen Johnson","year":2027,"position":"WR","stars":null,"rating_247":88.0,"committed_to":"Arizona State","lat":37.1841,"lng":-119.4696,"hometown_city":"Temecula","hometown_state":"CA"},{"name":"Rob Larson","year":2027,"position":"WR","stars":null,"rating_247":88.0,"committed_to":"UCLA","lat":37.1841,"lng":-119.4696,"hometown_city":"Folsom","hometown_state":"CA"},{"name":"Jaiden Fields","year":2027,"position":"WR","stars":null,"rating_247":88.0,"committed_to":null,"lat":31.4757,"lng":-99.3312,"hometown_city":"Hutto","hometown_state":"TX"},{"name":"Zerek Sidney","year":2027,"position":"WR","stars":null,"rating_247":87.0,"committed_to":"Washington","lat":34.2744,"lng":-111.6602,"hometown_city":"Goodyear","hometown_state":"AZ"},{"name":"Braylon Kasper","year":2027,"position":"WR","stars":null,"rating_247":87.0,"committed_to":null,"lat":34.2744,"lng":-111.6602,"hometown_city":"Queen Creek","hometown_state":"AZ"},{"name":"Gianni Haynes","year":2027,"position":"WR","stars":null,"rating_247":87.0,"committed_to":null,"lat":37.1841,"lng":-119.4696,"hometown_city":"Los Angeles","hometown_state":"CA"},{"name":"Jackson Coleman","year":2027,"position":"WR","stars":null,"rating_247":87.0,"committed_to":"Notre Dame","lat":38.9972,"lng":-105.5478,"hometown_city":"Littleton","hometown_state":"CO"},{"name":"Delontay Williams","year":2027,"position":"WR","stars":null,"rating_247":86.0,"committed_to":"Nevada, Las Vegas","lat":37.1841,"lng":-119.4696,"hometown_city":"San Diego","hometown_state":"CA"},{"name":"Skylar Robinson","year":2027,"position":"WR","stars":null,"rating_247":86.0,"committed_to":"North Carolina","lat":37.1841,"lng":-119.4696,"hometown_city":"West Hills","hometown_state":"CA"},{"name":"Jayden Thomas","year":2027,"position":"WR","stars":null,"rating_247":86.0,"committed_to":"Minnesota","lat":39.3289,"lng":-116.6312,"hometown_city":"Las Vegas","hometown_state":"NV"},{"name":"Isaac Cook","year":2027,"position":"WR","stars":null,"rating_247":86.0,"committed_to":"San Diego State","lat":37.1841,"lng":-119.4696,"hometown_city":"San Diego","hometown_state":"CA"},{"name":"Blake Gunter","year":2027,"position":"WR","stars":null,"rating_247":86.0,"committed_to":"California","lat":31.4757,"lng":-99.3312,"hometown_city":"Southlake","hometown_state":"TX"},{"name":"Kaiden Drinkwater","year":2027,"position":"WR","stars":null,"rating_247":84.0,"committed_to":"Holy Cross","lat":42.2596,"lng":-71.8083,"hometown_city":"Marion","hometown_state":"MA"},{"name":"Landon White","year":2027,"position":"WR","stars":null,"rating_247":84.0,"committed_to":"Oregon State","lat":37.1841,"lng":-119.4696,"hometown_city":"Rancho Cucamonga","hometown_state":"CA"},{"name":"Quintero Frierson","year":2027,"position":"WR","stars":null,"rating_247":null,"committed_to":null,"lat":28.6305,"lng":-82.4497,"hometown_city":"Miami","hometown_state":"FL"},{"name":"Jaydon Rawls","year":2027,"position":"WR","stars":null,"rating_247":null,"committed_to":null,"lat":34.2744,"lng":-111.6602,"hometown_city":"Goodyear","hometown_state":"AZ"},{"name":"Rahzario Edwards","year":2027,"position":"TE","stars":null,"rating_247":90.0,"committed_to":"California","lat":37.1841,"lng":-119.4696,"hometown_city":"Sacramento","hometown_state":"CA"},{"name":"Ben Hynek","year":2027,"position":"TE","stars":null,"rating_247":89.0,"committed_to":"Kansas State","lat":47.4501,"lng":-100.4659,"hometown_city":"Stanley","hometown_state":"ND"},{"name":"Sam Faniel","year":2027,"position":"TE","stars":null,"rating_247":89.0,"committed_to":"Virginia Tech","lat":37.5215,"lng":-78.8537,"hometown_city":"Richmond","hometown_state":"VA"},{"name":"Grant Haviland","year":2027,"position":"TE","stars":null,"rating_247":88.0,"committed_to":"Vanderbilt","lat":32.6415,"lng":-83.4426,"hometown_city":"Alpharetta","hometown_state":"GA"},{"name":"Ben Kolar","year":2027,"position":"TE","stars":null,"rating_247":88.0,"committed_to":"Stanford","lat":35.5889,"lng":-97.4943,"hometown_city":"Norman","hometown_state":"OK"},{"name":"Christian Hanshaw","year":2027,"position":"TE","stars":null,"rating_247":88.0,"committed_to":null,"lat":39.321,"lng":-111.0937,"hometown_city":"American Fork","hometown_state":"UT"},{"name":"Zach Albright","year":2027,"position":"TE","stars":null,"rating_247":88.0,"committed_to":"Washington","lat":47.3826,"lng":-120.4472,"hometown_city":"Snohomish","hometown_state":"WA"},{"name":"Jace Cannon","year":2027,"position":"TE","stars":null,"rating_247":88.0,"committed_to":"Southern California","lat":37.1841,"lng":-119.4696,"hometown_city":"San Mateo","hometown_state":"CA"},{"name":"Zac Fares","year":2027,"position":"TE","stars":null,"rating_247":88.0,"committed_to":"UCLA","lat":39.3289,"lng":-116.6312,"hometown_city":"Las Vegas","hometown_state":"NV"},{"name":"Seager Milholen","year":2027,"position":"TE","stars":null,"rating_247":87.0,"committed_to":null,"lat":39.3289,"lng":-116.6312,"hometown_city":"Las Vegas","hometown_state":"NV"},{"name":"Matthew Schimberg","year":2027,"position":"TE","stars":null,"rating_247":87.0,"committed_to":null,"lat":38.9972,"lng":-105.5478,"hometown_city":"Aurora","hometown_state":"CO"},{"name":"Talan Scott","year":2027,"position":"TE","stars":null,"rating_247":87.0,"committed_to":"Oklahoma State","lat":34.2744,"lng":-111.6602,"hometown_city":"Queen Creek","hometown_state":"AZ"},{"name":"Caleb Camping","year":2027,"position":"TE","stars":null,"rating_247":87.0,"committed_to":"Arizona State","lat":38.9972,"lng":-105.5478,"hometown_city":"Fort Collins","hometown_state":"CO"},{"name":"Judah Lancaster","year":2027,"position":"TE","stars":null,"rating_247":86.0,"committed_to":"South Carolina","lat":35.858,"lng":-86.3505,"hometown_city":"Brentwood","hometown_state":"TN"},{"name":"Luke Gazzaniga","year":2027,"position":"TE","stars":null,"rating_247":86.0,"committed_to":"Kansas","lat":37.1841,"lng":-119.4696,"hometown_city":"Rancho Santa Margarita","hometown_state":"CA"},{"name":"Braylen Ross","year":2027,"position":"TE","stars":null,"rating_247":84.0,"committed_to":"Arizona","lat":37.1841,"lng":-119.4696,"hometown_city":"Irvine","hometown_state":"CA"},{"name":"Drew Fielder","year":2027,"position":"OT","stars":null,"rating_247":93.0,"committed_to":"Southern California","lat":37.1841,"lng":-119.4696,"hometown_city":"Anaheim","hometown_state":"CA"},{"name":"Brian Swanson","year":2027,"position":"OT","stars":null,"rating_247":91.0,"committed_to":null,"lat":31.4757,"lng":-99.3312,"hometown_city":"Dallas","hometown_state":"TX"},{"name":"Jimmy Kalis","year":2027,"position":"OT","stars":null,"rating_247":90.0,"committed_to":"Ohio State","lat":40.8781,"lng":-77.7996,"hometown_city":"Pittsburgh","hometown_state":"PA"},{"name":"Avery Michael","year":2027,"position":"OT","stars":null,"rating_247":89.0,"committed_to":"Oregon","lat":37.1841,"lng":-119.4696,"hometown_city":"Turlock","hometown_state":"CA"},{"name":"Isaiah Bertola","year":2027,"position":"OT","stars":null,"rating_247":89.0,"committed_to":"California","lat":20.2927,"lng":-156.3737,"hometown_city":"Honolulu","hometown_state":"HI"},{"name":"Amaziah Siale","year":2027,"position":"OT","stars":null,"rating_247":89.0,"committed_to":"California","lat":37.1841,"lng":-119.4696,"hometown_city":"Mission Viejo","hometown_state":"CA"},{"name":"Gecova Doyal","year":2027,"position":"OT","stars":null,"rating_247":89.0,"committed_to":null,"lat":47.3826,"lng":-120.4472,"hometown_city":"Puyallup","hometown_state":"WA"},{"name":"Lucas Rhoa","year":2027,"position":"OT","stars":null,"rating_247":88.0,"committed_to":null,"lat":37.1841,"lng":-119.4696,"hometown_city":"Orange","hometown_state":"CA"},{"name":"Tre Warren III","year":2027,"position":"OT","stars":null,"rating_247":87.0,"committed_to":"North Carolina State","lat":32.6415,"lng":-83.4426,"hometown_city":"Columbus","hometown_state":"GA"},{"name":"George Tyus","year":2027,"position":"OT","stars":null,"rating_247":87.0,"committed_to":"Stanford","lat":37.1841,"lng":-119.4696,"hometown_city":"Antioch","hometown_state":"CA"},{"name":"Clint Lundin","year":2027,"position":"OT","stars":null,"rating_247":85.0,"committed_to":"Stanford","lat":37.1841,"lng":-119.4696,"hometown_city":"Concord","hometown_state":"CA"},{"name":"Sire Stewart","year":2027,"position":"OT","stars":null,"rating_247":85.0,"committed_to":"Utah","lat":34.2744,"lng":-111.6602,"hometown_city":"Chandler","hometown_state":"AZ"},{"name":"Antonio Berry","year":2027,"position":"IOL","stars":null,"rating_247":91.0,"committed_to":null,"lat":32.7364,"lng":-89.6678,"hometown_city":"Tupelo","hometown_state":"MS"},{"name":"Jackson Roper","year":2027,"position":"IOL","stars":null,"rating_247":90.0,"committed_to":"UCLA","lat":38.9972,"lng":-105.5478,"hometown_city":"Englewood","hometown_state":"CO"},{"name":"Keyon Hemphill-Woods","year":2027,"position":"IOL","stars":null,"rating_247":89.0,"committed_to":"Texas","lat":31.4757,"lng":-99.3312,"hometown_city":"Columbus","hometown_state":"TX"},{"name":"DaJohn Yarborough","year":2027,"position":"IOL","stars":null,"rating_247":89.0,"committed_to":null,"lat":34.2744,"lng":-111.6602,"hometown_city":"Chandler","hometown_state":"AZ"},{"name":"Ian Aloisio","year":2027,"position":"IOL","stars":null,"rating_247":88.0,"committed_to":null,"lat":39.321,"lng":-111.0937,"hometown_city":"Provo","hometown_state":"UT"},{"name":"Kyle Nabrotzky","year":2027,"position":"IOL","stars":null,"rating_247":88.0,"committed_to":null,"lat":35.858,"lng":-86.3505,"hometown_city":"Brentwood","hometown_state":"TN"},{"name":"Lex Mailangi","year":2027,"position":"IOL","stars":null,"rating_247":87.0,"committed_to":null,"lat":37.1841,"lng":-119.4696,"hometown_city":"Santa Ana","hometown_state":"CA"},{"name":"Reis Russell","year":2027,"position":"IOL","stars":null,"rating_247":87.0,"committed_to":"Washington","lat":38.9972,"lng":-105.5478,"hometown_city":"Littleton","hometown_state":"CO"},{"name":"Tristan Dare","year":2027,"position":"IOL","stars":null,"rating_247":87.0,"committed_to":"Missouri","lat":31.4757,"lng":-99.3312,"hometown_city":"Southlake","hometown_state":"TX"},{"name":"Rashaun Lavata'i","year":2027,"position":"IOL","stars":null,"rating_247":87.0,"committed_to":null,"lat":47.3826,"lng":-120.4472,"hometown_city":"Tacoma","hometown_state":"WA"},{"name":"Jayden Mack","year":2027,"position":"IOL","stars":null,"rating_247":86.0,"committed_to":null,"lat":31.4757,"lng":-99.3312,"hometown_city":"Hutto","hometown_state":"TX"},{"name":"Phoenix Pollard","year":2027,"position":"IOL","stars":null,"rating_247":85.0,"committed_to":"Nevada, Las Vegas","lat":39.3289,"lng":-116.6312,"hometown_city":"Henderson","hometown_state":"NV"},{"name":"Jordan Carraway","year":2027,"position":"IOL","stars":null,"rating_247":84.0,"committed_to":null,"lat":31.4757,"lng":-99.3312,"hometown_city":"Forney","hometown_state":"TX"},{"name":"Calvin Moala","year":2027,"position":"IOL","stars":null,"rating_247":84.0,"committed_to":null,"lat":37.1841,"lng":-119.4696,"hometown_city":"Temecula","hometown_state":"CA"},{"name":"Aiden Williams","year":2027,"position":"IOL","stars":null,"rating_247":83.0,"committed_to":"Texas State","lat":31.4757,"lng":-99.3312,"hometown_city":"Duncanville","hometown_state":"TX"},{"name":"Kaho Valikoula","year":2027,"position":"IOL","stars":null,"rating_247":null,"committed_to":null,"lat":20.2927,"lng":-156.3737,"hometown_city":"Kahuku","hometown_state":"HI"},{"name":"Kingston Tupuola","year":2027,"position":"IOL","stars":null,"rating_247":null,"committed_to":null,"lat":31.4757,"lng":-99.3312,"hometown_city":"Conroe","hometown_state":"TX"},{"name":"Josh Bunni","year":2027,"position":"IOL","stars":null,"rating_247":null,"committed_to":"California","lat":37.1841,"lng":-119.4696,"hometown_city":"Santa Rosa","hometown_state":"CA"},{"name":"DJ Jacobs","year":2027,"position":"Edge","stars":null,"rating_247":98.0,"committed_to":"Ohio State","lat":32.6415,"lng":-83.4426,"hometown_city":"Roswell","hometown_state":"GA"},{"name":"Anthony Sweeney","year":2027,"position":"Edge","stars":null,"rating_247":98.0,"committed_to":"Texas Tech","lat":39.055,"lng":-76.7909,"hometown_city":"Baltimore","hometown_state":"MD"},{"name":"Abraham Sesay","year":2027,"position":"Edge","stars":null,"rating_247":98.0,"committed_to":null,"lat":40.8781,"lng":-77.7996,"hometown_city":"Exton","hometown_state":"PA"},{"name":"Chris Whitehead","year":2027,"position":"Edge","stars":null,"rating_247":94.0,"committed_to":null,"lat":37.5215,"lng":-78.8537,"hometown_city":"Chesterfield","hometown_state":"VA"},{"name":"Uhila Wolfgramm","year":2027,"position":"Edge","stars":null,"rating_247":93.0,"committed_to":null,"lat":39.321,"lng":-111.0937,"hometown_city":"Spanish Fork","hometown_state":"UT"},{"name":"Jackson Vaughn","year":2027,"position":"Edge","stars":null,"rating_247":92.0,"committed_to":"Notre Dame","lat":40.1907,"lng":-74.6728,"hometown_city":"Oradell","hometown_state":"NJ"},{"name":"Troy Bowens","year":2027,"position":"Edge","stars":null,"rating_247":90.0,"committed_to":"California","lat":37.1841,"lng":-119.4696,"hometown_city":"Sutter","hometown_state":"CA"},{"name":"Manase Brown","year":2027,"position":"Edge","stars":null,"rating_247":89.0,"committed_to":null,"lat":39.321,"lng":-111.0937,"hometown_city":"Draper","hometown_state":"UT"},{"name":"T.K. Cunningham","year":2027,"position":"Edge","stars":null,"rating_247":89.0,"committed_to":null,"lat":34.2744,"lng":-111.6602,"hometown_city":"Chandler","hometown_state":"AZ"},{"name":"Myles Smith","year":2027,"position":"Edge","stars":null,"rating_247":89.0,"committed_to":"Indiana","lat":44.3467,"lng":-85.4102,"hometown_city":"Farmington","hometown_state":"MI"},{"name":"Kaylon Bailey","year":2027,"position":"Edge","stars":null,"rating_247":88.0,"committed_to":null,"lat":40.2862,"lng":-82.7937,"hometown_city":"Cleveland","hometown_state":"OH"},{"name":"Giovanni Hodge","year":2027,"position":"Edge","stars":null,"rating_247":88.0,"committed_to":"California","lat":37.1841,"lng":-119.4696,"hometown_city":"Sacramento","hometown_state":"CA"},{"name":"Miles Schirmer","year":2027,"position":"Edge","stars":null,"rating_247":88.0,"committed_to":"California","lat":37.1841,"lng":-119.4696,"hometown_city":"Corona","hometown_state":"CA"},{"name":"Drake Carroll","year":2027,"position":"Edge","stars":null,"rating_247":88.0,"committed_to":"Texas Christian","lat":31.4757,"lng":-99.3312,"hometown_city":"San Antonio","hometown_state":"TX"},{"name":"Cameron Saunders","year":2027,"position":"Edge","stars":null,"rating_247":88.0,"committed_to":"Minnesota","lat":37.1841,"lng":-119.4696,"hometown_city":"San Jose","hometown_state":"CA"},{"name":"Ethan Coach","year":2027,"position":"Edge","stars":null,"rating_247":87.0,"committed_to":"Washington","lat":37.1841,"lng":-119.4696,"hometown_city":"Bellflower","hometown_state":"CA"},{"name":"Ty Tautolo","year":2027,"position":"Edge","stars":null,"rating_247":87.0,"committed_to":null,"lat":47.3826,"lng":-120.4472,"hometown_city":"Lake Stevens","hometown_state":"WA"},{"name":"Dylan Modena","year":2027,"position":"Edge","stars":null,"rating_247":85.0,"committed_to":null,"lat":37.1841,"lng":-119.4696,"hometown_city":"San Mateo","hometown_state":"CA"},{"name":"Cael Thigpen","year":2027,"position":"Edge","stars":null,"rating_247":84.0,"committed_to":"Houston","lat":31.4757,"lng":-99.3312,"hometown_city":"Houston","hometown_state":"TX"},{"name":"Sonasi Maka","year":2027,"position":"Edge","stars":null,"rating_247":null,"committed_to":null,"lat":37.1841,"lng":-119.4696,"hometown_city":"Antioch","hometown_state":"CA"},{"name":"Miko Greer","year":2027,"position":"Edge","stars":null,"rating_247":null,"committed_to":"Nevada, Las Vegas","lat":37.1841,"lng":-119.4696,"hometown_city":"Berkeley","hometown_state":"CA"},{"name":"Maurice Davis","year":2027,"position":"Edge","stars":null,"rating_247":null,"committed_to":null,"lat":40.1907,"lng":-74.6728,"hometown_city":"Glassboro","hometown_state":"NJ"},{"name":"Kasi Currie","year":2027,"position":"DL","stars":null,"rating_247":95.0,"committed_to":null,"lat":37.1841,"lng":-119.4696,"hometown_city":"Chatsworth","hometown_state":"CA"},{"name":"Marcus Fakatou","year":2027,"position":"DL","stars":null,"rating_247":94.0,"committed_to":null,"lat":37.1841,"lng":-119.4696,"hometown_city":"Chatsworth","hometown_state":"CA"},{"name":"Mitchell Turner","year":2027,"position":"DL","stars":null,"rating_247":94.0,"committed_to":null,"lat":32.7364,"lng":-89.6678,"hometown_city":"Louisville","hometown_state":"MS"},{"name":"David Folorunsho","year":2027,"position":"DL","stars":null,"rating_247":94.0,"committed_to":"Notre Dame","lat":40.0417,"lng":-89.1965,"hometown_city":"Chicago","hometown_state":"IL"},{"name":"Myels Smith","year":2027,"position":"DL","stars":null,"rating_247":94.0,"committed_to":"Texas A&M","lat":37.1841,"lng":-119.4696,"hometown_city":"Inglewood","hometown_state":"CA"},{"name":"Karlos May","year":2027,"position":"DL","stars":null,"rating_247":92.0,"committed_to":null,"lat":32.7794,"lng":-86.8287,"hometown_city":"Birmingham","hometown_state":"AL"},{"name":"Alifeleti Tuihalamaka","year":2027,"position":"DL","stars":null,"rating_247":91.0,"committed_to":"Southern California","lat":37.1841,"lng":-119.4696,"hometown_city":"Westlake Village","hometown_state":"CA"},{"name":"Sam LeJeune","year":2027,"position":"DL","stars":null,"rating_247":91.0,"committed_to":null,"lat":32.7364,"lng":-89.6678,"hometown_city":"Poplarville","hometown_state":"MS"},{"name":"Ezekiel Ayangbile","year":2027,"position":"DL","stars":null,"rating_247":90.0,"committed_to":"Miami","lat":31.4757,"lng":-99.3312,"hometown_city":"Houston","hometown_state":"TX"},{"name":"Jon Ioane","year":2027,"position":"DL","stars":null,"rating_247":90.0,"committed_to":"Washington","lat":37.1841,"lng":-119.4696,"hometown_city":"Tustin","hometown_state":"CA"},{"name":"Marvin Nguetsop","year":2027,"position":"DL","stars":null,"rating_247":90.0,"committed_to":"Mississippi","lat":41.6219,"lng":-72.7273,"hometown_city":"Oakdale","hometown_state":"CT"},{"name":"David Hill","year":2027,"position":"DL","stars":null,"rating_247":90.0,"committed_to":"Wisconsin","lat":40.0417,"lng":-89.1965,"hometown_city":"Flossmoor","hometown_state":"IL"},{"name":"George Toia","year":2027,"position":"DL","stars":null,"rating_247":90.0,"committed_to":"UCLA","lat":31.4757,"lng":-99.3312,"hometown_city":"Trophy Club","hometown_state":"TX"},{"name":"K'Adrian Redmond","year":2027,"position":"DL","stars":null,"rating_247":90.0,"committed_to":"Texas Tech","lat":31.4757,"lng":-99.3312,"hometown_city":"DeSoto","hometown_state":"TX"},{"name":"Tevita Nonu","year":2027,"position":"DL","stars":null,"rating_247":90.0,"committed_to":"Washington","lat":47.3826,"lng":-120.4472,"hometown_city":"Seattle","hometown_state":"WA"},{"name":"Elija Harmon","year":2027,"position":"DL","stars":null,"rating_247":90.0,"committed_to":"Oklahoma","lat":37.1841,"lng":-119.4696,"hometown_city":"Inglewood","hometown_state":"CA"},{"name":"Dawayne Jones","year":2027,"position":"DL","stars":null,"rating_247":89.0,"committed_to":"Kansas State","lat":35.5889,"lng":-97.4943,"hometown_city":"Tulsa","hometown_state":"OK"},{"name":"Jaderian Jones","year":2027,"position":"DL","stars":null,"rating_247":89.0,"committed_to":"California","lat":31.4757,"lng":-99.3312,"hometown_city":"Dallas","hometown_state":"TX"},{"name":"Jason Johnson","year":2027,"position":"DL","stars":null,"rating_247":89.0,"committed_to":null,"lat":31.4757,"lng":-99.3312,"hometown_city":"Humble","hometown_state":"TX"},{"name":"Jamar Thompson","year":2027,"position":"DL","stars":null,"rating_247":88.0,"committed_to":"Georgia Tech","lat":28.6305,"lng":-82.4497,"hometown_city":"Boca Raton","hometown_state":"FL"},{"name":"Segun Alexander","year":2027,"position":"DL","stars":null,"rating_247":88.0,"committed_to":null,"lat":32.6415,"lng":-83.4426,"hometown_city":"Rabun Gap","hometown_state":"GA"},{"name":"Segun Alexander","year":2027,"position":"DL","stars":null,"rating_247":88.0,"committed_to":null,"lat":32.6415,"lng":-83.4426,"hometown_city":"Rabun Gap","hometown_state":"GA"},{"name":"Montana Toilolo","year":2027,"position":"DL","stars":null,"rating_247":88.0,"committed_to":"UCLA","lat":37.1841,"lng":-119.4696,"hometown_city":"Santa Ana","hometown_state":"CA"},{"name":"Sione Felila","year":2027,"position":"DL","stars":null,"rating_247":88.0,"committed_to":"Oklahoma","lat":37.1841,"lng":-119.4696,"hometown_city":"Hesperia","hometown_state":"CA"},{"name":"Ladanuel Jordan","year":2027,"position":"DL","stars":null,"rating_247":88.0,"committed_to":null,"lat":32.7364,"lng":-89.6678,"hometown_city":"Starkville","hometown_state":"MS"},{"name":"Kahlio Vaetoe","year":2027,"position":"DL","stars":null,"rating_247":88.0,"committed_to":null,"lat":37.1841,"lng":-119.4696,"hometown_city":"Santa Rosa","hometown_state":"CA"},{"name":"Achilles Reyna","year":2027,"position":"DL","stars":null,"rating_247":88.0,"committed_to":"Oregon","lat":47.3826,"lng":-120.4472,"hometown_city":"Seattle","hometown_state":"WA"},{"name":"Jayden Agberodiola","year":2027,"position":"DL","stars":null,"rating_247":88.0,"committed_to":null,"lat":35.858,"lng":-86.3505,"hometown_city":"Rockvale","hometown_state":"TN"},{"name":"Wesley Gover","year":2027,"position":"DL","stars":null,"rating_247":88.0,"committed_to":"Purdue","lat":32.7794,"lng":-86.8287,"hometown_city":"Alabaster","hometown_state":"AL"},{"name":"Jesiah Fields","year":2027,"position":"DL","stars":null,"rating_247":87.0,"committed_to":"Louisville","lat":35.5557,"lng":-79.3877,"hometown_city":"Charlotte","hometown_state":"NC"},{"name":"Yahzeen Zion","year":2027,"position":"DL","stars":null,"rating_247":87.0,"committed_to":"Wisconsin","lat":34.2744,"lng":-111.6602,"hometown_city":"Goodyear","hometown_state":"AZ"},{"name":"Maa'imoa Havili","year":2027,"position":"DL","stars":null,"rating_247":87.0,"committed_to":"BYU","lat":39.321,"lng":-111.0937,"hometown_city":"Salt Lake City","hometown_state":"UT"},{"name":"Lemani Fehoko","year":2027,"position":"DL","stars":null,"rating_247":86.0,"committed_to":null,"lat":37.1841,"lng":-119.4696,"hometown_city":"San Mateo","hometown_state":"CA"},{"name":"Khyren Haywood","year":2027,"position":"DL","stars":null,"rating_247":86.0,"committed_to":"Texas Tech","lat":31.4757,"lng":-99.3312,"hometown_city":"Denton","hometown_state":"TX"},{"name":"Isaia Vandermade","year":2027,"position":"DL","stars":null,"rating_247":86.0,"committed_to":"Southern California","lat":37.1841,"lng":-119.4696,"hometown_city":"Rancho Santa Margarita","hometown_state":"CA"},{"name":"Stone Ah Quin","year":2027,"position":"DL","stars":null,"rating_247":86.0,"committed_to":null,"lat":20.2927,"lng":-156.3737,"hometown_city":"Honolulu","hometown_state":"HI"},{"name":"Lopeti Malupo","year":2027,"position":"DL","stars":null,"rating_247":85.0,"committed_to":"Washington State","lat":37.1841,"lng":-119.4696,"hometown_city":"San Francisco","hometown_state":"CA"},{"name":"Jerry Robinson","year":2027,"position":"DL","stars":null,"rating_247":null,"committed_to":null,"lat":31.4757,"lng":-99.3312,"hometown_city":"San Antonio","hometown_state":"TX"},{"name":"Toa Satele","year":2027,"position":"LB","stars":null,"rating_247":93.0,"committed_to":"Oregon","lat":20.2927,"lng":-156.3737,"hometown_city":"Mililani","hometown_state":"HI"},{"name":"Isaiah Phelps","year":2027,"position":"LB","stars":null,"rating_247":88.0,"committed_to":"San Diego State","lat":37.1841,"lng":-119.4696,"hometown_city":"Oxnard","hometown_state":"CA"},{"name":"Fui Vakapuna","year":2027,"position":"LB","stars":null,"rating_247":87.0,"committed_to":null,"lat":39.321,"lng":-111.0937,"hometown_city":"Provo","hometown_state":"UT"},{"name":"Justin Coach","year":2027,"position":"LB","stars":null,"rating_247":87.0,"committed_to":"Washington","lat":37.1841,"lng":-119.4696,"hometown_city":"Bellflower","hometown_state":"CA"},{"name":"Sam Ngata","year":2027,"position":"LB","stars":null,"rating_247":87.0,"committed_to":"Oregon","lat":39.321,"lng":-111.0937,"hometown_city":"Salt Lake City","hometown_state":"UT"},{"name":"Liufau Loumoli","year":2027,"position":"LB","stars":null,"rating_247":86.0,"committed_to":null,"lat":28.6305,"lng":-82.4497,"hometown_city":"Bradenton","hometown_state":"FL"},{"name":"Olrick Johnson III","year":2027,"position":"LB","stars":null,"rating_247":86.0,"committed_to":null,"lat":32.6415,"lng":-83.4426,"hometown_city":"Kennesaw","hometown_state":"GA"},{"name":"Broncs Baker","year":2027,"position":"LB","stars":null,"rating_247":85.0,"committed_to":"West Virginia","lat":39.321,"lng":-111.0937,"hometown_city":"Tooele","hometown_state":"UT"},{"name":"Gunnar Perry","year":2027,"position":"LB","stars":null,"rating_247":85.0,"committed_to":"California","lat":34.2744,"lng":-111.6602,"hometown_city":"Scottsdale","hometown_state":"AZ"},{"name":"Jayverson Papu-Muaava","year":2027,"position":"LB","stars":null,"rating_247":84.0,"committed_to":null,"lat":20.2927,"lng":-156.3737,"hometown_city":"Kapolei","hometown_state":"HI"},{"name":"Debonaire Johnson","year":2027,"position":"LB","stars":null,"rating_247":null,"committed_to":null,"lat":28.6305,"lng":-82.4497,"hometown_city":"Opa Locka","hometown_state":"FL"},{"name":"Tedrick Oatman","year":2027,"position":"LB","stars":null,"rating_247":null,"committed_to":null,"lat":28.6305,"lng":-82.4497,"hometown_city":"Fort Lauderdale","hometown_state":"FL"},{"name":"Donte Wright","year":2027,"position":"CB","stars":null,"rating_247":98.0,"committed_to":"Miami","lat":37.1841,"lng":-119.4696,"hometown_city":"Long Beach","hometown_state":"CA"},{"name":"JuJu Johnson","year":2027,"position":"CB","stars":null,"rating_247":98.0,"committed_to":"UCLA","lat":37.1841,"lng":-119.4696,"hometown_city":"Long Beach","hometown_state":"CA"},{"name":"Danny Lang","year":2027,"position":"CB","stars":null,"rating_247":95.0,"committed_to":"Southern California","lat":37.1841,"lng":-119.4696,"hometown_city":"Santa Ana","hometown_state":"CA"},{"name":"Hayden Stepp","year":2027,"position":"CB","stars":null,"rating_247":94.0,"committed_to":null,"lat":39.3289,"lng":-116.6312,"hometown_city":"Las Vegas","hometown_state":"NV"},{"name":"Karnell James","year":2027,"position":"CB","stars":null,"rating_247":93.0,"committed_to":"Texas","lat":31.4757,"lng":-99.3312,"hometown_city":"Manvel","hometown_state":"TX"},{"name":"Kei'Shjuan Telfair","year":2027,"position":"CB","stars":null,"rating_247":92.0,"committed_to":"Penn State","lat":40.2862,"lng":-82.7937,"hometown_city":"Euclid","hometown_state":"OH"},{"name":"Brandon Sherrard","year":2027,"position":"CB","stars":null,"rating_247":90.0,"committed_to":null,"lat":31.4757,"lng":-99.3312,"hometown_city":"Pearland","hometown_state":"TX"},{"name":"Kamil Loud","year":2027,"position":"CB","stars":null,"rating_247":90.0,"committed_to":null,"lat":39.3289,"lng":-116.6312,"hometown_city":"Las Vegas","hometown_state":"NV"},{"name":"Blake Jenkins","year":2027,"position":"CB","stars":null,"rating_247":90.0,"committed_to":"Michigan","lat":31.4757,"lng":-99.3312,"hometown_city":"Katy","hometown_state":"TX"},{"name":"Josiah Molden","year":2027,"position":"CB","stars":null,"rating_247":90.0,"committed_to":"Oregon","lat":43.9336,"lng":-120.5583,"hometown_city":"West Linn","hometown_state":"OR"},{"name":"Bryce Williams","year":2027,"position":"CB","stars":null,"rating_247":90.0,"committed_to":"Nebraska","lat":28.6305,"lng":-82.4497,"hometown_city":"Fort Lauderdale","hometown_state":"FL"},{"name":"Duvay Williams","year":2027,"position":"CB","stars":null,"rating_247":90.0,"committed_to":"California","lat":37.1841,"lng":-119.4696,"hometown_city":"Inglewood","hometown_state":"CA"},{"name":"MJ Burnett","year":2027,"position":"CB","stars":null,"rating_247":89.0,"committed_to":"Georgia Tech","lat":32.6415,"lng":-83.4426,"hometown_city":"Marietta","hometown_state":"GA"},{"name":"Jaden Carey","year":2027,"position":"CB","stars":null,"rating_247":88.0,"committed_to":null,"lat":28.6305,"lng":-82.4497,"hometown_city":"Fort Lauderdale","hometown_state":"FL"},{"name":"Mikyal Davis","year":2027,"position":"CB","stars":null,"rating_247":88.0,"committed_to":"Oklahoma","lat":34.2744,"lng":-111.6602,"hometown_city":"Goodyear","hometown_state":"AZ"},{"name":"Jacob Whitehead","year":2027,"position":"CB","stars":null,"rating_247":88.0,"committed_to":null,"lat":37.1841,"lng":-119.4696,"hometown_city":"Irvine","hometown_state":"CA"},{"name":"Darius Johnson","year":2027,"position":"CB","stars":null,"rating_247":88.0,"committed_to":"Michigan","lat":37.1841,"lng":-119.4696,"hometown_city":"Riverside","hometown_state":"CA"},{"name":"Elijajuan Houston","year":2027,"position":"CB","stars":null,"rating_247":88.0,"committed_to":"Arizona State","lat":31.4757,"lng":-99.3312,"hometown_city":"Fort Worth","hometown_state":"TX"},{"name":"Zachary Gleason Jr.","year":2027,"position":"CB","stars":null,"rating_247":88.0,"committed_to":"Penn State","lat":40.8781,"lng":-77.7996,"hometown_city":"Pittsburgh","hometown_state":"PA"},{"name":"Dhillon McGee","year":2027,"position":"CB","stars":null,"rating_247":87.0,"committed_to":null,"lat":31.4757,"lng":-99.3312,"hometown_city":"Red Oak","hometown_state":"TX"},{"name":"Nathaniel Mensah","year":2027,"position":"CB","stars":null,"rating_247":86.0,"committed_to":null,"lat":37.1841,"lng":-119.4696,"hometown_city":"Rancho Cucamonga","hometown_state":"CA"},{"name":"Johnny McNeil","year":2027,"position":"CB","stars":null,"rating_247":86.0,"committed_to":null,"lat":37.1841,"lng":-119.4696,"hometown_city":"Downey","hometown_state":"CA"},{"name":"Semajay Robinson","year":2027,"position":"CB","stars":null,"rating_247":86.0,"committed_to":"Virginia","lat":28.6305,"lng":-82.4497,"hometown_city":"Fort Lauderdale","hometown_state":"FL"},{"name":"Avier Jordan","year":2027,"position":"CB","stars":null,"rating_247":85.0,"committed_to":null,"lat":28.6305,"lng":-82.4497,"hometown_city":"Miami","hometown_state":"FL"},{"name":"Prince Staten","year":2027,"position":"CB","stars":null,"rating_247":85.0,"committed_to":"Nevada, Las Vegas","lat":37.1841,"lng":-119.4696,"hometown_city":"Oakland","hometown_state":"CA"},{"name":"Tristan Dottin","year":2027,"position":"CB","stars":null,"rating_247":null,"committed_to":null,"lat":37.1841,"lng":-119.4696,"hometown_city":"Westlake Village","hometown_state":"CA"},{"name":"Zion Davis","year":2027,"position":"CB","stars":null,"rating_247":null,"committed_to":null,"lat":28.6305,"lng":-82.4497,"hometown_city":"Hollywood","hometown_state":"FL"},{"name":"Jermonty Kimbrough Jr.","year":2027,"position":"CB","stars":null,"rating_247":null,"committed_to":null,"lat":28.6305,"lng":-82.4497,"hometown_city":"West Palm Beach","hometown_state":"FL"},{"name":"JayQuan Snell","year":2027,"position":"S","stars":null,"rating_247":94.0,"committed_to":"Texas A&M","lat":31.4757,"lng":-99.3312,"hometown_city":"Waxahachie","hometown_state":"TX"},{"name":"Gavin Williams","year":2027,"position":"S","stars":null,"rating_247":93.0,"committed_to":"Southern California","lat":37.1841,"lng":-119.4696,"hometown_city":"La Verne","hometown_state":"CA"},{"name":"Zayden Gamble","year":2027,"position":"S","stars":null,"rating_247":92.0,"committed_to":"Notre Dame","lat":28.6305,"lng":-82.4497,"hometown_city":"Fort Lauderdale","hometown_state":"FL"},{"name":"Pole Moala","year":2027,"position":"S","stars":null,"rating_247":90.0,"committed_to":"UCLA","lat":37.1841,"lng":-119.4696,"hometown_city":"Lawndale","hometown_state":"CA"},{"name":"Myles Baker","year":2027,"position":"S","stars":null,"rating_247":90.0,"committed_to":"California","lat":37.1841,"lng":-119.4696,"hometown_city":"Chatsworth","hometown_state":"CA"},{"name":"Jaylyn Jones","year":2027,"position":"S","stars":null,"rating_247":90.0,"committed_to":"Miami","lat":28.6305,"lng":-82.4497,"hometown_city":"Hollywood","hometown_state":"FL"},{"name":"Khalil Terry","year":2027,"position":"S","stars":null,"rating_247":88.0,"committed_to":"UCLA","lat":37.1841,"lng":-119.4696,"hometown_city":"Tustin","hometown_state":"CA"},{"name":"Isala Aisa Wily-Ava","year":2027,"position":"S","stars":null,"rating_247":88.0,"committed_to":"Washington","lat":37.1841,"lng":-119.4696,"hometown_city":"Bellflower","hometown_state":"CA"},{"name":"Charles Roberts","year":2027,"position":"S","stars":null,"rating_247":88.0,"committed_to":"Maryland","lat":28.6305,"lng":-82.4497,"hometown_city":"Bradenton","hometown_state":"FL"},{"name":"Jaden Walk-Green","year":2027,"position":"S","stars":null,"rating_247":88.0,"committed_to":null,"lat":37.1841,"lng":-119.4696,"hometown_city":"Corona","hometown_state":"CA"},{"name":"Dillon Davis","year":2027,"position":"S","stars":null,"rating_247":88.0,"committed_to":"Vanderbilt","lat":37.1841,"lng":-119.4696,"hometown_city":"Bellflower","hometown_state":"CA"},{"name":"Jemari Foreman","year":2027,"position":"S","stars":null,"rating_247":87.0,"committed_to":"Florida State","lat":28.6305,"lng":-82.4497,"hometown_city":"Fort Lauderdale","hometown_state":"FL"},{"name":"Samari Howard","year":2027,"position":"S","stars":null,"rating_247":87.0,"committed_to":"Colorado","lat":28.6305,"lng":-82.4497,"hometown_city":"Fort Lauderdale","hometown_state":"FL"},{"name":"T'ari Miller","year":2027,"position":"S","stars":null,"rating_247":87.0,"committed_to":null,"lat":28.6305,"lng":-82.4497,"hometown_city":"Miami","hometown_state":"FL"},{"name":"Rico Jackson","year":2027,"position":"S","stars":null,"rating_247":87.0,"committed_to":"Indiana","lat":39.055,"lng":-76.7909,"hometown_city":"Gaithersburg","hometown_state":"MD"},{"name":"London Goggans","year":2027,"position":"S","stars":null,"rating_247":87.0,"committed_to":"Kansas State","lat":32.6415,"lng":-83.4426,"hometown_city":"Loganville","hometown_state":"GA"},{"name":"Alan Blackshere","year":2027,"position":"S","stars":null,"rating_247":86.0,"committed_to":"Connecticut","lat":28.6305,"lng":-82.4497,"hometown_city":"Opa Locka","hometown_state":"FL"},{"name":"Julius Fuentes-Bream","year":2027,"position":"S","stars":null,"rating_247":86.0,"committed_to":"Kent State","lat":40.8781,"lng":-77.7996,"hometown_city":"York","hometown_state":"PA"},{"name":"Kailib Dillard","year":2027,"position":"S","stars":null,"rating_247":86.0,"committed_to":"Florida","lat":35.5889,"lng":-97.4943,"hometown_city":"Jenks","hometown_state":"OK"},{"name":"Brett Smith","year":2027,"position":"S","stars":null,"rating_247":84.0,"committed_to":null,"lat":37.1841,"lng":-119.4696,"hometown_city":"Corona","hometown_state":"CA"},{"name":"Grant Moser","year":2027,"position":"S","stars":null,"rating_247":84.0,"committed_to":null,"lat":37.1841,"lng":-119.4696,"hometown_city":"Clovis","hometown_state":"CA"},