{"2026":[{"name":"Travis Burgess","year":2026,"position":"QB","stars":4,"rating_247":95.0,"committed_to":"North Carolina","lat":33.8389977,"lng":-83.9007382,"hometown_city":"Loganville","hometown_state":"GA"},{"name":"Bryson Beaver","year":2026,"position":"QB","stars":4,"rating_247":91.0,"committed_to":"Oregon","lat":33.577752399999994,"lng":-117.18845420205307,"hometown_city":"Murrieta","hometown_state":"CA"},{"name":"Briggs Cherry","year":2026,"position":"QB","stars":4,"rating_247":90.0,"committed_to":"Louisville","lat":35.0457219,"lng":-85.3094883,"hometown_city":"Chattanooga","hometown_state":"TN"},{"name":"Cole Bergeron","year":2026,"position":"QB","stars":3,"rating_247":90.0,"committed_to":"Georgia Tech","lat":30.2240897,"lng":-92.0198427,"hometown_city":"Lafayette","hometown_state":"LA"},{"name":"Dereon Coleman","year":2026,"position":"QB","stars":4,"rating_247":89.0,"committed_to":"Miami","lat":28.5421109,"lng":-81.3790304,"hometown_city":"Orlando","hometown_state":"FL"},{"name":"Nainoa Lopes","year":2026,"position":"QB","stars":3,"rating_247":88.0,"committed_to":"California","lat":21.304547,"lng":-157.8556764,"hometown_city":"Honolulu","hometown_state":"HI"},{"name":"Brady Smigiel","year":2026,"position":"QB","stars":4,"rating_247":88.0,"committed_to":"Michigan","lat":34.183671,"lng":-118.9118302,"hometown_city":"Newbury Park","hometown_state":"CA"},{"name":"Miles Teodecki","year":2026,"position":"QB","stars":3,"rating_247":87.0,"committed_to":"Pennsylvania","lat":30.2711286,"lng":-97.7436995,"hometown_city":"Austin","hometown_state":"TX"},{"name":"Michael Clayton II","year":2026,"position":"QB","stars":null,"rating_247":86.0,"committed_to":"Illinois","lat":28.6305,"lng":-82.4497,"hometown_city":"Miami","hometown_state":"FL"},{"name":"Kase Evans","year":2026,"position":"QB","stars":3,"rating_247":86.0,"committed_to":"Penn State","lat":30.415222,"lng":-97.0097922,"hometown_city":"Lexington","hometown_state":"TX"},{"name":"Dream Rashad","year":2026,"position":"QB","stars":3,"rating_247":86.0,"committed_to":"North Carolina","lat":33.9562149,"lng":-83.9879625,"hometown_city":"Lawrenceville","hometown_state":"GA"},{"name":"Darnell Kelly","year":2026,"position":"QB","stars":3,"rating_247":86.0,"committed_to":"Colorado State","lat":33.5670562,"lng":-84.5810418,"hometown_city":"Fairburn","hometown_state":"GA"},{"name":"Kane Archer","year":2026,"position":"QB","stars":3,"rating_247":85.0,"committed_to":"Utah","lat":35.2156489,"lng":-94.2557663,"hometown_city":"Greenwood","hometown_state":"AR"},{"name":"Levi Davis","year":2026,"position":"QB","stars":3,"rating_247":85.0,"committed_to":"Ohio","lat":40.1983958,"lng":-83.0101843,"hometown_city":"Lewis Center","hometown_state":"OH"},{"name":"Maika Eugenio","year":2026,"position":"QB","stars":3,"rating_247":85.0,"committed_to":"Hawaii","lat":36.1672559,"lng":-115.1485163,"hometown_city":"Las Vegas","hometown_state":"NV"},{"name":"Rocco Williams","year":2026,"position":"QB","stars":3,"rating_247":84.0,"committed_to":"Middle Tennessee","lat":39.896277299999994,"lng":-82.77319049748806,"hometown_city":"Pickerington","hometown_state":"OH"},{"name":"Braden Shettles","year":2026,"position":"QB","stars":3,"rating_247":84.0,"committed_to":null,"lat":34.4942683,"lng":-89.0078418,"hometown_city":"New Albany","hometown_state":"MS"},{"name":"Jeremiah Daoud","year":2026,"position":"QB","stars":3,"rating_247":82.0,"committed_to":"Florida Atlantic","lat":33.1031744,"lng":-96.6705503,"hometown_city":"Allen","hometown_state":"TX"},{"name":"Devin Rasmussen","year":2026,"position":"QB","stars":null,"rating_247":null,"committed_to":null,"lat":37.1841,"lng":-119.4696,"hometown_city":"Stockton","hometown_state":"CA"},{"name":"Mason Mallory","year":2026,"position":"QB","stars":null,"rating_247":null,"committed_to":null,"lat":28.6305,"lng":-82.4497,"hometown_city":"Fort Lauderdale","hometown_state":"FL"},{"name":"Joel Morris","year":2026,"position":"QB","stars":null,"rating_247":null,"committed_to":"Bethune-Cookman","lat":28.6305,"lng":-82.4497,"hometown_city":"Sarasota","hometown_state":"FL"},{"name":"Dillon Rose-Bailey","year":2026,"position":"QB","stars":null,"rating_247":null,"committed_to":null,"lat":28.6305,"lng":-82.4497,"hometown_city":"Tampa","hometown_state":"FL"},{"name":"Chance Routson","year":2026,"position":"QB","stars":null,"rating_247":null,"committed_to":"Navy","lat":28.6305,"lng":-82.4497,"hometown_city":"Wellington","hometown_state":"FL"},{"name":"Jett Taylor","year":2026,"position":"QB","stars":null,"rating_247":null,"committed_to":"Navy","lat":31.4757,"lng":-99.3312,"hometown_city":"Grand Saline","hometown_state":"TX"},{"name":"Carsyn Baker","year":2026,"position":"RB","stars":4,"rating_247":90.0,"committed_to":"Texas A&M","lat":33.5670562,"lng":-84.5810418,"hometown_city":"Fairburn","hometown_state":"GA"},{"name":"Qwantavius Wiggins","year":2026,"position":"RB","stars":3,"rating_247":89.0,"committed_to":"Georgia State","lat":33.5670562,"lng":-84.5810418,"hometown_city":"Fairburn","hometown_state":"GA"},{"name":"Javian Mallory","year":2026,"position":"RB","stars":4,"rating_247":88.0,"committed_to":"Miami","lat":26.3586885,"lng":-80.0830984,"hometown_city":"Boca Raton","hometown_state":"FL"},{"name":"Sedric Addison","year":2026,"position":"RB","stars":3,"rating_247":88.0,"committed_to":"Boston College","lat":34.0514898,"lng":-84.0712997,"hometown_city":"Suwanee","hometown_state":"GA"},{"name":"Jayvian Tanelus","year":2026,"position":"RB","stars":3,"rating_247":86.0,"committed_to":"Duke","lat":26.1421976,"lng":-81.7942944,"hometown_city":"Naples","hometown_state":"FL"},{"name":"Jayden Ford","year":2026,"position":"RB","stars":3,"rating_247":86.0,"committed_to":"Florida International","lat":25.7742658,"lng":-80.1936589,"hometown_city":"Miami","hometown_state":"FL"},{"name":"Xavier Rucker","year":2026,"position":"RB","stars":3,"rating_247":86.0,"committed_to":"New Mexico State","lat":34.0659329,"lng":-84.6768796,"hometown_city":"Acworth","hometown_state":"GA"},{"name":"Martavious Boswell","year":2026,"position":"RB","stars":null,"rating_247":86.0,"committed_to":"West Virginia","lat":32.7364,"lng":-89.6678,"hometown_city":"Wesson","hometown_state":"MS"},{"name":"Zamarcus Lindley","year":2026,"position":"RB","stars":3,"rating_247":85.0,"committed_to":"Samford","lat":33.7514966,"lng":-84.7477136,"hometown_city":"Douglasville","hometown_state":"GA"},{"name":"Jordan Thompson","year":2026,"position":"RB","stars":3,"rating_247":85.0,"committed_to":"Memphis","lat":26.2378597,"lng":-80.1247667,"hometown_city":"Pompano Beach","hometown_state":"FL"},{"name":"Decorie Johnson","year":2026,"position":"RB","stars":3,"rating_247":84.0,"committed_to":"Eastern Michigan","lat":26.13784445,"lng":-81.75399813758739,"hometown_city":"Winter Park","hometown_state":"FL"},{"name":"Li'Darious Pryor","year":2026,"position":"RB","stars":3,"rating_247":84.0,"committed_to":"Jackson State","lat":28.5421109,"lng":-81.3790304,"hometown_city":"Orlando","hometown_state":"FL"},{"name":"Jadarius Dobie","year":2026,"position":"RB","stars":3,"rating_247":84.0,"committed_to":null,"lat":28.0394654,"lng":-81.9498042,"hometown_city":"Lakeland","hometown_state":"FL"},{"name":"Justin Compere","year":2026,"position":"RB","stars":3,"rating_247":83.0,"committed_to":"Florida International","lat":25.896733849999997,"lng":-80.25949640850294,"hometown_city":"Opa Locka","hometown_state":"FL"},{"name":"Varian Terry","year":2026,"position":"RB","stars":null,"rating_247":null,"committed_to":null,"lat":28.6305,"lng":-82.4497,"hometown_city":"Miami","hometown_state":"FL"},{"name":"Elija Mason","year":2026,"position":"RB","stars":null,"rating_247":null,"committed_to":null,"lat":28.6305,"lng":-82.4497,"hometown_city":"Seffner","hometown_state":"FL"},{"name":"Calvin Russell III","year":2026,"position":"WR","stars":null,"rating_247":98.0,"committed_to":"Syracuse","lat":28.6305,"lng":-82.4497,"hometown_city":"Miami","hometown_state":"FL"},{"name":"Kayden Dixon-Wyatt","year":2026,"position":"WR","stars":4,"rating_247":97.0,"committed_to":"Southern California","lat":33.7494951,"lng":-117.8732213,"hometown_city":"Santa Ana","hometown_state":"CA"},{"name":"Somourian Wingo","year":2026,"position":"WR","stars":4,"rating_247":97.0,"committed_to":"Miami","lat":29.8946952,"lng":-81.3145395,"hometown_city":"St. Augustine","hometown_state":"FL"},{"name":"Jasen Lopez","year":2026,"position":"WR","stars":4,"rating_247":91.0,"committed_to":"Florida State","lat":25.7742658,"lng":-80.1936589,"hometown_city":"Miami","hometown_state":"FL"},{"name":"Ryan Mosley","year":2026,"position":"WR","stars":4,"rating_247":90.0,"committed_to":"Georgia","lat":33.5801103,"lng":-85.0766113,"hometown_city":"Carrollton","hometown_state":"GA"},{"name":"Jeffar Jean-Noel","year":2026,"position":"WR","stars":3,"rating_247":90.0,"committed_to":"Georgia Tech","lat":26.1223084,"lng":-80.1433786,"hometown_city":"Fort Lauderdale","hometown_state":"FL"},{"name":"Jeremiah Bushnell","year":2026,"position":"WR","stars":3,"rating_247":90.0,"committed_to":"Houston","lat":30.2368772,"lng":-93.0137569,"hometown_city":"Iowa","hometown_state":"LA"},{"name":"Bubba Frazier","year":2026,"position":"WR","stars":4,"rating_247":90.0,"committed_to":"Notre Dame","lat":32.0809263,"lng":-81.0911768,"hometown_city":"Savannah","hometown_state":"GA"},{"name":"Kenyon Alston","year":2026,"position":"WR","stars":3,"rating_247":89.0,"committed_to":"Illinois","lat":28.5421109,"lng":-81.3790304,"hometown_city":"Orlando","hometown_state":"FL"},{"name":"Dallas Dickerson","year":2026,"position":"WR","stars":3,"rating_247":89.0,"committed_to":"Georgia","lat":33.949281,"lng":-83.534608,"hometown_city":"Bogart","hometown_state":"GA"},{"name":"Roderick Tezeno","year":2026,"position":"WR","stars":3,"rating_247":89.0,"committed_to":"Southern California","lat":30.5335302,"lng":-92.081509,"hometown_city":"Opelousas","hometown_state":"LA"},{"name":"Jordan Crutchfield","year":2026,"position":"WR","stars":3,"rating_247":88.0,"committed_to":"Florida State","lat":27.6387163,"lng":-80.3975399,"hometown_city":"Vero Beach","hometown_state":"FL"},{"name":"Gary Hadley Jr.","year":2026,"position":"WR","stars":3,"rating_247":88.0,"committed_to":"Tulane","lat":26.1223084,"lng":-80.1433786,"hometown_city":"Fort Lauderdale","hometown_state":"FL"},{"name":"Maurice Mathis Jr.","year":2026,"position":"WR","stars":null,"rating_247":88.0,"committed_to":"Alabama","lat":32.6415,"lng":-83.4426,"hometown_city":"Warner Robins","hometown_state":"GA"},{"name":"Devin Hamilton","year":2026,"position":"WR","stars":3,"rating_247":88.0,"committed_to":"Western Kentucky","lat":34.096496,"lng":-83.7612839,"hometown_city":"Hoschton","hometown_state":"GA"},{"name":"Brady Marchese","year":2026,"position":"WR","stars":4,"rating_247":88.0,"committed_to":"Auburn","lat":34.1650972,"lng":-84.7999383,"hometown_city":"Cartersville","hometown_state":"GA"},{"name":"Nate Agyemang","year":2026,"position":"WR","stars":null,"rating_247":88.0,"committed_to":"Georgia Tech","lat":32.6415,"lng":-83.4426,"hometown_city":"Marietta","hometown_state":"GA"},{"name":"Derrick Salley Jr.","year":2026,"position":"WR","stars":null,"rating_247":88.0,"committed_to":"Kansas State","lat":38.4937,"lng":-98.3804,"hometown_city":"Hutchinson","hometown_state":"KS"},{"name":"Xavier Stinson","year":2026,"position":"WR","stars":3,"rating_247":87.0,"committed_to":"Iowa","lat":27.6387163,"lng":-80.3975399,"hometown_city":"Vero Beach","hometown_state":"FL"},{"name":"Robert Oliver","year":2026,"position":"WR","stars":3,"rating_247":87.0,"committed_to":"West Virginia","lat":30.5168639,"lng":-86.482172,"hometown_city":"Niceville","hometown_state":"FL"},{"name":"Jude Hall","year":2026,"position":"WR","stars":3,"rating_247":87.0,"committed_to":"Arkansas","lat":34.851354,"lng":-82.3984882,"hometown_city":"Greenville","hometown_state":"SC"},{"name":"Dawson Quarterman","year":2026,"position":"WR","stars":3,"rating_247":87.0,"committed_to":"East Carolina","lat":33.8389977,"lng":-83.9007382,"hometown_city":"Loganville","hometown_state":"GA"},{"name":"Kahden Smith","year":2026,"position":"WR","stars":3,"rating_247":87.0,"committed_to":"Vanderbilt","lat":33.2095614,"lng":-87.5675258,"hometown_city":"Tuscaloosa","hometown_state":"AL"},{"name":"Kedrick Triplett","year":2026,"position":"WR","stars":null,"rating_247":87.0,"committed_to":"West Virginia","lat":32.7364,"lng":-89.6678,"hometown_city":"Poplarville","hometown_state":"MS"},{"name":"Brian Williams Jr.","year":2026,"position":"WR","stars":3,"rating_247":86.0,"committed_to":"Auburn","lat":28.5421109,"lng":-81.3790304,"hometown_city":"Orlando","hometown_state":"FL"},{"name":"Denairius Gray","year":2026,"position":"WR","stars":3,"rating_247":86.0,"committed_to":"Kentucky","lat":26.0112014,"lng":-80.1494901,"hometown_city":"Hollywood","hometown_state":"FL"},{"name":"Demetrice McCray","year":2026,"position":"WR","stars":3,"rating_247":86.0,"committed_to":"Pittsburgh","lat":28.5421109,"lng":-81.3790304,"hometown_city":"Orlando","hometown_state":"FL"},{"name":"Diondre Smith","year":2026,"position":"WR","stars":3,"rating_247":86.0,"committed_to":"Iowa","lat":30.311908,"lng":-81.3964734,"hometown_city":"Neptune Beach","hometown_state":"FL"},{"name":"Hayden Moore","year":2026,"position":"WR","stars":3,"rating_247":86.0,"committed_to":"Minnesota","lat":29.6463535,"lng":-82.6065023,"hometown_city":"Newberry","hometown_state":"FL"},{"name":"Elijah West","year":2026,"position":"WR","stars":3,"rating_247":86.0,"committed_to":"Florida Atlantic","lat":30.605427,"lng":-87.344442,"hometown_city":"Cantonment","hometown_state":"FL"},{"name":"Barrett Schulz","year":2026,"position":"WR","stars":3,"rating_247":86.0,"committed_to":"Florida International","lat":28.756618000000003,"lng":-81.33888382214167,"hometown_city":"Lake Mary","hometown_state":"FL"},{"name":"Derek Stevenson","year":2026,"position":"WR","stars":3,"rating_247":86.0,"committed_to":"San Diego State","lat":29.7589382,"lng":-95.3676974,"hometown_city":"Houston","hometown_state":"TX"},{"name":"Deion Thomas","year":2026,"position":"WR","stars":3,"rating_247":86.0,"committed_to":"Missouri State","lat":33.7490987,"lng":-84.3901849,"hometown_city":"Atlanta","hometown_state":"GA"},{"name":"Jonathan Stafford Jr.","year":2026,"position":"WR","stars":3,"rating_247":86.0,"committed_to":"Western Kentucky","lat":33.8389977,"lng":-83.9007382,"hometown_city":"Loganville","hometown_state":"GA"},{"name":"Kobe Adeleke-Hokes","year":2026,"position":"WR","stars":3,"rating_247":86.0,"committed_to":"Wake Forest","lat":34.0514898,"lng":-84.0712997,"hometown_city":"Suwanee","hometown_state":"GA"},{"name":"Nicsaint Joseph Jr.","year":2026,"position":"WR","stars":3,"rating_247":85.0,"committed_to":"Florida Atlantic","lat":25.7742658,"lng":-80.1936589,"hometown_city":"Miami","hometown_state":"FL"},{"name":"Brandon Kinsey","year":2026,"position":"WR","stars":3,"rating_247":85.0,"committed_to":"Purdue","lat":25.7742658,"lng":-80.1936589,"hometown_city":"Miami","hometown_state":"FL"},{"name":"Mark Hanniford","year":2026,"position":"WR","stars":3,"rating_247":85.0,"committed_to":"Ball State","lat":26.3586885,"lng":-80.0830984,"hometown_city":"Boca Raton","hometown_state":"FL"},{"name":"Jaborree Riggins","year":2026,"position":"WR","stars":3,"rating_247":85.0,"committed_to":"Akron","lat":26.2378597,"lng":-80.1247667,"hometown_city":"Pompano Beach","hometown_state":"FL"},{"name":"Kelvin Brown","year":2026,"position":"WR","stars":3,"rating_247":85.0,"committed_to":"Boston College","lat":30.3321838,"lng":-81.655651,"hometown_city":"Jacksonville","hometown_state":"FL"},{"name":"Dylan Denson","year":2026,"position":"WR","stars":null,"rating_247":84.0,"committed_to":"Troy","lat":28.6305,"lng":-82.4497,"hometown_city":"Plantation","hometown_state":"FL"},{"name":"Kaleb Smith","year":2026,"position":"WR","stars":null,"rating_247":84.0,"committed_to":"James Madison","lat":28.6305,"lng":-82.4497,"hometown_city":"Tampa","hometown_state":"FL"},{"name":"Santana Carlos","year":2026,"position":"WR","stars":3,"rating_247":84.0,"committed_to":"Western Carolina","lat":26.0112014,"lng":-80.1494901,"hometown_city":"Hollywood","hometown_state":"FL"},{"name":"Carl Jean-Bart","year":2026,"position":"WR","stars":3,"rating_247":84.0,"committed_to":"Eastern Michigan","lat":28.5421109,"lng":-81.3790304,"hometown_city":"Orlando","hometown_state":"FL"},{"name":"Bacori Minner","year":2026,"position":"WR","stars":3,"rating_247":84.0,"committed_to":"Eastern Michigan","lat":34.0028569,"lng":-84.1441046,"hometown_city":"Duluth","hometown_state":"GA"},{"name":"Quinn Martinez","year":2026,"position":"WR","stars":3,"rating_247":83.0,"committed_to":null,"lat":37.7986184,"lng":-121.2117148,"hometown_city":"Manteca","hometown_state":"CA"},{"name":"Gabe Legrand","year":2026,"position":"WR","stars":3,"rating_247":83.0,"committed_to":"South Florida","lat":27.9014133,"lng":-81.5859099,"hometown_city":"Lake Wales","hometown_state":"FL"},{"name":"Jarell Gary Jr.","year":2026,"position":"WR","stars":null,"rating_247":83.0,"committed_to":"Wyoming","lat":31.4757,"lng":-99.3312,"hometown_city":"Austin","hometown_state":"TX"},{"name":"Antojuan Woody","year":2026,"position":"WR","stars":null,"rating_247":83.0,"committed_to":"Florida Atlantic","lat":35.5889,"lng":-97.4943,"hometown_city":"Miami","hometown_state":"OK"},{"name":"Tae'Sean Robinson","year":2026,"position":"WR","stars":3,"rating_247":82.0,"committed_to":"Delaware","lat":27.871197,"lng":-82.3269883,"hometown_city":"Riverview","hometown_state":"FL"},{"name":"Dominic Cox","year":2026,"position":"WR","stars":null,"rating_247":80.0,"committed_to":null,"lat":37.1841,"lng":-119.4696,"hometown_city":"Riverside","hometown_state":"CA"},{"name":"Tillman King","year":2026,"position":"WR","stars":null,"rating_247":null,"committed_to":null,"lat":28.6305,"lng":-82.4497,"hometown_city":"Ocala","hometown_state":"FL"},{"name":"Kyle Andrews","year":2026,"position":"WR","stars":null,"rating_247":null,"committed_to":"West Georgia","lat":28.6305,"lng":-82.4497,"hometown_city":"Boca Raton","hometown_state":"FL"},{"name":"Damani Downs","year":2026,"position":"WR","stars":null,"rating_247":null,"committed_to":null,"lat":28.6305,"lng":-82.4497,"hometown_city":"Miami","hometown_state":"FL"},{"name":"Elijah Hardy","year":2026,"position":"WR","stars":null,"rating_247":null,"committed_to":null,"lat":28.6305,"lng":-82.4497,"hometown_city":"Hollywood","hometown_state":"FL"},{"name":"Jamarion McKinney","year":2026,"position":"WR","stars":3,"rating_247":null,"committed_to":null,"lat":34.851354,"lng":-82.3984882,"hometown_city":"Greenville","hometown_state":"SC"},{"name":"Tylan Vickers","year":2026,"position":"WR","stars":null,"rating_247":null,"committed_to":null,"lat":28.6305,"lng":-82.4497,"hometown_city":"Havana","hometown_state":"FL"},{"name":"Jake Hickox","year":2026,"position":"WR","stars":null,"rating_247":null,"committed_to":"Army","lat":32.6415,"lng":-83.4426,"hometown_city":"Roswell","hometown_state":"GA"},{"name":"Marquis Williams","year":2026,"position":"WR","stars":null,"rating_247":null,"committed_to":null,"lat":28.6305,"lng":-82.4497,"hometown_city":"Miami","hometown_state":"FL"},{"name":"Tyion Jacobs","year":2026,"position":"WR","stars":null,"rating_247":null,"committed_to":null,"lat":28.6305,"lng":-82.4497,"hometown_city":"Cocoa","hometown_state":"FL"},{"name":"DJ Hicks","year":2026,"position":"WR","stars":null,"rating_247":null,"committed_to":"Alabama State","lat":28.6305,"lng":-82.4497,"hometown_city":"Orlando","hometown_state":"FL"},{"name":"Tilden Riley","year":2026,"position":"TE","stars":3,"rating_247":90.0,"committed_to":"Vanderbilt","lat":33.4918203,"lng":-80.8556476,"hometown_city":"Orangeburg","hometown_state":"SC"},{"name":"Heze Kent","year":2026,"position":"TE","stars":4,"rating_247":90.0,"committed_to":"Florida","lat":31.1499528,"lng":-81.4914894,"hometown_city":"Brunswick","hometown_state":"GA"},{"name":"Julius Miles","year":2026,"position":"TE","stars":4,"rating_247":88.0,"committed_to":"Louisville","lat":30.4982516,"lng":-86.1360517,"hometown_city":"Freeport","hometown_state":"FL"},{"name":"Ar'Mari Towns","year":2026,"position":"TE","stars":null,"rating_247":88.0,"committed_to":"Purdue","lat":32.7794,"lng":-86.8287,"hometown_city":"Selma","hometown_state":"AL"},{"name":"Benjamin Moseley","year":2026,"position":"TE","stars":null,"rating_247":87.0,"committed_to":"Duke","lat":32.7794,"lng":-86.8287,"hometown_city":"Centre","hometown_state":"AL"},{"name":"Adam Land","year":2026,"position":"TE","stars":3,"rating_247":85.0,"committed_to":"Mississippi State","lat":30.2454776,"lng":-85.648261,"hometown_city":"Lynn Haven","hometown_state":"FL"},{"name":"Adam Land","year":2026,"position":"TE","stars":3,"rating_247":85.0,"committed_to":"Mississippi State","lat":30.2454776,"lng":-85.648261,"hometown_city":"Lynn Haven","hometown_state":"FL"},{"name":"Owen Pollock","year":2026,"position":"TE","stars":3,"rating_247":85.0,"committed_to":"Florida Atlantic","lat":40.2425623,"lng":-82.8590673,"hometown_city":"Sunbury","hometown_state":"OH"},{"name":"Javar Bowden","year":2026,"position":"TE","stars":3,"rating_247":84.0,"committed_to":"Jackson State","lat":30.1600827,"lng":-85.6545729,"hometown_city":"Panama City","hometown_state":"FL"},{"name":"Dylan Harris","year":2026,"position":"TE","stars":null,"rating_247":null,"committed_to":null,"lat":28.6305,"lng":-82.4497,"hometown_city":"Ocala","hometown_state":"FL"},{"name":"Calerbe Hermane","year":2026,"position":"TE","stars":null,"rating_247":null,"committed_to":"Murray State","lat":28.6305,"lng":-82.4497,"hometown_city":"Boca Raton","hometown_state":"FL"},{"name":"Chase Golson","year":2026,"position":"TE","stars":null,"rating_247":null,"committed_to":null,"lat":32.6415,"lng":-83.4426,"hometown_city":"Fairburn","hometown_state":"GA"},{"name":"Gabriel Osenda","year":2026,"position":"OT","stars":4,"rating_247":98.0,"committed_to":"Tennessee","lat":35.0457219,"lng":-85.3094883,"hometown_city":"Chattanooga","hometown_state":"TN"},{"name":"Johnnie Jones","year":2026,"position":"OT","stars":4,"rating_247":95.0,"committed_to":"Missouri","lat":27.0999188,"lng":-82.4543597,"hometown_city":"Venice","hometown_state":"FL"},{"name":"Chance Barclay","year":2026,"position":"OT","stars":null,"rating_247":93.0,"committed_to":"Clemson","lat":28.6305,"lng":-82.4497,"hometown_city":"Orlando","hometown_state":"FL"},{"name":"Joel Ervin","year":2026,"position":"OT","stars":4,"rating_247":92.0,"committed_to":"Miami","lat":26.640628,"lng":-81.8723084,"hometown_city":"Fort Myers","hometown_state":"FL"},{"name":"Tyreek Jemison","year":2026,"position":"OT","stars":4,"rating_247":91.0,"committed_to":"Georgia","lat":33.9237141,"lng":-84.8407732,"hometown_city":"Dallas","hometown_state":"GA"},{"name":"Tommy Fraumann","year":2026,"position":"OT","stars":3,"rating_247":91.0,"committed_to":"Michigan","lat":42.0757315,"lng":-87.7193768,"hometown_city":"Wilmette","hometown_state":"IL"},{"name":"Champ Smith","year":2026,"position":"OT","stars":3,"rating_247":89.0,"committed_to":"Illinois","lat":25.7742658,"lng":-80.1936589,"hometown_city":"Miami","hometown_state":"FL"},{"name":"Graham Houston","year":2026,"position":"OT","stars":4,"rating_247":89.0,"committed_to":"Georgia","lat":34.1206564,"lng":-84.0043513,"hometown_city":"Buford","hometown_state":"GA"},{"name":"Chancellor Campbell","year":2026,"position":"OT","stars":3,"rating_247":88.0,"committed_to":"Florida","lat":27.7703796,"lng":-82.6695085,"hometown_city":"St. Petersburg","hometown_state":"FL"},{"name":"Charlie Edgeworth","year":2026,"position":"OT","stars":3,"rating_247":88.0,"committed_to":"Louisville","lat":35.0457219,"lng":-85.3094883,"hometown_city":"Chattanooga","hometown_state":"TN"},{"name":"Gavin Meier","year":2026,"position":"OT","stars":3,"rating_247":88.0,"committed_to":"Minnesota","lat":42.6829765,"lng":-89.0226793,"hometown_city":"Janesville","hometown_state":"WI"},{"name":"Keegan Collins","year":2026,"position":"OT","stars":3,"rating_247":88.0,"committed_to":"Kansas State","lat":34.9798392,"lng":-101.9193395,"hometown_city":"Canyon","hometown_state":"TX"},{"name":"Rhett Gray","year":2026,"position":"OT","stars":3,"rating_247":87.0,"committed_to":"Houston","lat":32.7589648,"lng":-97.7970748,"hometown_city":"Weatherford","hometown_state":"TX"},{"name":"Richard Thigpen","year":2026,"position":"OT","stars":3,"rating_247":87.0,"committed_to":"Memphis","lat":36.1622296,"lng":-86.7743531,"hometown_city":"Nashville","hometown_state":"TN"},{"name":"Jacob Crow","year":2026,"position":"OT","stars":3,"rating_247":87.0,"committed_to":"Texas Tech","lat":35.7895271,"lng":-83.9737935,"hometown_city":"Alcoa","hometown_state":"TN"},{"name":"Dylan Durbin","year":2026,"position":"OT","stars":3,"rating_247":87.0,"committed_to":"Wake Forest","lat":27.7477253,"lng":-97.4014129,"hometown_city":"Corpus Christi","hometown_state":"TX"},{"name":"Landry Brede","year":2026,"position":"OT","stars":3,"rating_247":87.0,"committed_to":"Ohio State","lat":41.6661573,"lng":-81.339552,"hometown_city":"Mentor","hometown_state":"OH"},{"name":"Donald Akhibi","year":2026,"position":"OT","stars":null,"rating_247":87.0,"committed_to":"Florida State","lat":32.6415,"lng":-83.4426,"hometown_city":"Douglasville","hometown_state":"GA"},{"name":"Xavier Payne","year":2026,"position":"OT","stars":3,"rating_247":86.0,"committed_to":"Colorado","lat":28.5421109,"lng":-81.3790304,"hometown_city":"Orlando","hometown_state":"FL"},{"name":"JJ Sparks","year":2026,"position":"OT","stars":3,"rating_247":86.0,"committed_to":"Miami","lat":30.3321838,"lng":-81.655651,"hometown_city":"Jacksonville","hometown_state":"FL"},{"name":"Javarii Luckas","year":2026,"position":"OT","stars":3,"rating_247":86.0,"committed_to":"Florida","lat":26.6845104,"lng":-80.6675577,"hometown_city":"Belle Glade","hometown_state":"FL"},{"name":"Lucas Tielsch","year":2026,"position":"OT","stars":3,"rating_247":86.0,"committed_to":"Minnesota","lat":41.083064,"lng":-81.518485,"hometown_city":"Akron","hometown_state":"OH"},{"name":"Ben Gula","year":2026,"position":"OT","stars":3,"rating_247":86.0,"committed_to":"Colorado","lat":26.1223084,"lng":-80.1433786,"hometown_city":"Fort Lauderdale","hometown_state":"FL"},{"name":"Mason Mathis","year":2026,"position":"OT","stars":3,"rating_247":86.0,"committed_to":"Auburn","lat":30.6324149,"lng":-87.0396881,"hometown_city":"Milton","hometown_state":"FL"},{"name":"Dylan Biehl","year":2026,"position":"OT","stars":3,"rating_247":86.0,"committed_to":"Virginia","lat":34.0514898,"lng":-84.0712997,"hometown_city":"Suwanee","hometown_state":"GA"},{"name":"Malachi Mills","year":2026,"position":"OT","stars":3,"rating_247":86.0,"committed_to":"Kansas","lat":40.0428151,"lng":-86.1274888,"hometown_city":"Westfield","hometown_state":"IN"},{"name":"Connor LaGrow","year":2026,"position":"OT","stars":3,"rating_247":86.0,"committed_to":"Boise State","lat":45.3838546,"lng":-122.7663518,"hometown_city":"Tualatin","hometown_state":"OR"},{"name":"Alfred Washington","year":2026,"position":"OT","stars":null,"rating_247":86.0,"committed_to":"Illinois","lat":32.7364,"lng":-89.6678,"hometown_city":"Booneville","hometown_state":"MS"},{"name":"Jonah Rodriguez","year":2026,"position":"OT","stars":null,"rating_247":86.0,"committed_to":"North Carolina","lat":37.1841,"lng":-119.4696,"hometown_city":"Chula Vista","hometown_state":"CA"},{"name":"J.T. Fagan","year":2026,"position":"OT","stars":null,"rating_247":86.0,"committed_to":"Marshall","lat":32.7364,"lng":-89.6678,"hometown_city":"Booneville","hometown_state":"MS"},{"name":"Cameron Miller Jr.","year":2026,"position":"OT","stars":null,"rating_247":85.0,"committed_to":"Kentucky","lat":39.8942,"lng":-86.2816,"hometown_city":"Hammond","hometown_state":"IN"},{"name":"Tre Glover","year":2026,"position":"OT","stars":3,"rating_247":85.0,"committed_to":"Appalachian State","lat":32.6200973,"lng":-83.606568,"hometown_city":"Warner Robins","hometown_state":"GA"},{"name":"Dylan Steen","year":2026,"position":"OT","stars":3,"rating_247":85.0,"committed_to":"Mississippi State","lat":26.1223084,"lng":-80.1433786,"hometown_city":"Fort Lauderdale","hometown_state":"FL"},{"name":"Hudson Reed","year":2026,"position":"OT","stars":3,"rating_247":85.0,"committed_to":"UAB","lat":33.5206824,"lng":-86.8024326,"hometown_city":"Birmingham","hometown_state":"AL"},{"name":"Joshua Battle","year":2026,"position":"OT","stars":null,"rating_247":85.0,"committed_to":"East Carolina","lat":32.6415,"lng":-83.4426,"hometown_city":"College Park","hometown_state":"GA"},{"name":"Owen Cheatham","year":2026,"position":"OT","stars":3,"rating_247":85.0,"committed_to":"Florida Atlantic","lat":37.2713951,"lng":-107.8815978,"hometown_city":"Durango","hometown_state":"CO"},{"name":"Brayden Charney","year":2026,"position":"OT","stars":3,"rating_247":84.0,"committed_to":"Syracuse","lat":26.715364,"lng":-80.0532942,"hometown_city":"West Palm Beach","hometown_state":"FL"},{"name":"Alejandro Schmitt","year":2026,"position":"OT","stars":3,"rating_247":84.0,"committed_to":"Florida Atlantic","lat":26.02322025,"lng":-80.34123906625615,"hometown_city":"Pembroke Pines","hometown_state":"FL"},{"name":"Dujuan Davis","year":2026,"position":"OT","stars":3,"rating_247":84.0,"committed_to":"North Carolina","lat":27.9658533,"lng":-82.8001026,"hometown_city":"Clearwater","hometown_state":"FL"},{"name":"Mark Holloway","year":2026,"position":"OT","stars":3,"rating_247":84.0,"committed_to":"Bethune-Cookman","lat":27.7703796,"lng":-82.6695085,"hometown_city":"St. Petersburg","hometown_state":"FL"},{"name":"Jake Palucki","year":2026,"position":"OT","stars":3,"rating_247":84.0,"committed_to":"Toledo","lat":41.7003302,"lng":-88.0717708,"hometown_city":"Bolingbrook","hometown_state":"IL"},{"name":"JaKolby Jones","year":2026,"position":"OT","stars":null,"rating_247":84.0,"committed_to":"Louisiana State","lat":32.7364,"lng":-89.6678,"hometown_city":"Wesson","hometown_state":"MS"},{"name":"Grady Howell","year":2026,"position":"OT","stars":3,"rating_247":83.0,"committed_to":"Georgia Southern","lat":32.5404447,"lng":-82.903754,"hometown_city":"Dublin","hometown_state":"GA"},{"name":"Dawson Matthews","year":2026,"position":"OT","stars":3,"rating_247":83.0,"committed_to":"Tulsa","lat":34.7743383,"lng":-96.6783651,"hometown_city":"Ada","hometown_state":"OK"},{"name":"Christian Harris","year":2026,"position":"OT","stars":3,"rating_247":83.0,"committed_to":"East Carolina","lat":39.1014537,"lng":-84.5124602,"hometown_city":"Cincinnati","hometown_state":"OH"},{"name":"Kendrick Hall","year":2026,"position":"OT","stars":null,"rating_247":83.0,"committed_to":"Old Dominion","lat":38.4937,"lng":-98.3804,"hometown_city":"El Dorado","hometown_state":"KS"},{"name":"Riley Wilson","year":2026,"position":"OT","stars":3,"rating_247":83.0,"committed_to":"Florida International","lat":27.9477595,"lng":-82.458444,"hometown_city":"Tampa","hometown_state":"FL"},{"name":"Bryson Esser","year":2026,"position":"OT","stars":null,"rating_247":80.0,"committed_to":"East Carolina","lat":38.4937,"lng":-98.3804,"hometown_city":"Garden City","hometown_state":"KS"},{"name":"Aedyn Buchanan","year":2026,"position":"OT","stars":3,"rating_247":80.0,"committed_to":"Florida Atlantic","lat":36.0726355,"lng":-79.7919754,"hometown_city":"Greensboro","hometown_state":"NC"},{"name":"Marcus Ferrer","year":2026,"position":"OT","stars":null,"rating_247":null,"committed_to":null,"lat":28.6305,"lng":-82.4497,"hometown_city":"Kissimmee","hometown_state":"FL"},{"name":"Caiden Lee","year":2026,"position":"OT","stars":null,"rating_247":null,"committed_to":"Army","lat":28.6305,"lng":-82.4497,"hometown_city":"Parrish","hometown_state":"FL"},{"name":"Strengthen Milton","year":2026,"position":"OT","stars":null,"rating_247":null,"committed_to":null,"lat":28.6305,"lng":-82.4497,"hometown_city":"Dade City","hometown_state":"FL"},{"name":"Cam'ron Hamilton","year":2026,"position":"OT","stars":null,"rating_247":null,"committed_to":null,"lat":31.4757,"lng":-99.3312,"hometown_city":"Victoria","hometown_state":"TX"},{"name":"Jaxon Newton","year":2026,"position":"OT","stars":3,"rating_247":null,"committed_to":"Army","lat":33.5853695,"lng":-85.91428175037092,"hometown_city":"Oxford","hometown_state":"AL"},{"name":"Kyren Green","year":2026,"position":"OT","stars":null,"rating_247":null,"committed_to":null,"lat":28.6305,"lng":-82.4497,"hometown_city":"Starke","hometown_state":"FL"},{"name":"Sebastian Wagner","year":2026,"position":"OT","stars":null,"rating_247":null,"committed_to":"Air Force","lat":28.6305,"lng":-82.4497,"hometown_city":"Boca Raton","hometown_state":"FL"},{"name":"Jarmaine Mitchell","year":2026,"position":"IOL","stars":null,"rating_247":90.0,"committed_to":"Arizona State","lat":32.7364,"lng":-89.6678,"hometown_city":"Wesson","hometown_state":"MS"},{"name":"Sam Roseborough","year":2026,"position":"IOL","stars":null,"rating_247":89.0,"committed_to":"Texas A&M","lat":28.6305,"lng":-82.4497,"hometown_city":"Clearwater","hometown_state":"FL"},{"name":"Tyler Chukuyem","year":2026,"position":"IOL","stars":4,"rating_247":89.0,"committed_to":"Florida","lat":33.7514966,"lng":-84.7477136,"hometown_city":"Douglasville","hometown_state":"GA"},{"name":"Logan Anthony","year":2026,"position":"IOL","stars":3,"rating_247":89.0,"committed_to":"Rutgers","lat":40.8014826,"lng":-75.6101868,"hometown_city":"Palmerton","hometown_state":"PA"},{"name":"Ryan Miret","year":2026,"position":"IOL","stars":3,"rating_247":88.0,"committed_to":"Louisiana State","lat":25.7742658,"lng":-80.1936589,"hometown_city":"Miami","hometown_state":"FL"},{"name":"Canon Pickett","year":2026,"position":"IOL","stars":3,"rating_247":87.0,"committed_to":"Miami","lat":27.9477595,"lng":-82.458444,"hometown_city":"Tampa","hometown_state":"FL"},{"name":"Andre Amos Jr.","year":2026,"position":"IOL","stars":3,"rating_247":87.0,"committed_to":"Tulane","lat":35.0867577,"lng":-89.8100858,"hometown_city":"Germantown","hometown_state":"TN"},{"name":"Rowdy Pearce","year":2026,"position":"IOL","stars":3,"rating_247":86.0,"committed_to":"Utah","lat":31.9973662,"lng":-102.0779482,"hometown_city":"Midland","hometown_state":"TX"},{"name":"Cody Taylor","year":2026,"position":"IOL","stars":3,"rating_247":86.0,"committed_to":"Charlotte","lat":35.2156489,"lng":-94.2557663,"hometown_city":"Greenwood","hometown_state":"AR"},{"name":"Dalton DeBoer","year":2026,"position":"IOL","stars":3,"rating_247":86.0,"committed_to":"Wake Forest","lat":41.6118485,"lng":-93.8845129,"hometown_city":"Waukee","hometown_state":"IA"},{"name":"Eli Sanchez","year":2026,"position":"IOL","stars":3,"rating_247":86.0,"committed_to":"Nevada, Las Vegas","lat":41.4489397,"lng":-82.7079605,"hometown_city":"Sandusky","hometown_state":"OH"},{"name":"Mike Ionata","year":2026,"position":"IOL","stars":null,"rating_247":85.0,"committed_to":"Florida State","lat":28.6305,"lng":-82.4497,"hometown_city":"Clearwater","hometown_state":"FL"},{"name":"Joshua Singleton","year":2026,"position":"IOL","stars":3,"rating_247":85.0,"committed_to":null,"lat":27.4989278,"lng":-82.5748194,"hometown_city":"Bradenton","hometown_state":"FL"},{"name":"Jarvis Potts","year":2026,"position":"IOL","stars":3,"rating_247":85.0,"committed_to":"Appalachian State","lat":35.4817982,"lng":-80.8589501,"hometown_city":"Cornelius","hometown_state":"NC"},{"name":"Camden Goforth","year":2026,"position":"IOL","stars":3,"rating_247":85.0,"committed_to":"West Virginia","lat":35.4428864,"lng":-84.5930113,"hometown_city":"Athens","hometown_state":"TN"},{"name":"Carey Clayton","year":2026,"position":"IOL","stars":3,"rating_247":85.0,"committed_to":"Arkansas","lat":32.9412363,"lng":-97.1341783,"hometown_city":"Southlake","hometown_state":"TX"},{"name":"Ben Jones","year":2026,"position":"IOL","stars":3,"rating_247":84.0,"committed_to":"Appalachian State","lat":28.5421109,"lng":-81.3790304,"hometown_city":"Orlando","hometown_state":"FL"},{"name":"Nick Witherspoon","year":2026,"position":"IOL","stars":3,"rating_247":84.0,"committed_to":"Tulane","lat":33.2095614,"lng":-87.5675258,"hometown_city":"Tuscaloosa","hometown_state":"AL"},{"name":"Payton Williams","year":2026,"position":"IOL","stars":3,"rating_247":83.0,"committed_to":"Texas-San Antonio","lat":32.69900905,"lng":-97.60396629774493,"hometown_city":"Aledo","hometown_state":"TX"},{"name":"Reginhard Pierre-Nau","year":2026,"position":"IOL","stars":null,"rating_247":79.0,"committed_to":"Charlotte","lat":32.7364,"lng":-89.6678,"hometown_city":"Senatobia","hometown_state":"MS"},{"name":"Brody McLeod","year":2026,"position":"IOL","stars":null,"rating_247":null,"committed_to":"Dartmouth","lat":28.6305,"lng":-82.4497,"hometown_city":"Ponte Vedra Beach","hometown_state":"FL"},{"name":"Jeremiah Ponce","year":2026,"position":"IOL","stars":null,"rating_247":null,"committed_to":"Sacramento State","lat":28.6305,"lng":-82.4497,"hometown_city":"Miami","hometown_state":"FL"},{"name":"Jake Kreul","year":2026,"position":"Edge","stars":4,"rating_247":96.0,"committed_to":"Oklahoma","lat":27.4989278,"lng":-82.5748194,"hometown_city":"Bradenton","hometown_state":"FL"},{"name":"Asharri Charles","year":2026,"position":"Edge","stars":4,"rating_247":95.0,"committed_to":"Miami","lat":27.0999188,"lng":-82.4543597,"hometown_city":"Venice","hometown_state":"FL"},{"name":"Trenton Henderson","year":2026,"position":"Edge","stars":4,"rating_247":95.0,"committed_to":"Louisiana State","lat":30.421309,"lng":-87.2169149,"hometown_city":"Pensacola","hometown_state":"FL"},{"name":"Khamari Brooks","year":2026,"position":"Edge","stars":4,"rating_247":91.0,"committed_to":"Georgia","lat":33.949281,"lng":-83.534608,"hometown_city":"Bogart","hometown_state":"GA"},{"name":"DeAnthony Lafayette","year":2026,"position":"Edge","stars":4,"rating_247":91.0,"committed_to":"Miami","lat":28.5421109,"lng":-81.3790304,"hometown_city":"Orlando","hometown_state":"FL"},{"name":"Micah Nickerson","year":2026,"position":"Edge","stars":4,"rating_247":91.0,"committed_to":"Mississippi State","lat":31.1432328,"lng":-90.4587081,"hometown_city":"Magnolia","hometown_state":"MS"},{"name":"Jalen Anderson","year":2026,"position":"Edge","stars":null,"rating_247":90.0,"committed_to":"Florida State","lat":32.7364,"lng":-89.6678,"hometown_city":"Poplarville","hometown_state":"MS"},{"name":"Corey Howard Jr.","year":2026,"position":"Edge","stars":null,"rating_247":89.0,"committed_to":"Alabama","lat":32.6415,"lng":-83.4426,"hometown_city":"Valdosta","hometown_state":"GA"},{"name":"Darryl Rivers","year":2026,"position":"Edge","stars":3,"rating_247":89.0,"committed_to":"Tennessee","lat":33.8595492,"lng":-84.683824,"hometown_city":"Powder Springs","hometown_state":"GA"},{"name":"Daniel Norman","year":2026,"position":"Edge","stars":3,"rating_247":88.0,"committed_to":"Oklahoma","lat":26.1223084,"lng":-80.1433786,"hometown_city":"Fort Lauderdale","hometown_state":"FL"},{"name":"Jarius Rodgers","year":2026,"position":"Edge","stars":3,"rating_247":88.0,"committed_to":"Syracuse","lat":30.1654707,"lng":-81.7016346,"hometown_city":"Orange Park","hometown_state":"FL"},{"name":"Chris Carbin","year":2026,"position":"Edge","stars":3,"rating_247":88.0,"committed_to":"Florida State","lat":33.8595492,"lng":-84.683824,"hometown_city":"Powder Springs","hometown_state":"GA"},{"name":"Josh Warren Jr.","year":2026,"position":"Edge","stars":null,"rating_247":88.0,"committed_to":"North Carolina State","lat":32.6415,"lng":-83.4426,"hometown_city":"Milledgeville","hometown_state":"GA"},{"name":"Kymani Morales","year":2026,"position":"Edge","stars":3,"rating_247":87.0,"committed_to":"Georgia Tech","lat":26.1223084,"lng":-80.1433786,"hometown_city":"Fort Lauderdale","hometown_state":"FL"},{"name":"James Tilus","year":2026,"position":"Edge","stars":3,"rating_247":87.0,"committed_to":"Connecticut","lat":28.10708845,"lng":-81.80358011667643,"hometown_city":"Auburndale","hometown_state":"FL"},{"name":"Katrell Webb","year":2026,"position":"Edge","stars":3,"rating_247":87.0,"committed_to":"Purdue","lat":34.0514898,"lng":-84.0712997,"hometown_city":"Suwanee","hometown_state":"GA"},{"name":"Darius Wiley","year":2026,"position":"Edge","stars":null,"rating_247":87.0,"committed_to":"West Virginia","lat":38.4937,"lng":-98.3804,"hometown_city":"Hutchinson","hometown_state":"KS"},{"name":"Ben Mubenga","year":2026,"position":"Edge","stars":3,"rating_247":86.0,"committed_to":"Arkansas","lat":34.1206564,"lng":-84.0043513,"hometown_city":"Buford","hometown_state":"GA"},{"name":"Demetrius Geathers Jr.","year":2026,"position":"Edge","stars":3,"rating_247":86.0,"committed_to":"South Florida","lat":26.3586885,"lng":-80.0830984,"hometown_city":"Boca Raton","hometown_state":"FL"},{"name":"Jeremy Lewis","year":2026,"position":"Edge","stars":null,"rating_247":86.0,"committed_to":"Purdue","lat":42.0751,"lng":-93.496,"hometown_city":"Council Bluffs","hometown_state":"IA"},{"name":"Jermaine Waters Jr.","year":2026,"position":"Edge","stars":null,"rating_247":85.0,"committed_to":"Jacksonville State","lat":28.6305,"lng":-82.4497,"hometown_city":"Cocoa","hometown_state":"FL"},{"name":"Lawrence Brown Jr.","year":2026,"position":"Edge","stars":null,"rating_247":85.0,"committed_to":"North Carolina State","lat":32.6415,"lng":-83.4426,"hometown_city":"Loganville","hometown_state":"GA"},{"name":"Colin Bussey","year":2026,"position":"Edge","stars":3,"rating_247":85.0,"committed_to":"Charlotte","lat":33.7514966,"lng":-84.7477136,"hometown_city":"Douglasville","hometown_state":"GA"},{"name":"Kadin Fossung","year":2026,"position":"Edge","stars":3,"rating_247":85.0,"committed_to":"Tulsa","lat":34.2978794,"lng":-83.8240663,"hometown_city":"Gainesville","hometown_state":"GA"},{"name":"Lonnie Smith","year":2026,"position":"Edge","stars":null,"rating_247":85.0,"committed_to":"Troy","lat":32.7364,"lng":-89.6678,"hometown_city":"Wesson","hometown_state":"MS"},{"name":"Tyrique Harris","year":2026,"position":"Edge","stars":3,"rating_247":84.0,"committed_to":"Connecticut","lat":27.9658533,"lng":-82.8001026,"hometown_city":"Clearwater","hometown_state":"FL"},{"name":"Rodarion Tellez","year":2026,"position":"Edge","stars":3,"rating_247":84.0,"committed_to":"Connecticut","lat":26.1223084,"lng":-80.1433786,"hometown_city":"Fort Lauderdale","hometown_state":"FL"},{"name":"Kyten Davis","year":2026,"position":"Edge","stars":null,"rating_247":84.0,"committed_to":"Jacksonville State","lat":28.6305,"lng":-82.4497,"hometown_city":"Lake City","hometown_state":"FL"},{"name":"JaKambry Brown","year":2026,"position":"Edge","stars":3,"rating_247":84.0,"committed_to":"West Georgia","lat":32.6200973,"lng":-83.606568,"hometown_city":"Warner Robins","hometown_state":"GA"},{"name":"Mikey Domanik","year":2026,"position":"Edge","stars":null,"rating_247":83.0,"committed_to":"Charlotte","lat":32.6415,"lng":-83.4426,"hometown_city":"Marietta","hometown_state":"GA"},{"name":"Aiden Anderson","year":2026,"position":"Edge","stars":3,"rating_247":83.0,"committed_to":"Buffalo","lat":28.5421109,"lng":-81.3790304,"hometown_city":"Orlando","hometown_state":"FL"},{"name":"Srlondo Whiley","year":2026,"position":"Edge","stars":3,"rating_247":82.0,"committed_to":"West Florida","lat":28.5421109,"lng":-81.3790304,"hometown_city":"Orlando","hometown_state":"FL"},{"name":"Khalid Feliz","year":2026,"position":"Edge","stars":3,"rating_247":82.0,"committed_to":"Georgia State","lat":28.5421109,"lng":-81.3790304,"hometown_city":"Orlando","hometown_state":"FL"},{"name":"Demetress Mosley","year":2026,"position":"Edge","stars":3,"rating_247":82.0,"committed_to":"South Alabama","lat":30.421309,"lng":-87.2169149,"hometown_city":"Pensacola","hometown_state":"FL"},{"name":"Eric Butler Jr.","year":2026,"position":"Edge","stars":null,"rating_247":82.0,"committed_to":"Georgia State","lat":38.4937,"lng":-98.3804,"hometown_city":"Coffeyville","hometown_state":"KS"},{"name":"Evan Walker","year":2026,"position":"Edge","stars":3,"rating_247":82.0,"committed_to":"Central Michigan","lat":29.6519684,"lng":-82.3249846,"hometown_city":"Gainesville","hometown_state":"FL"},{"name":"Terrell Evans","year":2026,"position":"Edge","stars":null,"rating_247":82.0,"committed_to":"Tennessee State","lat":28.6305,"lng":-82.4497,"hometown_city":"Hialeah","hometown_state":"FL"},{"name":"Aaryn Askew","year":2026,"position":"Edge","stars":null,"rating_247":82.0,"committed_to":"Mercer","lat":28.6305,"lng":-82.4497,"hometown_city":"Moore Haven","hometown_state":"FL"},{"name":"BJ Ausmer","year":2026,"position":"Edge","stars":null,"rating_247":81.0,"committed_to":"Middle Tennessee","lat":32.7364,"lng":-89.6678,"hometown_city":"Perkinston","hometown_state":"MS"},{"name":"Amir Parker","year":2026,"position":"Edge","stars":null,"rating_247":null,"committed_to":null,"lat":28.6305,"lng":-82.4497,"hometown_city":"Palm Bay","hometown_state":"FL"},{"name":"Jemel Bonica","year":2026,"position":"Edge","stars":null,"rating_247":null,"committed_to":null,"lat":28.6305,"lng":-82.4497,"hometown_city":"Miami","hometown_state":"FL"},{"name":"Jalen Owens","year":2026,"position":"Edge","stars":null,"rating_247":null,"committed_to":null,"lat":32.7364,"lng":-89.6678,"hometown_city":"Raymond","hometown_state":"MS"},{"name":"Zedrick Patterson","year":2026,"position":"Edge","stars":null,"rating_247":null,"committed_to":"Stony Brook","lat":32.6415,"lng":-83.4426,"hometown_city":"Snellville","hometown_state":"GA"},{"name":"Deuce Geralds","year":2026,"position":"DL","stars":4,"rating_247":96.0,"committed_to":"Louisiana State","lat":34.0514898,"lng":-84.0712997,"hometown_city":"Suwanee","hometown_state":"GA"},{"name":"Bryce Perry-Wright","year":2026,"position":"DL","stars":4,"rating_247":96.0,"committed_to":"Texas A&M","lat":34.1206564,"lng":-84.0043513,"hometown_city":"Buford","hometown_state":"GA"},{"name":"James Johnson","year":2026,"position":"DL","stars":4,"rating_247":93.0,"committed_to":"Texas","lat":25.7742658,"lng":-80.1936589,"hometown_city":"Miami","hometown_state":"FL"},{"name":"Kevontay Hugan","year":2026,"position":"DL","stars":4,"rating_247":93.0,"committed_to":"Indiana","lat":27.3364347,"lng":-82.5306527,"hometown_city":"Sarasota","hometown_state":"FL"},{"name":"Kendall Guervil","year":2026,"position":"DL","stars":4,"rating_247":91.0,"committed_to":"Florida","lat":26.640628,"lng":-81.8723084,"hometown_city":"Fort Myers","hometown_state":"FL"},{"name":"Amier Clarke","year":2026,"position":"DL","stars":3,"rating_247":89.0,"committed_to":"Georgia Tech","lat":28.2918995,"lng":-81.4075838,"hometown_city":"Kissimmee","hometown_state":"FL"},{"name":"Cam McHaney","year":2026,"position":"DL","stars":null,"rating_247":89.0,"committed_to":"Indiana","lat":28.6305,"lng":-82.4497,"hometown_city":"Bradenton","hometown_state":"FL"},{"name":"Reece Beck","year":2026,"position":"DL","stars":3,"rating_247":89.0,"committed_to":"Rutgers","lat":30.2396865,"lng":-81.3856384,"hometown_city":"Ponte Vedra Beach","hometown_state":"FL"},{"name":"Fred Sainteus","year":2026,"position":"DL","stars":null,"rating_247":89.0,"committed_to":"Miami","lat":28.6305,"lng":-82.4497,"hometown_city":"Naples","hometown_state":"FL"},{"name":"Kamron Wilson","year":2026,"position":"DL","stars":3,"rating_247":89.0,"committed_to":"Syracuse","lat":25.7742658,"lng":-80.1936589,"hometown_city":"Miami","hometown_state":"FL"},{"name":"G'Nivre Carr","year":2026,"position":"DL","stars":3,"rating_247":88.0,"committed_to":"Florida","lat":27.4989278,"lng":-82.5748194,"hometown_city":"Bradenton","hometown_state":"FL"},{"name":"Chadwicke Cannon Jr.","year":2026,"position":"DL","stars":null,"rating_247":88.0,"committed_to":"Duke","lat":28.6305,"lng":-82.4497,"hometown_city":"Port Orange","hometown_state":"FL"},{"name":"Preston Carey","year":2026,"position":"DL","stars":3,"rating_247":88.0,"committed_to":"Georgia","lat":27.4989278,"lng":-82.5748194,"hometown_city":"Bradenton","hometown_state":"FL"},{"name":"Dane Bathurst","year":2026,"position":"DL","stars":3,"rating_247":88.0,"committed_to":"Oklahoma","lat":39.9788017,"lng":-86.1189257,"hometown_city":"Carmel","hometown_state":"IN"},{"name":"Lucas Smalls-Allen","year":2026,"position":"DL","stars":3,"rating_247":87.0,"committed_to":"Wake Forest","lat":34.02332,"lng":-84.360022,"hometown_city":"Roswell","hometown_state":"GA"},{"name":"Brian Harris","year":2026,"position":"DL","stars":3,"rating_247":87.0,"committed_to":"Oklahoma","lat":27.3027501,"lng":-80.4026589,"hometown_city":"St. Johns","hometown_state":"FL"},{"name":"Marshall Smith","year":2026,"position":"DL","stars":3,"rating_247":87.0,"committed_to":"Memphis","lat":35.042036,"lng":-89.6645266,"hometown_city":"Collierville","hometown_state":"TN"},{"name":"Jaylen Thomas","year":2026,"position":"DL","stars":null,"rating_247":87.0,"committed_to":"West Virginia","lat":32.7364,"lng":-89.6678,"hometown_city":"Senatobia","hometown_state":"MS"},{"name":"Freddie Wilson","year":2026,"position":"DL","stars":3,"rating_247":86.0,"committed_to":"Georgia State","lat":29.101628050000002,"lng":-81.01059617608054,"hometown_city":"Port Orange","hometown_state":"FL"},{"name":"Deuce Alailefaleula","year":2026,"position":"DL","stars":3,"rating_247":86.0,"committed_to":"Boise State","lat":61.2163129,"lng":-149.8948523,"hometown_city":"Anchorage","hometown_state":"AK"},{"name":"Kaleb Morris","year":2026,"position":"DL","stars":3,"rating_247":86.0,"committed_to":"Mississippi State","lat":30.778688,"lng":-88.2588427,"hometown_city":"Semmes","hometown_state":"AL"},{"name":"Tavion Atkinson","year":2026,"position":"DL","stars":null,"rating_247":86.0,"committed_to":"SMU","lat":31.4757,"lng":-99.3312,"hometown_city":"Athens","hometown_state":"TX"},{"name":"Kevin Moorer","year":2026,"position":"DL","stars":null,"rating_247":86.0,"committed_to":"Arizona","lat":38.4937,"lng":-98.3804,"hometown_city":"Hutchinson","hometown_state":"KS"},{"name":"Darrius Simmons","year":2026,"position":"DL","stars":3,"rating_247":85.0,"committed_to":"Cincinnati","lat":30.6255617,"lng":-84.4153769,"hometown_city":"Havana","hometown_state":"FL"},{"name":"Carmelo McKenzie","year":2026,"position":"DL","stars":3,"rating_247":85.0,"committed_to":"North Carolina State","lat":27.4989278,"lng":-82.5748194,"hometown_city":"Bradenton","hometown_state":"FL"},{"name":"Maddox Flynt","year":2026,"position":"DL","stars":3,"rating_247":85.0,"committed_to":"Texas Christian","lat":30.2711286,"lng":-97.7436995,"hometown_city":"Austin","hometown_state":"TX"},{"name":"Jvon Hatcher","year":2026,"position":"DL","stars":3,"rating_247":85.0,"committed_to":"Northern Illinois","lat":26.4614625,"lng":-80.0728201,"hometown_city":"Delray Beach","hometown_state":"FL"},{"name":"Cameron McGee","year":2026,"position":"DL","stars":3,"rating_247":85.0,"committed_to":"Boston College","lat":33.8389977,"lng":-83.9007382,"hometown_city":"Loganville","hometown_state":"GA"},{"name":"Roman Garcia","year":2026,"position":"DL","stars":null,"rating_247":85.0,"committed_to":"Florida Atlantic","lat":35.5889,"lng":-97.4943,"hometown_city":"Miami","hometown_state":"OK"},{"name":"Zakir Abdul-Salaam","year":2026,"position":"DL","stars":3,"rating_247":85.0,"committed_to":"Kennesaw State","lat":33.8595492,"lng":-84.683824,"hometown_city":"Powder Springs","hometown_state":"GA"},{"name":"Will Norman","year":2026,"position":"DL","stars":null,"rating_247":85.0,"committed_to":"Troy","lat":42.0751,"lng":-93.496,"hometown_city":"Fort Dodge","hometown_state":"IA"},{"name":"Xavier Joseph","year":2026,"position":"DL","stars":3,"rating_247":84.0,"committed_to":"Appalachian State","lat":33.5967815,"lng":-83.8601827,"hometown_city":"Covington","hometown_state":"GA"},{"name":"Jussiah Ali","year":2026,"position":"DL","stars":null,"rating_247":84.0,"committed_to":"Texas State","lat":31.4757,"lng":-99.3312,"hometown_city":"Athens","hometown_state":"TX"},{"name":"CeeJay Embry","year":2026,"position":"DL","stars":3,"rating_247":83.0,"committed_to":"Western Kentucky","lat":26.8200607,"lng":-80.6653351,"hometown_city":"Pahokee","hometown_state":"FL"},{"name":"Rodney Hunter","year":2026,"position":"DL","stars":null,"rating_247":83.0,"committed_to":"South Alabama","lat":32.7364,"lng":-89.6678,"hometown_city":"Perkinston","hometown_state":"MS"},{"name":"Carson Dempsey","year":2026,"position":"DL","stars":3,"rating_247":83.0,"committed_to":"Tulsa","lat":32.69900905,"lng":-97.60396629774493,"hometown_city":"Aledo","hometown_state":"TX"},{"name":"Batuhan Subasi","year":2026,"position":"DL","stars":null,"rating_247":82.0,"committed_to":"Mercer","lat":28.6305,"lng":-82.4497,"hometown_city":"Tampa","hometown_state":"FL"},{"name":"Tyrone Fitten","year":2026,"position":"DL","stars":3,"rating_247":81.0,"committed_to":"Colorado State","lat":33.1731769,"lng":-84.914936,"hometown_city":"Hogansville","hometown_state":"GA"},{"name":"Micah Hampton","year":2026,"position":"DL","stars":null,"rating_247":81.0,"committed_to":"Louisiana-Monroe","lat":32.7364,"lng":-89.6678,"hometown_city":"Raymond","hometown_state":"MS"},{"name":"Roderick McFadden","year":2026,"position":"DL","stars":null,"rating_247":null,"committed_to":"Florida A&M","lat":28.6305,"lng":-82.4497,"hometown_city":"Miami","hometown_state":"FL"},{"name":"Brayden Rouse","year":2026,"position":"LB","stars":4,"rating_247":96.0,"committed_to":"Tennessee","lat":33.9528472,"lng":-84.5496148,"hometown_city":"Marietta","hometown_state":"GA"},{"name":"Jordan Campbell","year":2026,"position":"LB","stars":4,"rating_247":93.0,"committed_to":"Miami","lat":25.896733849999997,"lng":-80.25949640850294,"hometown_city":"Opa Locka","hometown_state":"FL"},{"name":"Izayia Williams","year":2026,"position":"LB","stars":4,"rating_247":91.0,"committed_to":"Florida State","lat":28.78992535,"lng":-81.77516353978501,"hometown_city":"Tavares","hometown_state":"FL"},{"name":"Malik Morris","year":2026,"position":"LB","stars":4,"rating_247":89.0,"committed_to":"Florida","lat":28.0394654,"lng":-81.9498042,"hometown_city":"Lakeland","hometown_state":"FL"},{"name":"Billy Weivoda","year":2026,"position":"LB","stars":3,"rating_247":88.0,"committed_to":"Iowa","lat":34.0709576,"lng":-84.2747329,"hometown_city":"Alpharetta","hometown_state":"GA"},{"name":"Desmond Johnson","year":2026,"position":"LB","stars":3,"rating_247":87.0,"committed_to":"Pittsburgh","lat":25.7742658,"lng":-80.1936589,"hometown_city":"Miami","hometown_state":"FL"},{"name":"Adam Balogoun-Ali","year":2026,"position":"LB","stars":4,"rating_247":87.0,"committed_to":"Auburn","lat":26.715364,"lng":-80.0532942,"hometown_city":"West Palm Beach","hometown_state":"FL"},{"name":"Karon Maycock","year":2026,"position":"LB","stars":3,"rating_247":86.0,"committed_to":"Florida State","lat":25.7742658,"lng":-80.1936589,"hometown_city":"Miami","hometown_state":"FL"},{"name":"Antoine Sharp Jr.","year":2026,"position":"LB","stars":null,"rating_247":86.0,"committed_to":"West Virginia","lat":28.6305,"lng":-82.4497,"hometown_city":"Wellington","hometown_state":"FL"},{"name":"Dennis King III","year":2026,"position":"LB","stars":3,"rating_247":86.0,"committed_to":"South Florida","lat":29.2108147,"lng":-81.0228331,"hometown_city":"Daytona Beach","hometown_state":"FL"},{"name":"Jameson McCollough","year":2026,"position":"LB","stars":null,"rating_247":86.0,"committed_to":"Jacksonville State","lat":32.6415,"lng":-83.4426,"hometown_city":"Powder Springs","hometown_state":"GA"},{"name":"Kari Ashley","year":2026,"position":"LB","stars":null,"rating_247":86.0,"committed_to":"Texas Christian","lat":31.4757,"lng":-99.3312,"hometown_city":"Corsicana","hometown_state":"TX"},{"name":"Noah LaVallee","year":2026,"position":"LB","stars":3,"rating_247":85.0,"committed_to":"Florida State","lat":33.9528472,"lng":-84.5496148,"hometown_city":"Marietta","hometown_state":"GA"},{"name":"Maurice Jones Jr.","year":2026,"position":"LB","stars":3,"rating_247":85.0,"committed_to":"Missouri State","lat":28.5421109,"lng":-81.3790304,"hometown_city":"Orlando","hometown_state":"FL"},{"name":"Ashton Moore","year":2026,"position":"LB","stars":3,"rating_247":85.0,"committed_to":"Arkansas State","lat":32.2731475,"lng":-89.9868058,"hometown_city":"Brandon","hometown_state":"MS"},{"name":"Jerimia Collier","year":2026,"position":"LB","stars":3,"rating_247":84.0,"committed_to":"Alabama State","lat":33.5215013,"lng":-84.3538128,"hometown_city":"Jonesboro","hometown_state":"GA"},{"name":"Elijah Dias","year":2026,"position":"LB","stars":3,"rating_247":84.0,"committed_to":null,"lat":28.10708845,"lng":-81.80358011667643,"hometown_city":"Auburndale","hometown_state":"FL"},{"name":"Phillip Goodrich","year":2026,"position":"LB","stars":3,"rating_247":83.0,"committed_to":"Army","lat":26.1223084,"lng":-80.1433786,"hometown_city":"Fort Lauderdale","hometown_state":"FL"},{"name":"Rasheem Turner","year":2026,"position":"LB","stars":3,"rating_247":83.0,"committed_to":"Arkansas State","lat":28.8117297,"lng":-81.2680345,"hometown_city":"Sanford","hometown_state":"FL"},{"name":"Makhi Brazier","year":2026,"position":"LB","stars":3,"rating_247":83.0,"committed_to":"Western Kentucky","lat":33.8389977,"lng":-83.9007382,"hometown_city":"Loganville","hometown_state":"GA"},{"name":"Shane Rochelle","year":2026,"position":"LB","stars":null,"rating_247":82.0,"committed_to":"Middle Tennessee","lat":28.6305,"lng":-82.4497,"hometown_city":"Miami","hometown_state":"FL"},{"name":"Cleveland Gary III","year":2026,"position":"LB","stars":null,"rating_247":null,"committed_to":"Bryant","lat":28.6305,"lng":-82.4497,"hometown_city":"Opa Locka","hometown_state":"FL"},{"name":"Dylan Bennett","year":2026,"position":"LB","stars":null,"rating_247":null,"committed_to":null,"lat":28.6305,"lng":-82.4497,"hometown_city":"Plantation","hometown_state":"FL"},{"name":"CJ Sibley","year":2026,"position":"LB","stars":null,"rating_247":null,"committed_to":null,"lat":32.6415,"lng":-83.4426,"hometown_city":"Buford","hometown_state":"GA"},{"name":"Aji Griggs","year":2026,"position":"LB","stars":null,"rating_247":null,"committed_to":null,"lat":32.6415,"lng":-83.4426,"hometown_city":"Fairburn","hometown_state":"GA"},{"name":"Danny Odem III","year":2026,"position":"CB","stars":null,"rating_247":98.0,"committed_to":"Nebraska","lat":28.6305,"lng":-82.4497,"hometown_city":"Orlando","hometown_state":"FL"},{"name":"Chuck Kennon","year":2026,"position":"CB","stars":null,"rating_247":97.0,"committed_to":"Florida State","lat":28.6305,"lng":-82.4497,"hometown_city":"Sarasota","hometown_state":"FL"},{"name":"Ayden Pouncey","year":2026,"position":"CB","stars":4,"rating_247":96.0,"committed_to":"Notre Dame","lat":26.13784445,"lng":-81.75399813758739,"hometown_city":"Winter Park","hometown_state":"FL"},{"name":"Kentrail McRae","year":2026,"position":"CB","stars":null,"rating_247":90.0,"committed_to":"Pittsburgh","lat":28.6305,"lng":-82.4497,"hometown_city":"Clearwater","hometown_state":"FL"},{"name":"Kenton Dopson III","year":2026,"position":"CB","stars":null,"rating_247":90.0,"committed_to":"North Carolina","lat":28.6305,"lng":-82.4497,"hometown_city":"Miami","hometown_state":"FL"},{"name":"CJ Hester","year":2026,"position":"CB","stars":4,"rating_247":88.0,"committed_to":"Florida","lat":28.3553873,"lng":-80.7318827,"hometown_city":"Cocoa","hometown_state":"FL"},{"name":"Brody Jennings","year":2026,"position":"CB","stars":4,"rating_247":88.0,"committed_to":"Miami","lat":30.3321838,"lng":-81.655651,"hometown_city":"Jacksonville","hometown_state":"FL"},{"name":"Jakwon Morris","year":2026,"position":"CB","stars":null,"rating_247":88.0,"committed_to":"Illinois","lat":32.7364,"lng":-89.6678,"hometown_city":"Senatobia","hometown_state":"MS"},{"name":"Emari Peterson","year":2026,"position":"CB","stars":3,"rating_247":86.0,"committed_to":"Louisiana State","lat":28.5421109,"lng":-81.3790304,"hometown_city":"Orlando","hometown_state":"FL"},{"name":"CJ Cresser Jr.","year":2026,"position":"CB","stars":null,"rating_247":86.0,"committed_to":"South Florida","lat":28.6305,"lng":-82.4497,"hometown_city":"Lakeland","hometown_state":"FL"},{"name":"Elijah Keys","year":2026,"position":"CB","stars":3,"rating_247":86.0,"committed_to":"UCF","lat":30.311908,"lng":-81.3964734,"hometown_city":"Neptune Beach","hometown_state":"FL"},{"name":"Shmar Akande","year":2026,"position":"CB","stars":3,"rating_247":86.0,"committed_to":"Connecticut","lat":26.02322025,"lng":-80.34123906625615,"hometown_city":"Pembroke Pines","hometown_state":"FL"},{"name":"Dariyon Gordon","year":2026,"position":"CB","stars":3,"rating_247":86.0,"committed_to":"Georgia Southern","lat":28.5656649,"lng":-81.5856742,"hometown_city":"Winter Garden","hometown_state":"FL"},{"name":"Jalen Williams","year":2026,"position":"CB","stars":3,"rating_247":86.0,"committed_to":"Arizona State","lat":33.9528472,"lng":-84.5496148,"hometown_city":"Marietta","hometown_state":"GA"},{"name":"Jeremiah Favorite","year":2026,"position":"CB","stars":3,"rating_247":86.0,"committed_to":"Michigan State","lat":35.04136,"lng":-81.97882024148419,"hometown_city":"Boiling Springs","hometown_state":"SC"},{"name":"Tre Webb III","year":2026,"position":"CB","stars":null,"rating_247":86.0,"committed_to":"South Alabama","lat":32.7364,"lng":-89.6678,"hometown_city":"Wesson","hometown_state":"MS"},{"name":"Cason Dash","year":2026,"position":"CB","stars":3,"rating_247":85.0,"committed_to":"Connecticut","lat":28.0394654,"lng":-81.9498042,"hometown_city":"Lakeland","hometown_state":"FL"},{"name":"Jermiyah Douglas","year":2026,"position":"CB","stars":null,"rating_247":85.0,"committed_to":"Western Carolina","lat":28.6305,"lng":-82.4497,"hometown_city":"Fort Lauderdale","hometown_state":"FL"},{"name":"Rodarion Jones","year":2026,"position":"CB","stars":3,"rating_247":85.0,"committed_to":"Jacksonville State","lat":30.6255617,"lng":-84.4153769,"hometown_city":"Havana","hometown_state":"FL"},{"name":"Horace Glenn III","year":2026,"position":"CB","stars":3,"rating_247":85.0,"committed_to":"Eastern Michigan","lat":26.4614625,"lng":-80.0728201,"hometown_city":"Delray Beach","hometown_state":"FL"},{"name":"Julian Byrd","year":2026,"position":"CB","stars":3,"rating_247":85.0,"committed_to":"Tulsa","lat":33.5670562,"lng":-84.5810418,"hometown_city":"Fairburn","hometown_state":"GA"},{"name":"Kallen Martinez","year":2026,"position":"CB","stars":3,"rating_247":84.0,"committed_to":"Colorado State","lat":27.998541000000003,"lng":-82.27488400114905,"hometown_city":"Seffner","hometown_state":"FL"},{"name":"Syncere Berry","year":2026,"position":"CB","stars":3,"rating_247":84.0,"committed_to":"Appalachian State","lat":33.7490987,"lng":-84.3901849,"hometown_city":"Atlanta","hometown_state":"GA"},{"name":"Leonzay Merzius","year":2026,"position":"CB","stars":3,"rating_247":84.0,"committed_to":"Western Kentucky","lat":26.0112014,"lng":-80.1494901,"hometown_city":"Hollywood","hometown_state":"FL"},{"name":"Aldarius Johnson Jr.","year":2026,"position":"CB","stars":3,"rating_247":84.0,"committed_to":"Rhode Island","lat":26.1223084,"lng":-80.1433786,"hometown_city":"Fort Lauderdale","hometown_state":"FL"},{"name":"Sean Williams","year":2026,"position":"CB","stars":3,"rating_247":84.0,"committed_to":"Florida Atlantic","lat":33.5670562,"lng":-84.5810418,"hometown_city":"Fairburn","hometown_state":"GA"},{"name":"Kevin White","year":2026,"position":"CB","stars":3,"rating_247":84.0,"committed_to":"Wofford","lat":25.7742658,"lng":-80.1936589,"hometown_city":"Miami","hometown_state":"FL"},{"name":"Jordan Turner","year":2026,"position":"CB","stars":null,"rating_247":84.0,"committed_to":"Troy","lat":32.6415,"lng":-83.4426,"hometown_city":"Milledgeville","hometown_state":"GA"},{"name":"Asa Locks","year":2026,"position":"CB","stars":null,"rating_247":84.0,"committed_to":"Temple","lat":42.0751,"lng":-93.496,"hometown_city":"Council Bluffs","hometown_state":"IA"},{"name":"Tyson Stroud","year":2026,"position":"CB","stars":3,"rating_247":83.0,"committed_to":"Wofford","lat":27.9477595,"lng":-82.458444,"hometown_city":"Tampa","hometown_state":"FL"},{"name":"Zay West","year":2026,"position":"CB","stars":null,"rating_247":83.0,"committed_to":"Florida International","lat":28.6305,"lng":-82.4497,"hometown_city":"Madison","hometown_state":"FL"},{"name":"Travis Jackson","year":2026,"position":"CB","stars":null,"rating_247":83.0,"committed_to":"Florida Atlantic","lat":28.6305,"lng":-82.4497,"hometown_city":"Wellington","hometown_state":"FL"},{"name":"Andre Brown","year":2026,"position":"CB","stars":null,"rating_247":83.0,"committed_to":"West Florida","lat":28.6305,"lng":-82.4497,"hometown_city":"Tampa","hometown_state":"FL"},{"name":"Tai Terrell","year":2026,"position":"CB","stars":null,"rating_247":83.0,"committed_to":"Troy","lat":32.7364,"lng":-89.6678,"hometown_city":"Decatur","hometown_state":"MS"},{"name":"Marc Gouldsby Jr.","year":2026,"position":"CB","stars":null,"rating_247":82.0,"committed_to":null,"lat":35.5889,"lng":-97.4943,"hometown_city":"Miami","hometown_state":"OK"},{"name":"Prince Cottonham","year":2026,"position":"CB","stars":null,"rating_247":82.0,"committed_to":"Liberty","lat":32.7364,"lng":-89.6678,"hometown_city":"Decatur","hometown_state":"MS"},{"name":"Kam Herring","year":2026,"position":"CB","stars":null,"rating_247":82.0,"committed_to":"Florida Atlantic","lat":32.7364,"lng":-89.6678,"hometown_city":"Decatur","hometown_state":"MS"},{"name":"Jadarian Collins","year":2026,"position":"CB","stars":null,"rating_247":82.0,"committed_to":"Howard","lat":28.6305,"lng":-82.4497,"hometown_city":"Tampa","hometown_state":"FL"},{"name":"JaMichael Hill","year":2026,"position":"CB","stars":3,"rating_247":81.0,"committed_to":"South Dakota","lat":28.5421109,"lng":-81.3790304,"hometown_city":"Orlando","hometown_state":"FL"},{"name":"Tamajh Mitchell","year":2026,"position":"CB","stars":null,"rating_247":null,"committed_to":"East Tennessee State","lat":28.6305,"lng":-82.4497,"hometown_city":"Jacksonville","hometown_state":"FL"},{"name":"Jamison Starks","year":2026,"position":"CB","stars":null,"rating_247":null,"committed_to":null,"lat":37.1841,"lng":-119.4696,"hometown_city":"Los Altos","hometown_state":"CA"},{"name":"Tyrelle Owens","year":2026,"position":"CB","stars":null,"rating_247":null,"committed_to":null,"lat":28.6305,"lng":-82.4497,"hometown_city":"Delray Beach","hometown_state":"FL"},{"name":"Devin Jackson","year":2026,"position":"S","stars":4,"rating_247":95.0,"committed_to":"Oregon","lat":28.5421109,"lng":-81.3790304,"hometown_city":"Orlando","hometown_state":"FL"},{"name":"Jordan Smith","year":2026,"position":"S","stars":4,"rating_247":94.0,"committed_to":"Georgia","lat":32.6200973,"lng":-83.606568,"hometown_city":"Warner Robins","hometown_state":"GA"},{"name":"Jaydin Broadnax","year":2026,"position":"S","stars":4,"rating_247":92.0,"committed_to":"Louisville","lat":26.3586885,"lng":-80.0830984,"hometown_city":"Boca Raton","hometown_state":"FL"},{"name":"Xavier Lherisse","year":2026,"position":"S","stars":4,"rating_247":91.0,"committed_to":"Oregon","lat":28.0836269,"lng":-80.6081089,"hometown_city":"Melbourne","hometown_state":"FL"},{"name":"Blake Stewart","year":2026,"position":"S","stars":3,"rating_247":90.0,"committed_to":"Georgia","lat":33.7490987,"lng":-84.3901849,"hometown_city":"Atlanta","hometown_state":"GA"},{"name":"Justin Edwards","year":2026,"position":"S","stars":3,"rating_247":89.0,"committed_to":"Miami","lat":28.5421109,"lng":-81.3790304,"hometown_city":"Orlando","hometown_state":"FL"},{"name":"Tedarius Hughes","year":2026,"position":"S","stars":4,"rating_247":89.0,"committed_to":"Syracuse","lat":25.7742658,"lng":-80.1936589,"hometown_city":"Miami","hometown_state":"FL"},{"name":"Jacob Curry","year":2026,"position":"S","stars":4,"rating_247":88.0,"committed_to":"Oklahoma","lat":30.2396865,"lng":-81.3856384,"hometown_city":"Ponte Vedra Beach","hometown_state":"FL"},{"name":"D'Montae Tims","year":2026,"position":"S","stars":3,"rating_247":88.0,"committed_to":"Indiana","lat":27.998541000000003,"lng":-82.27488400114905,"hometown_city":"Seffner","hometown_state":"FL"},{"name":"Eliyjah Caldwell","year":2026,"position":"S","stars":null,"rating_247":88.0,"committed_to":"Michigan State","lat":28.6305,"lng":-82.4497,"hometown_city":"Jacksonville","hometown_state":"FL"},{"name":"Darnell Collins","year":2026,"position":"S","stars":3,"rating_247":88.0,"committed_to":"Georgia Tech","lat":34.257038,"lng":-85.1646726,"hometown_city":"Rome","hometown_state":"GA"},{"name":"Keon Hutchins","year":2026,"position":"S","stars":null,"rating_247":88.0,"committed_to":"West Virginia","lat":32.7364,"lng":-89.6678,"hometown_city":"Senatobia","hometown_state":"MS"},{"name":"Myrone Jean","year":2026,"position":"S","stars":3,"rating_247":87.0,"committed_to":"Tulane","lat":27.9014133,"lng":-81.5859099,"hometown_city":"Lake Wales","hometown_state":"FL"},{"name":"Jakobe Dejesus","year":2026,"position":"S","stars":3,"rating_247":87.0,"committed_to":"Liberty","lat":33.7514966,"lng":-84.7477136,"hometown_city":"Douglasville","hometown_state":"GA"},{"name":"Jakobe Dejesus","year":2026,"position":"S","stars":3,"rating_247":87.0,"committed_to":"Liberty","lat":33.7514966,"lng":-84.7477136,"hometown_city":"Douglasville","hometown_state":"GA"},{"name":"Tony Forney","year":2026,"position":"S","stars":3,"rating_247":87.0,"committed_to":"Pittsburgh","lat":33.9528472,"lng":-84.5496148,"hometown_city":"Marietta","hometown_state":"GA"},{"name":"Karaijus Hayes","year":2026,"position":"S","stars":3,"rating_247":86.0,"committed_to":"Florida International","lat":27.3364347,"lng":-82.5306527,"hometown_city":"Sarasota","hometown_state":"FL"},{"name":"Sebastian Cruz","year":2026,"position":"S","stars":3,"rating_247":86.0,"committed_to":"Rutgers","lat":30.1654707,"lng":-81.7016346,"hometown_city":"Orange Park","hometown_state":"FL"},{"name":"Cameron Dwyer","year":2026,"position":"S","stars":3,"rating_247":86.0,"committed_to":"West Virginia","lat":26.715364,"lng":-80.0532942,"hometown_city":"West Palm Beach","hometown_state":"FL"},{"name":"Amari Jones","year":2026,"position":"S","stars":3,"rating_247":86.0,"committed_to":"South Florida","lat":27.4989278,"lng":-82.5748194,"hometown_city":"Bradenton","hometown_state":"FL"},{"name":"Dre Riley","year":2026,"position":"S","stars":null,"rating_247":86.0,"committed_to":"Mississippi State","lat":32.7364,"lng":-89.6678,"hometown_city":"Senatobia","hometown_state":"MS"},{"name":"Da'Mare Williams","year":2026,"position":"S","stars":null,"rating_247":86.0,"committed_to":"West Virginia","lat":38.4937,"lng":-98.3804,"hometown_city":"Coffeyville","hometown_state":"KS"},{"name":"Kyle Hall","year":2026,"position":"S","stars":null,"rating_247":86.0,"committed_to":"Boise State","lat":37.1841,"lng":-119.4696,"hometown_city":"San Mateo","hometown_state":"CA"},{"name":"Ja'Cari Jackson","year":2026,"position":"S","stars":3,"rating_247":85.0,"committed_to":"Florida Atlantic","lat":28.5421109,"lng":-81.3790304,"hometown_city":"Orlando","hometown_state":"FL"},{"name":"Jax Pope","year":2026,"position":"S","stars":3,"rating_247":85.0,"committed_to":"Coastal Carolina","lat":34.1206564,"lng":-84.0043513,"hometown_city":"Buford","hometown_state":"GA"},{"name":"Shondell Harris","year":2026,"position":"S","stars":3,"rating_247":85.0,"committed_to":"Jacksonville State","lat":30.778688,"lng":-88.2588427,"hometown_city":"Semmes","hometown_state":"AL"},{"name":"Ta'Vari Hampton","year":2026,"position":"S","stars":null,"rating_247":85.0,"committed_to":"Purdue","lat":35.5889,"lng":-97.4943,"hometown_city":"Miami","hometown_state":"OK"},{"name":"Justin Weatherall","year":2026,"position":"S","stars":3,"rating_247":84.0,"committed_to":"Florida Atlantic","lat":30.421309,"lng":-87.2169149,"hometown_city":"Pensacola","hometown_state":"FL"},{"name":"Tedrick Lee","year":2026,"position":"S","stars":3,"rating_247":84.0,"committed_to":null,"lat":25.4718946,"lng":-80.4759905,"hometown_city":"Homestead","hometown_state":"FL"},{"name":"Camaul King","year":2026,"position":"S","stars":null,"rating_247":83.0,"committed_to":"Fordham","lat":28.6305,"lng":-82.4497,"hometown_city":"Miami","hometown_state":"FL"},{"name":"Ziiyahn Blair","year":2026,"position":"S","stars":3,"rating_247":82.0,"committed_to":"Toledo","lat":41.083064,"lng":-81.518485,"hometown_city":"Akron","hometown_state":"OH"},{"name":"Jamarion Keyes","year":2026,"position":"S","stars":null,"rating_247":82.0,"committed_to":"Troy","lat":32.7364,"lng":-89.6678,"hometown_city":"Senatobia","hometown_state":"MS"},{"name":"Traveon Townsend","year":2026,"position":"S","stars":null,"rating_247":null,"committed_to":null,"lat":28.6305,"lng":-82.4497,"hometown_city":"Vero Beach","hometown_state":"FL"},{"name":"Keondre Ponton","year":2026,"position":"S","stars":null,"rating_247":null,"committed_to":null,"lat":28.6305,"lng":-82.4497,"hometown_city":"Miami","hometown_state":"FL"},{"name":"Okece Battle","year":2026,"position":"S","stars":null,"rating_247":null,"committed_to":null,"lat":28.6305,"lng":-82.4497,"hometown_city":"Cocoa","hometown_state":"FL"},{"name":"Tristian Givens","year":2026,"position":"ATH","stars":4,"rating_247":97.0,"committed_to":"Texas A&M","lat":32.4609764,"lng":-84.9877094,"hometown_city":"Columbus","hometown_state":"GA"},{"name":"Derrek Cooper","year":2026,"position":"ATH","stars":4,"rating_247":93.0,"committed_to":"Texas","lat":26.0112014,"lng":-80.1494901,"hometown_city":"Hollywood","hometown_state":"FL"},{"name":"Tyren Hornes","year":2026,"position":"ATH","stars":4,"rating_247":93.0,"committed_to":"UCF","lat":27.3364347,"lng":-82.5306527,"hometown_city":"Sarasota","hometown_state":"FL"},{"name":"Justin Williams","year":2026,"position":"ATH","stars":4,"rating_247":92.0,"committed_to":"Florida","lat":29.6519684,"lng":-82.3249846,"hometown_city":"Gainesville","hometown_state":"FL"},{"name":"Justice Fitzpatrick","year":2026,"position":"ATH","stars":4,"rating_247":92.0,"committed_to":"Georgia","lat":26.1223084,"lng":-80.1433786,"hometown_city":"Fort Lauderdale","hometown_state":"FL"},{"name":"Devonte Anderson","year":2026,"position":"ATH","stars":3,"rating_247":90.0,"committed_to":"Rutgers","lat":28.5656649,"lng":-81.5856742,"hometown_city":"Winter Garden","hometown_state":"FL"},{"name":"Jyron Hughley","year":2026,"position":"ATH","stars":3,"rating_247":89.0,"committed_to":"West Virginia","lat":26.715364,"lng":-80.0532942,"hometown_city":"West Palm Beach","hometown_state":"FL"},{"name":"Dylan Wester","year":2026,"position":"ATH","stars":3,"rating_247":89.0,"committed_to":"Pittsburgh","lat":27.3364347,"lng":-82.5306527,"hometown_city":"Sarasota","hometown_state":"FL"},{"name":"Dequane Prevo","year":2026,"position":"ATH","stars":4,"rating_247":89.0,"committed_to":"Arkansas","lat":36.3728538,"lng":-94.2088172,"hometown_city":"Bentonville","hometown_state":"AR"},{"name":"KJ Deriso","year":2026,"position":"ATH","stars":3,"rating_247":89.0,"committed_to":"Michigan State","lat":33.4487257,"lng":-84.4549262,"hometown_city":"Fayetteville","hometown_state":"GA"},{"name":"Javari Barnett","year":2026,"position":"ATH","stars":3,"rating_247":88.0,"committed_to":"Illinois","lat":27.9477595,"lng":-82.458444,"hometown_city":"Tampa","hometown_state":"FL"},{"name":"Jabari Brady","year":2026,"position":"ATH","stars":3,"rating_247":88.0,"committed_to":"Missouri","lat":26.2378597,"lng":-80.1247667,"hometown_city":"Pompano Beach","hometown_state":"FL"},{"name":"Tre Bell III","year":2026,"position":"ATH","stars":null,"rating_247":88.0,"committed_to":"Florida State","lat":28.6305,"lng":-82.4497,"hometown_city":"Hialeah","hometown_state":"FL"},{"name":"Tay Lockett","year":2026,"position":"ATH","stars":3,"rating_247":87.0,"committed_to":"Arkansas","lat":32.7174209,"lng":-117.1627714,"hometown_city":"San Diego","hometown_state":"CA"},{"name":"Bryan Hamilton","year":2026,"position":"ATH","stars":3,"rating_247":87.0,"committed_to":"Pittsburgh","lat":27.9477595,"lng":-82.458444,"hometown_city":"Tampa","hometown_state":"FL"},{"name":"Daylen Green","year":2026,"position":"ATH","stars":3,"rating_247":87.0,"committed_to":"Florida State","lat":30.5871948,"lng":-84.5832619,"hometown_city":"Quincy","hometown_state":"FL"},{"name":"Darryon Williams","year":2026,"position":"ATH","stars":3,"rating_247":87.0,"committed_to":"Florida State","lat":27.9477595,"lng":-82.458444,"hometown_city":"Tampa","hometown_state":"FL"},{"name":"Jaeden McMillan","year":2026,"position":"ATH","stars":3,"rating_247":87.0,"committed_to":"Florida International","lat":28.0836269,"lng":-80.6081089,"hometown_city":"Melbourne","hometown_state":"FL"},{"name":"Hannibal Navies II","year":2026,"position":"ATH","stars":null,"rating_247":87.0,"committed_to":"Arizona","lat":32.6415,"lng":-83.4426,"hometown_city":"Loganville","hometown_state":"GA"},{"name":"Isaac Nelson","year":2026,"position":"ATH","stars":3,"rating_247":87.0,"committed_to":"Wake Forest","lat":39.7683331,"lng":-86.1583502,"hometown_city":"Indianapolis","hometown_state":"IN"},{"name":"Zialis Blackmon","year":2026,"position":"ATH","stars":3,"rating_247":87.0,"committed_to":"Old Dominion","lat":34.9343599,"lng":-88.5223353,"hometown_city":"Corinth","hometown_state":"MS"},{"name":"Tony Williams","year":2026,"position":"ATH","stars":3,"rating_247":86.0,"committed_to":"Illinois","lat":30.3321838,"lng":-81.655651,"hometown_city":"Jacksonville","hometown_state":"FL"},{"name":"Lex Willis","year":2026,"position":"ATH","stars":null,"rating_247":86.0,"committed_to":"Georgia Tech","lat":28.6305,"lng":-82.4497,"hometown_city":"Orlando","hometown_state":"FL"},{"name":"Eric Parks","year":2026,"position":"ATH","stars":3,"rating_247":86.0,"committed_to":"Florida","lat":27.9477595,"lng":-82.458444,"hometown_city":"Tampa","hometown_state":"FL"},{"name":"Jiwaun Brock","year":2026,"position":"ATH","stars":3,"rating_247":86.0,"committed_to":"Southeastern Louisiana","lat":30.4754702,"lng":-90.1009108,"hometown_city":"Covington","hometown_state":"LA"},{"name":"DJ Williams","year":2026,"position":"ATH","stars":3,"rating_247":86.0,"committed_to":"Louisville","lat":27.9477595,"lng":-82.458444,"hometown_city":"Tampa","hometown_state":"FL"},{"name":"Amarion Queen","year":2026,"position":"ATH","stars":3,"rating_247":86.0,"committed_to":"UCF","lat":27.197983,"lng":-80.2519175,"hometown_city":"Stuart","hometown_state":"FL"},{"name":"Christian Ward","year":2026,"position":"ATH","stars":3,"rating_247":86.0,"committed_to":"Colorado","lat":27.4989278,"lng":-82.5748194,"hometown_city":"Bradenton","hometown_state":"FL"},{"name":"Kaj Baker","year":2026,"position":"ATH","stars":3,"rating_247":86.0,"committed_to":"UCF","lat":25.7742658,"lng":-80.1936589,"hometown_city":"Miami","hometown_state":"FL"},{"name":"Carson Griffin","year":2026,"position":"ATH","stars":3,"rating_247":85.0,"committed_to":"Delaware","lat":30.2454776,"lng":-85.648261,"hometown_city":"Lynn Haven","hometown_state":"FL"},{"name":"Joshua Joseph","year":2026,"position":"ATH","stars":3,"rating_247":84.0,"committed_to":"Memphis","lat":25.7742658,"lng":-80.1936589,"hometown_city":"Miami","hometown_state":"FL"},{"name":"Zavier Hilliard","year":2026,"position":"ATH","stars":3,"rating_247":82.0,"committed_to":"Georgia Southern","lat":30.3321838,"lng":-81.655651,"hometown_city":"Jacksonville","hometown_state":"FL"},{"name":"Elijah Pendleton","year":2026,"position":"ATH","stars":3,"rating_247":80.0,"committed_to":null,"lat":34.1816482,"lng":-118.3258554,"hometown_city":"Burbank","hometown_state":"CA"},{"name":"Zyuan Dukes","year":2026,"position":"ATH","stars":null,"rating_247":null,"committed_to":null,"lat":28.6305,"lng":-82.4497,"hometown_city":"Lakeland","hometown_state":"FL"},{"name":"John Jones","year":2026,"position":"ATH","stars":null,"rating_247":null,"committed_to":"Wofford","lat":28.6305,"lng":-82.4497,"hometown_city":"Miami","hometown_state":"FL"},{"name":"Ryan Hamilton","year":2026,"position":"ATH","stars":null,"rating_247":null,"committed_to":null,"lat":28.6305,"lng":-82.4497,"hometown_city":"Tampa","hometown_state":"FL"},{"name":"Kameron Mills","year":2026,"position":"ATH","stars":null,"rating_247":null,"committed_to":null,"lat":28.6305,"lng":-82.4497,"hometown_city":"Lake City","hometown_state":"FL"},{"name":"Vernon Stephens","year":2026,"position":"ATH","stars":null,"rating_247":null,"committed_to":"Furman","lat":28.6305,"lng":-82.4497,"hometown_city":"Ponte Vedra Beach","hometown_state":"FL"},{"name":"Hamilton Sharpe","year":2026,"position":"LS","stars":null,"rating_247":null,"committed_to":"Rice","lat":31.4757,"lng":-99.3312,"hometown_city":"The Woodlands","hometown_state":"TX"}],"2027":[{"name":"Jayce Johnson","year":2027,"position":"QB","stars":null,"rating_247":90.0,"committed_to":"Texas A&M","lat":32.6415,"lng":-83.4426,"hometown_city":"Valdosta","hometown_state":"GA"},{"name":"Jamison Roberts","year":2027,"position":"QB","stars":null,"rating_247":89.0,"committed_to":"Oklahoma","lat":32.7794,"lng":-86.8287,"hometown_city":"Saraland","hometown_state":"AL"},{"name":"Braden Baker","year":2027,"position":"QB","stars":null,"rating_247":88.0,"committed_to":"Houston","lat":31.4757,"lng":-99.3312,"hometown_city":"Cypress","hometown_state":"TX"},{"name":"Brodie Campbell","year":2027,"position":"QB","stars":null,"rating_247":88.0,"committed_to":"Georgia Tech","lat":32.6415,"lng":-83.4426,"hometown_city":"Newnan","hometown_state":"GA"},{"name":"William Jackson","year":2027,"position":"QB","stars":null,"rating_247":86.0,"committed_to":"Maryland","lat":28.6305,"lng":-82.4497,"hometown_city":"Orlando","hometown_state":"FL"},{"name":"Sladen Shack","year":2027,"position":"QB","stars":null,"rating_247":86.0,"committed_to":"Illinois","lat":32.7364,"lng":-89.6678,"hometown_city":"Brandon","hometown_state":"MS"},{"name":"Brody Brenneman","year":2027,"position":"QB","stars":null,"rating_247":85.0,"committed_to":null,"lat":28.6305,"lng":-82.4497,"hometown_city":"Lakeland","hometown_state":"FL"},{"name":"Crews Jenkins","year":2027,"position":"QB","stars":null,"rating_247":85.0,"committed_to":"Mississippi","lat":35.858,"lng":-86.3505,"hometown_city":"Brentwood","hometown_state":"TN"},{"name":"Camden Hughes","year":2027,"position":"QB","stars":null,"rating_247":85.0,"committed_to":"Cincinnati","lat":31.4757,"lng":-99.3312,"hometown_city":"The Woodlands","hometown_state":"TX"},{"name":"JD Brown","year":2027,"position":"QB","stars":null,"rating_247":85.0,"committed_to":null,"lat":28.6305,"lng":-82.4497,"hometown_city":"Santa Rosa Beach","hometown_state":"FL"},{"name":"Kingston Rust","year":2027,"position":"QB","stars":null,"rating_247":null,"committed_to":null,"lat":28.6305,"lng":-82.4497,"hometown_city":"Hialeah","hometown_state":"FL"},{"name":"Joseph Allen","year":2027,"position":"QB","stars":null,"rating_247":null,"committed_to":null,"lat":28.6305,"lng":-82.4497,"hometown_city":"Melbourne","hometown_state":"FL"},{"name":"Kai Moore","year":2027,"position":"QB","stars":null,"rating_247":null,"committed_to":"Northern Illinois","lat":28.6305,"lng":-82.4497,"hometown_city":"Miami","hometown_state":"FL"},{"name":"Brody Bartee","year":2027,"position":"QB","stars":null,"rating_247":null,"committed_to":"Florida Atlantic","lat":31.4757,"lng":-99.3312,"hometown_city":"Missouri City","hometown_state":"TX"},{"name":"Gary Walker","year":2027,"position":"RB","stars":null,"rating_247":91.0,"committed_to":"Clemson","lat":32.6415,"lng":-83.4426,"hometown_city":"Fairburn","hometown_state":"GA"},{"name":"Amarri Irvin","year":2027,"position":"RB","stars":null,"rating_247":89.0,"committed_to":"Notre Dame","lat":28.6305,"lng":-82.4497,"hometown_city":"Bradenton","hometown_state":"FL"},{"name":"Kelsey Gerald","year":2027,"position":"RB","stars":null,"rating_247":87.0,"committed_to":"Kentucky","lat":28.6305,"lng":-82.4497,"hometown_city":"Lantana","hometown_state":"FL"},{"name":"Arwin Jackson","year":2027,"position":"RB","stars":null,"rating_247":87.0,"committed_to":null,"lat":28.6305,"lng":-82.4497,"hometown_city":"Opa Locka","hometown_state":"FL"},{"name":"Bryian Duncan Jr.","year":2027,"position":"RB","stars":null,"rating_247":87.0,"committed_to":"West Virginia","lat":32.6415,"lng":-83.4426,"hometown_city":"Cairo","hometown_state":"GA"},{"name":"Deron Foster","year":2027,"position":"RB","stars":null,"rating_247":87.0,"committed_to":null,"lat":32.6415,"lng":-83.4426,"hometown_city":"Valdosta","hometown_state":"GA"},{"name":"Ninaud Joseph","year":2027,"position":"RB","stars":null,"rating_247":86.0,"committed_to":null,"lat":28.6305,"lng":-82.4497,"hometown_city":"Naples","hometown_state":"FL"},{"name":"Amos Bradford","year":2027,"position":"RB","stars":null,"rating_247":86.0,"committed_to":"Purdue","lat":28.6305,"lng":-82.4497,"hometown_city":"Hollywood","hometown_state":"FL"},{"name":"Caleb Mattison","year":2027,"position":"RB","stars":null,"rating_247":86.0,"committed_to":null,"lat":28.6305,"lng":-82.4497,"hometown_city":"Jacksonville","hometown_state":"FL"},{"name":"Sergarion Gunsby","year":2027,"position":"RB","stars":null,"rating_247":85.0,"committed_to":null,"lat":28.6305,"lng":-82.4497,"hometown_city":"Ocala","hometown_state":"FL"},{"name":"Tommy Scott","year":2027,"position":"RB","stars":null,"rating_247":84.0,"committed_to":"Florida Atlantic","lat":28.6305,"lng":-82.4497,"hometown_city":"Riverview","hometown_state":"FL"},{"name":"Joel Bradford","year":2027,"position":"RB","stars":null,"rating_247":null,"committed_to":null,"lat":32.6415,"lng":-83.4426,"hometown_city":"Suwanee","hometown_state":"GA"},{"name":"Jonathan Bueno","year":2027,"position":"RB","stars":null,"rating_247":null,"committed_to":null,"lat":28.6305,"lng":-82.4497,"hometown_city":"Plantation","hometown_state":"FL"},{"name":"Ryan Mathis","year":2027,"position":"RB","stars":null,"rating_247":null,"committed_to":null,"lat":28.6305,"lng":-82.4497,"hometown_city":"Miami","hometown_state":"FL"},{"name":"Preston Beckham","year":2027,"position":"RB","stars":null,"rating_247":null,"committed_to":null,"lat":28.6305,"lng":-82.4497,"hometown_city":"Ruskin","hometown_state":"FL"},{"name":"Kamari Smith","year":2027,"position":"RB","stars":null,"rating_247":null,"committed_to":null,"lat":28.6305,"lng":-82.4497,"hometown_city":"Lake Wales","hometown_state":"FL"},{"name":"Cecil Smith","year":2027,"position":"RB","stars":null,"rating_247":null,"committed_to":null,"lat":28.6305,"lng":-82.4497,"hometown_city":"Miami","hometown_state":"FL"},{"name":"Hezekiah Davis","year":2027,"position":"RB","stars":null,"rating_247":null,"committed_to":null,"lat":28.6305,"lng":-82.4497,"hometown_city":"Tampa","hometown_state":"FL"},{"name":"Omari St. Fort","year":2027,"position":"RB","stars":null,"rating_247":null,"committed_to":null,"lat":28.6305,"lng":-82.4497,"hometown_city":"Delray Beach","hometown_state":"FL"},{"name":"Aaron Truedell","year":2027,"position":"RB","stars":null,"rating_247":null,"committed_to":null,"lat":28.6305,"lng":-82.4497,"hometown_city":"Lakeland","hometown_state":"FL"},{"name":"Steven Alexis","year":2027,"position":"RB","stars":null,"rating_247":null,"committed_to":"Colorado","lat":28.6305,"lng":-82.4497,"hometown_city":"St. Petersburg","hometown_state":"FL"},{"name":"Jamir Dean","year":2027,"position":"WR","stars":null,"rating_247":92.0,"committed_to":"Penn State","lat":35.858,"lng":-86.3505,"hometown_city":"Alcoa","hometown_state":"TN"},{"name":"Jabari Watkins","year":2027,"position":"WR","stars":null,"rating_247":90.0,"committed_to":"Arkansas","lat":32.6415,"lng":-83.4426,"hometown_city":"Thomasville","hometown_state":"GA"},{"name":"Ah'Mari Stevens","year":2027,"position":"WR","stars":null,"rating_247":90.0,"committed_to":"Louisiana State","lat":28.6305,"lng":-82.4497,"hometown_city":"Hollywood","hometown_state":"FL"},{"name":"Jordan Christie","year":2027,"position":"WR","stars":null,"rating_247":89.0,"committed_to":null,"lat":32.6415,"lng":-83.4426,"hometown_city":"Decatur","hometown_state":"GA"},{"name":"Kyren Caldwell","year":2027,"position":"WR","stars":null,"rating_247":88.0,"committed_to":null,"lat":28.6305,"lng":-82.4497,"hometown_city":"Lake City","hometown_state":"FL"},{"name":"DJ Huggins","year":2027,"position":"WR","stars":null,"rating_247":88.0,"committed_to":"South Carolina","lat":32.6415,"lng":-83.4426,"hometown_city":"Kennesaw","hometown_state":"GA"},{"name":"Kyron Brown","year":2027,"position":"WR","stars":null,"rating_247":88.0,"committed_to":null,"lat":31.4757,"lng":-99.3312,"hometown_city":"Amarillo","hometown_state":"TX"},{"name":"Brock Burrus","year":2027,"position":"WR","stars":null,"rating_247":87.0,"committed_to":null,"lat":32.6415,"lng":-83.4426,"hometown_city":"Marietta","hometown_state":"GA"},{"name":"Jayden Elder","year":2027,"position":"WR","stars":null,"rating_247":87.0,"committed_to":null,"lat":28.6305,"lng":-82.4497,"hometown_city":"Boca Raton","hometown_state":"FL"},{"name":"Donovan McNabb Jr.","year":2027,"position":"WR","stars":null,"rating_247":87.0,"committed_to":null,"lat":34.2744,"lng":-111.6602,"hometown_city":"Phoenix","hometown_state":"AZ"},{"name":"Dominick Harvey","year":2027,"position":"WR","stars":null,"rating_247":86.0,"committed_to":"Liberty","lat":28.6305,"lng":-82.4497,"hometown_city":"Hawthorne","hometown_state":"FL"},{"name":"Jamal Robinson Jr.","year":2027,"position":"WR","stars":null,"rating_247":86.0,"committed_to":"UCF","lat":28.6305,"lng":-82.4497,"hometown_city":"Hialeah","hometown_state":"FL"},{"name":"Tavares Powell","year":2027,"position":"WR","stars":null,"rating_247":86.0,"committed_to":"Kansas","lat":28.6305,"lng":-82.4497,"hometown_city":"Bradenton","hometown_state":"FL"},{"name":"Jordan Cason","year":2027,"position":"WR","stars":null,"rating_247":86.0,"committed_to":"Northwestern","lat":28.6305,"lng":-82.4497,"hometown_city":"Starke","hometown_state":"FL"},{"name":"James Bethea","year":2027,"position":"WR","stars":null,"rating_247":86.0,"committed_to":null,"lat":28.6305,"lng":-82.4497,"hometown_city":"Ocala","hometown_state":"FL"},{"name":"Jok Harris","year":2027,"position":"WR","stars":null,"rating_247":85.0,"committed_to":"Appalachian State","lat":28.6305,"lng":-82.4497,"hometown_city":"Palmetto","hometown_state":"FL"},{"name":"Ryan Ferdinand","year":2027,"position":"WR","stars":null,"rating_247":85.0,"committed_to":null,"lat":28.6305,"lng":-82.4497,"hometown_city":"West Palm Beach","hometown_state":"FL"},{"name":"Sean Thompson","year":2027,"position":"WR","stars":null,"rating_247":85.0,"committed_to":null,"lat":28.6305,"lng":-82.4497,"hometown_city":"Miami","hometown_state":"FL"},{"name":"Chris Butler","year":2027,"position":"WR","stars":null,"rating_247":84.0,"committed_to":"Liberty","lat":28.6305,"lng":-82.4497,"hometown_city":"Daytona Beach","hometown_state":"FL"},{"name":"Lorontae Davis","year":2027,"position":"WR","stars":null,"rating_247":null,"committed_to":"Eastern Michigan","lat":28.6305,"lng":-82.4497,"hometown_city":"Boca Raton","hometown_state":"FL"},{"name":"Malik Denson","year":2027,"position":"WR","stars":null,"rating_247":null,"committed_to":null,"lat":28.6305,"lng":-82.4497,"hometown_city":"Fort Lauderdale","hometown_state":"FL"},{"name":"Quintero Frierson","year":2027,"position":"WR","stars":null,"rating_247":null,"committed_to":null,"lat":28.6305,"lng":-82.4497,"hometown_city":"Miami","hometown_state":"FL"},{"name":"Morris Walters","year":2027,"position":"WR","stars":null,"rating_247":null,"committed_to":null,"lat":31.0689,"lng":-91.9968,"hometown_city":"Jeanerette","hometown_state":"LA"},{"name":"Javion McCutchen","year":2027,"position":"WR","stars":null,"rating_247":null,"committed_to":null,"lat":31.0689,"lng":-91.9968,"hometown_city":"Bossier City","hometown_state":"LA"},{"name":"Jeremiah Thomas","year":2027,"position":"WR","stars":null,"rating_247":null,"committed_to":null,"lat":28.6305,"lng":-82.4497,"hometown_city":"Melbourne","hometown_state":"FL"},{"name":"EJ Hall","year":2027,"position":"WR","stars":null,"rating_247":null,"committed_to":null,"lat":28.6305,"lng":-82.4497,"hometown_city":"Melbourne","hometown_state":"FL"},{"name":"Cole Emanuel","year":2027,"position":"WR","stars":null,"rating_247":null,"committed_to":null,"lat":28.6305,"lng":-82.4497,"hometown_city":"Orlando","hometown_state":"FL"},{"name":"Kolton Prox","year":2027,"position":"WR","stars":null,"rating_247":null,"committed_to":null,"lat":31.4757,"lng":-99.3312,"hometown_city":"Grand Saline","hometown_state":"TX"},{"name":"Suhaib Ramseur","year":2027,"position":"WR","stars":null,"rating_247":null,"committed_to":"Florida Atlantic","lat":31.4757,"lng":-99.3312,"hometown_city":"Missouri City","hometown_state":"TX"},{"name":"Yuto Kawamura-Johnson","year":2027,"position":"WR","stars":null,"rating_247":null,"committed_to":"Toledo","lat":28.6305,"lng":-82.4497,"hometown_city":"Winter Garden","hometown_state":"FL"},{"name":"Sanjae Fisher","year":2027,"position":"WR","stars":null,"rating_247":null,"committed_to":null,"lat":28.6305,"lng":-82.4497,"hometown_city":"Pompano Beach","hometown_state":"FL"},{"name":"Jayden St. Fort","year":2027,"position":"WR","stars":null,"rating_247":null,"committed_to":"Eastern Michigan","lat":28.6305,"lng":-82.4497,"hometown_city":"Boca Raton","hometown_state":"FL"},{"name":"Jaden Daniels","year":2027,"position":"WR","stars":null,"rating_247":null,"committed_to":null,"lat":28.6305,"lng":-82.4497,"hometown_city":"Miami","hometown_state":"FL"},{"name":"Tyrone Williams","year":2027,"position":"WR","stars":null,"rating_247":null,"committed_to":null,"lat":28.6305,"lng":-82.4497,"hometown_city":"Miami","hometown_state":"FL"},{"name":"Jamari Ward","year":2027,"position":"WR","stars":null,"rating_247":null,"committed_to":null,"lat":28.6305,"lng":-82.4497,"hometown_city":"St. Petersburg","hometown_state":"FL"},{"name":"MJ Knight","year":2027,"position":"WR","stars":null,"rating_247":null,"committed_to":null,"lat":32.6415,"lng":-83.4426,"hometown_city":"Savannah","hometown_state":"GA"},{"name":"Jamarian Mingo","year":2027,"position":"WR","stars":null,"rating_247":null,"committed_to":null,"lat":32.6415,"lng":-83.4426,"hometown_city":"Valdosta","hometown_state":"GA"},{"name":"Aubrey Johnson","year":2027,"position":"WR","stars":null,"rating_247":null,"committed_to":"Florida Atlantic","lat":31.4757,"lng":-99.3312,"hometown_city":"Houston","hometown_state":"TX"},{"name":"Cobe Williams","year":2027,"position":"WR","stars":null,"rating_247":null,"committed_to":null,"lat":32.6415,"lng":-83.4426,"hometown_city":"Snellville","hometown_state":"GA"},{"name":"Christian Mollino","year":2027,"position":"WR","stars":null,"rating_247":null,"committed_to":null,"lat":28.6305,"lng":-82.4497,"hometown_city":"Riverview","hometown_state":"FL"},{"name":"Dennis Perry","year":2027,"position":"WR","stars":null,"rating_247":null,"committed_to":null,"lat":39.055,"lng":-76.7909,"hometown_city":"Pikesville","hometown_state":"MD"},{"name":"Jarvaris Reed","year":2027,"position":"WR","stars":null,"rating_247":null,"committed_to":"Florida International","lat":32.6415,"lng":-83.4426,"hometown_city":"Powder Springs","hometown_state":"GA"},{"name":"Mannie McKinney","year":2027,"position":"WR","stars":null,"rating_247":null,"committed_to":null,"lat":28.6305,"lng":-82.4497,"hometown_city":"Tampa","hometown_state":"FL"},{"name":"Ja'kobi Williams","year":2027,"position":"WR","stars":null,"rating_247":null,"committed_to":"Northern Illinois","lat":28.6305,"lng":-82.4497,"hometown_city":"Fort Lauderdale","hometown_state":"FL"},{"name":"Cole Crawford","year":2027,"position":"TE","stars":null,"rating_247":88.0,"committed_to":null,"lat":32.6415,"lng":-83.4426,"hometown_city":"Cartersville","hometown_state":"GA"},{"name":"Colton Johnson","year":2027,"position":"TE","stars":null,"rating_247":88.0,"committed_to":null,"lat":35.858,"lng":-86.3505,"hometown_city":"Baxter","hometown_state":"TN"},{"name":"Grant Haviland","year":2027,"position":"TE","stars":null,"rating_247":88.0,"committed_to":"Vanderbilt","lat":32.6415,"lng":-83.4426,"hometown_city":"Alpharetta","hometown_state":"GA"},{"name":"Trae Proctor","year":2027,"position":"TE","stars":null,"rating_247":87.0,"committed_to":"Kentucky","lat":28.6305,"lng":-82.4497,"hometown_city":"Plantation","hometown_state":"FL"},{"name":"DeShaun Thomas","year":2027,"position":"TE","stars":null,"rating_247":87.0,"committed_to":"Pittsburgh","lat":28.6305,"lng":-82.4497,"hometown_city":"Merritt Island","hometown_state":"FL"},{"name":"Joey Hunter","year":2027,"position":"TE","stars":null,"rating_247":87.0,"committed_to":"Nebraska","lat":32.6415,"lng":-83.4426,"hometown_city":"Loganville","hometown_state":"GA"},{"name":"Carter Blackwell","year":2027,"position":"TE","stars":null,"rating_247":87.0,"committed_to":"Clemson","lat":32.6415,"lng":-83.4426,"hometown_city":"Leesburg","hometown_state":"GA"},{"name":"Joshua Pettigrew","year":2027,"position":"TE","stars":null,"rating_247":87.0,"committed_to":"Georgia Tech","lat":32.6415,"lng":-83.4426,"hometown_city":"Warner Robins","hometown_state":"GA"},{"name":"Landon Bogany","year":2027,"position":"TE","stars":null,"rating_247":86.0,"committed_to":null,"lat":31.4757,"lng":-99.3312,"hometown_city":"Lewisville","hometown_state":"TX"},{"name":"CJ Jordan II","year":2027,"position":"TE","stars":null,"rating_247":86.0,"committed_to":"North Carolina State","lat":32.6415,"lng":-83.4426,"hometown_city":"Marietta","hometown_state":"GA"},{"name":"Cade Newman","year":2027,"position":"TE","stars":null,"rating_247":86.0,"committed_to":"Illinois","lat":42.0751,"lng":-93.496,"hometown_city":"Ankeny","hometown_state":"IA"},{"name":"Joe Moore","year":2027,"position":"TE","stars":null,"rating_247":null,"committed_to":"Connecticut","lat":40.2862,"lng":-82.7937,"hometown_city":"Lakewood","hometown_state":"OH"},{"name":"Phoenix Barnes","year":2027,"position":"TE","stars":null,"rating_247":null,"committed_to":null,"lat":35.5557,"lng":-79.3877,"hometown_city":"Fayetteville","hometown_state":"NC"},{"name":"Logan Mixon","year":2027,"position":"TE","stars":null,"rating_247":null,"committed_to":"Georgia State","lat":32.6415,"lng":-83.4426,"hometown_city":"Snellville","hometown_state":"GA"},{"name":"Chase Phifer","year":2027,"position":"TE","stars":null,"rating_247":null,"committed_to":null,"lat":28.6305,"lng":-82.4497,"hometown_city":"Ponte Vedra Beach","hometown_state":"FL"},{"name":"Parker Gervais","year":2027,"position":"TE","stars":null,"rating_247":null,"committed_to":null,"lat":28.6305,"lng":-82.4497,"hometown_city":"Miami","hometown_state":"FL"},{"name":"Trent Richburg","year":2027,"position":"TE","stars":null,"rating_247":null,"committed_to":null,"lat":28.6305,"lng":-82.4497,"hometown_city":"Ocala","hometown_state":"FL"},{"name":"Jack Evitts","year":2027,"position":"TE","stars":null,"rating_247":null,"committed_to":null,"lat":35.858,"lng":-86.3505,"hometown_city":"Dunlap","hometown_state":"TN"},{"name":"Fletcher Taylor","year":2027,"position":"TE","stars":null,"rating_247":null,"committed_to":null,"lat":28.6305,"lng":-82.4497,"hometown_city":"Lynn Haven","hometown_state":"FL"},{"name":"Drew Follett","year":2027,"position":"TE","stars":null,"rating_247":null,"committed_to":"South Florida","lat":28.6305,"lng":-82.4497,"hometown_city":"Orlando","hometown_state":"FL"},{"name":"Caleb Johnson","year":2027,"position":"OT","stars":null,"rating_247":90.0,"committed_to":null,"lat":39.8942,"lng":-86.2816,"hometown_city":"Noblesville","hometown_state":"IN"},{"name":"Alijah Shaw","year":2027,"position":"OT","stars":null,"rating_247":90.0,"committed_to":null,"lat":38.4937,"lng":-98.3804,"hometown_city":"Leawood","hometown_state":"KS"},{"name":"Nate Brenneman","year":2027,"position":"OT","stars":null,"rating_247":89.0,"committed_to":"Iowa","lat":42.0751,"lng":-93.496,"hometown_city":"Rock Valley","hometown_state":"IA"},{"name":"Mason McDermott","year":2027,"position":"OT","stars":null,"rating_247":89.0,"committed_to":"Indiana","lat":39.8942,"lng":-86.2816,"hometown_city":"Noblesville","hometown_state":"IN"},{"name":"Reed Gerken","year":2027,"position":"OT","stars":null,"rating_247":88.0,"committed_to":"Kentucky","lat":40.2862,"lng":-82.7937,"hometown_city":"Perrysburg","hometown_state":"OH"},