{"2026":[{"name":"Keisean Henderson","year":2026,"position":"QB","stars":5,"rating_247":100.0,"committed_to":"Houston","lat":30.0798826,"lng":-95.4172549,"hometown_city":"Spring","hometown_state":"TX"},{"name":"Dia Bell","year":2026,"position":"QB","stars":5,"rating_247":97.0,"committed_to":"Texas","lat":26.1223084,"lng":-80.1433786,"hometown_city":"Fort Lauderdale","hometown_state":"FL"},{"name":"Legend Bey","year":2026,"position":"QB","stars":4,"rating_247":93.0,"committed_to":"Ohio State","lat":32.747893,"lng":-96.4719289,"hometown_city":"Forney","hometown_state":"TX"},{"name":"Jamarion Vincent","year":2026,"position":"QB","stars":4,"rating_247":93.0,"committed_to":"Michigan","lat":31.549333,"lng":-97.1466695,"hometown_city":"Waco","hometown_state":"TX"},{"name":"Jake Fette","year":2026,"position":"QB","stars":4,"rating_247":93.0,"committed_to":"Arizona State","lat":31.7754152,"lng":-106.4646348,"hometown_city":"El Paso","hometown_state":"TX"},{"name":"Deagan Rose","year":2026,"position":"QB","stars":3,"rating_247":87.0,"committed_to":"Fresno State","lat":36.8252277,"lng":-119.7029194,"hometown_city":"Clovis","hometown_state":"CA"},{"name":"Rees Wise","year":2026,"position":"QB","stars":3,"rating_247":86.0,"committed_to":"Mississippi","lat":30.2711286,"lng":-97.7436995,"hometown_city":"Austin","hometown_state":"TX"},{"name":"Quinn Murphy","year":2026,"position":"QB","stars":3,"rating_247":85.0,"committed_to":"Baylor","lat":33.110156,"lng":-97.17940980147037,"hometown_city":"Argyle","hometown_state":"TX"},{"name":"Romin Seymour","year":2026,"position":"QB","stars":3,"rating_247":83.0,"committed_to":null,"lat":29.6185669,"lng":-95.5377215,"hometown_city":"Missouri City","hometown_state":"TX"},{"name":"Grant Smith","year":2026,"position":"QB","stars":3,"rating_247":83.0,"committed_to":"Towson","lat":30.0798826,"lng":-95.4172549,"hometown_city":"Spring","hometown_state":"TX"},{"name":"Jett Surratt","year":2026,"position":"QB","stars":3,"rating_247":81.0,"committed_to":null,"lat":32.1570412,"lng":-94.338114,"hometown_city":"Carthage","hometown_state":"TX"},{"name":"Edward Jordan","year":2026,"position":"QB","stars":null,"rating_247":null,"committed_to":"Lafayette","lat":28.6305,"lng":-82.4497,"hometown_city":"Jacksonville","hometown_state":"FL"},{"name":"KJ Edwards","year":2026,"position":"RB","stars":4,"rating_247":97.0,"committed_to":"Texas A&M","lat":32.1570412,"lng":-94.338114,"hometown_city":"Carthage","hometown_state":"TX"},{"name":"Tradarian Ball","year":2026,"position":"RB","stars":4,"rating_247":96.0,"committed_to":"Oregon","lat":33.44628645,"lng":-94.07638067493534,"hometown_city":"Texarkana","hometown_state":"TX"},{"name":"Jonathan Hatton Jr.","year":2026,"position":"RB","stars":4,"rating_247":95.0,"committed_to":"Oklahoma","lat":29.5707831,"lng":-98.2330927,"hometown_city":"Cibolo","hometown_state":"TX"},{"name":"John Hebert","year":2026,"position":"RB","stars":4,"rating_247":94.0,"committed_to":"Houston","lat":29.7589382,"lng":-95.3676974,"hometown_city":"Houston","hometown_state":"TX"},{"name":"Christian Rhodes","year":2026,"position":"RB","stars":4,"rating_247":92.0,"committed_to":"SMU","lat":32.7762719,"lng":-96.7968559,"hometown_city":"Dallas","hometown_state":"TX"},{"name":"Javian Osborne","year":2026,"position":"RB","stars":4,"rating_247":92.0,"committed_to":"Notre Dame","lat":32.747893,"lng":-96.4719289,"hometown_city":"Forney","hometown_state":"TX"},{"name":"Cardae Mack","year":2026,"position":"RB","stars":4,"rating_247":90.0,"committed_to":"Arizona State","lat":29.9988312,"lng":-95.2621553,"hometown_city":"Humble","hometown_state":"TX"},{"name":"Ace Martin","year":2026,"position":"RB","stars":null,"rating_247":90.0,"committed_to":"Texas Christian","lat":31.4757,"lng":-99.3312,"hometown_city":"Port Arthur","hometown_state":"TX"},{"name":"KD Jones","year":2026,"position":"RB","stars":3,"rating_247":89.0,"committed_to":"Oklahoma State","lat":36.0228734,"lng":-95.9683278,"hometown_city":"Jenks","hometown_state":"OK"},{"name":"DeShawn Spencer","year":2026,"position":"RB","stars":3,"rating_247":88.0,"committed_to":"Auburn","lat":30.820742,"lng":-88.0705556,"hometown_city":"Saraland","hometown_state":"AL"},{"name":"Ke'Rynn Smith","year":2026,"position":"RB","stars":3,"rating_247":87.0,"committed_to":"Louisiana","lat":29.9499323,"lng":-90.0701156,"hometown_city":"New Orleans","hometown_state":"LA"},{"name":"Reilarean Phillips","year":2026,"position":"RB","stars":3,"rating_247":87.0,"committed_to":"Tulsa","lat":29.7589382,"lng":-95.3676974,"hometown_city":"Houston","hometown_state":"TX"},{"name":"Ashton Rowden","year":2026,"position":"RB","stars":4,"rating_247":87.0,"committed_to":"Texas Tech","lat":33.4598415,"lng":-94.4154787,"hometown_city":"New Boston","hometown_state":"TX"},{"name":"Jett Walker","year":2026,"position":"RB","stars":3,"rating_247":86.0,"committed_to":"Texas","lat":30.671598,"lng":-97.65500660120435,"hometown_city":"Georgetown","hometown_state":"TX"},{"name":"Dionne Sims","year":2026,"position":"RB","stars":3,"rating_247":85.0,"committed_to":"Rice","lat":29.7589382,"lng":-95.3676974,"hometown_city":"Houston","hometown_state":"TX"},{"name":"Izayah Lee","year":2026,"position":"RB","stars":3,"rating_247":85.0,"committed_to":"Vanderbilt","lat":32.5920798,"lng":-96.7561083,"hometown_city":"Lancaster","hometown_state":"TX"},{"name":"Kyshawn Robinson","year":2026,"position":"RB","stars":3,"rating_247":84.0,"committed_to":null,"lat":25.7742658,"lng":-80.1936589,"hometown_city":"Miami","hometown_state":"FL"},{"name":"Trae Hill","year":2026,"position":"RB","stars":null,"rating_247":null,"committed_to":null,"lat":31.4757,"lng":-99.3312,"hometown_city":"Cedar Park","hometown_state":"TX"},{"name":"Ethan Feaster","year":2026,"position":"WR","stars":4,"rating_247":96.0,"committed_to":"Southern California","lat":32.6061241,"lng":-96.865612653687,"hometown_city":"DeSoto","hometown_state":"TX"},{"name":"Chase Campbell","year":2026,"position":"WR","stars":4,"rating_247":95.0,"committed_to":"Texas Tech","lat":33.5059189,"lng":-102.0090575,"hometown_city":"Wolfforth","hometown_state":"TX"},{"name":"Jordan Clay","year":2026,"position":"WR","stars":4,"rating_247":94.0,"committed_to":"Washington","lat":29.4246002,"lng":-98.4951405,"hometown_city":"San Antonio","hometown_state":"TX"},{"name":"Trez Davis","year":2026,"position":"WR","stars":4,"rating_247":92.0,"committed_to":"Washington","lat":32.5184775,"lng":-92.1476353,"hometown_city":"West Monroe","hometown_state":"LA"},{"name":"Jayden Warren","year":2026,"position":"WR","stars":4,"rating_247":92.0,"committed_to":"Texas A&M","lat":29.3521203,"lng":-95.460341,"hometown_city":"Rosharon","hometown_state":"TX"},{"name":"Kenny Darby","year":2026,"position":"WR","stars":4,"rating_247":92.0,"committed_to":"Kentucky","lat":32.5369356,"lng":-93.6952689,"hometown_city":"Bossier City","hometown_state":"LA"},{"name":"Jabari Mack","year":2026,"position":"WR","stars":4,"rating_247":91.0,"committed_to":"Louisiana State","lat":29.960933,"lng":-90.3705407077716,"hometown_city":"Destrehan","hometown_state":"LA"},{"name":"Zion Robinson","year":2026,"position":"WR","stars":4,"rating_247":91.0,"committed_to":"Stanford","lat":32.5631924,"lng":-97.1416768,"hometown_city":"Mansfield","hometown_state":"TX"},{"name":"Jeremiah Bushnell","year":2026,"position":"WR","stars":3,"rating_247":90.0,"committed_to":"Houston","lat":30.2368772,"lng":-93.0137569,"hometown_city":"Iowa","hometown_state":"LA"},{"name":"Aljour Miles II","year":2026,"position":"WR","stars":null,"rating_247":90.0,"committed_to":"SMU","lat":31.4757,"lng":-99.3312,"hometown_city":"Kaufman","hometown_state":"TX"},{"name":"Brayden Robinson","year":2026,"position":"WR","stars":4,"rating_247":90.0,"committed_to":"Notre Dame","lat":32.5117104,"lng":-96.80836332870047,"hometown_city":"Red Oak","hometown_state":"TX"},{"name":"Jayden Cration","year":2026,"position":"WR","stars":3,"rating_247":90.0,"committed_to":"Mississippi State","lat":32.6126381,"lng":-90.0367512,"hometown_city":"Canton","hometown_state":"MS"},{"name":"Kennan Pula","year":2026,"position":"WR","stars":3,"rating_247":90.0,"committed_to":"BYU","lat":40.3768954,"lng":-111.7957645,"hometown_city":"American Fork","hometown_state":"UT"},{"name":"Xavier Warren","year":2026,"position":"WR","stars":3,"rating_247":89.0,"committed_to":"Texas State","lat":30.671598,"lng":-97.65500660120435,"hometown_city":"Georgetown","hometown_state":"TX"},{"name":"Davion Peters","year":2026,"position":"WR","stars":3,"rating_247":89.0,"committed_to":"Baylor","lat":31.098207,"lng":-97.3427847,"hometown_city":"Temple","hometown_state":"TX"},{"name":"Roderick Tezeno","year":2026,"position":"WR","stars":3,"rating_247":89.0,"committed_to":"Southern California","lat":30.5335302,"lng":-92.081509,"hometown_city":"Opelousas","hometown_state":"LA"},{"name":"Chris Stewart","year":2026,"position":"WR","stars":4,"rating_247":89.0,"committed_to":"Texas","lat":29.5639758,"lng":-95.2864299,"hometown_city":"Pearland","hometown_state":"TX"},{"name":"Keavon Roberts","year":2026,"position":"WR","stars":3,"rating_247":89.0,"committed_to":"Houston","lat":29.8988618,"lng":-93.9288723,"hometown_city":"Port Arthur","hometown_state":"TX"},{"name":"Keilan Chavies","year":2026,"position":"WR","stars":3,"rating_247":88.0,"committed_to":"Boise State","lat":30.5427638,"lng":-97.5468898,"hometown_city":"Hutto","hometown_state":"TX"},{"name":"Mike Brown","year":2026,"position":"WR","stars":3,"rating_247":88.0,"committed_to":"Texas A&M","lat":30.0798826,"lng":-95.4172549,"hometown_city":"Spring","hometown_state":"TX"},{"name":"Tatum Bell Jr.","year":2026,"position":"WR","stars":3,"rating_247":88.0,"committed_to":"Nevada, Las Vegas","lat":33.046233,"lng":-96.994174,"hometown_city":"Lewisville","hometown_state":"TX"},{"name":"Keymian Henderson Jr.","year":2026,"position":"WR","stars":3,"rating_247":88.0,"committed_to":"Mississippi State","lat":32.1570412,"lng":-94.338114,"hometown_city":"Carthage","hometown_state":"TX"},{"name":"Xavier Green","year":2026,"position":"WR","stars":3,"rating_247":88.0,"committed_to":"Tulsa","lat":33.0890094,"lng":-96.8863922,"hometown_city":"The Colony","hometown_state":"TX"},{"name":"James Scott","year":2026,"position":"WR","stars":3,"rating_247":87.0,"committed_to":"Texas Christian","lat":30.3118769,"lng":-95.4560512,"hometown_city":"Conroe","hometown_state":"TX"},{"name":"Brock Boyd","year":2026,"position":"WR","stars":3,"rating_247":87.0,"committed_to":"Ohio State","lat":32.9412363,"lng":-97.1341783,"hometown_city":"Southlake","hometown_state":"TX"},{"name":"Cooper Reid","year":2026,"position":"WR","stars":3,"rating_247":87.0,"committed_to":"Texas Christian","lat":30.1902067,"lng":-98.0866781,"hometown_city":"Dripping Springs","hometown_state":"TX"},{"name":"Henry Harris","year":2026,"position":"WR","stars":3,"rating_247":87.0,"committed_to":null,"lat":29.8826436,"lng":-97.9405828,"hometown_city":"San Marcos","hometown_state":"TX"},{"name":"Davis McCray","year":2026,"position":"WR","stars":3,"rating_247":86.0,"committed_to":"Kentucky","lat":29.4246002,"lng":-98.4951405,"hometown_city":"San Antonio","hometown_state":"TX"},{"name":"Jabarie Thornton","year":2026,"position":"WR","stars":3,"rating_247":85.0,"committed_to":"Oklahoma State","lat":31.549333,"lng":-97.1466695,"hometown_city":"Waco","hometown_state":"TX"},{"name":"Imari Jehiel","year":2026,"position":"WR","stars":3,"rating_247":85.0,"committed_to":"Texas Tech","lat":32.747893,"lng":-96.4719289,"hometown_city":"Forney","hometown_state":"TX"},{"name":"Jaylen Pile","year":2026,"position":"WR","stars":3,"rating_247":85.0,"committed_to":"Michigan","lat":32.7762719,"lng":-96.7968559,"hometown_city":"Dallas","hometown_state":"TX"},{"name":"Dameon Crowe","year":2026,"position":"WR","stars":3,"rating_247":83.0,"committed_to":"Texas State","lat":32.9481789,"lng":-96.7297206,"hometown_city":"Richardson","hometown_state":"TX"},{"name":"Derrick McBride","year":2026,"position":"WR","stars":null,"rating_247":null,"committed_to":"Missouri","lat":28.6305,"lng":-82.4497,"hometown_city":"Lakeland","hometown_state":"FL"},{"name":"Kaiden Prothro","year":2026,"position":"TE","stars":4,"rating_247":97.0,"committed_to":"Georgia","lat":33.5378885,"lng":-85.2532818,"hometown_city":"Bowdon","hometown_state":"GA"},{"name":"Gavin Mueller","year":2026,"position":"TE","stars":4,"rating_247":94.0,"committed_to":"Miami","lat":41.9941938,"lng":-88.2922996,"hometown_city":"South Elgin","hometown_state":"IL"},{"name":"Jaivion Martin","year":2026,"position":"TE","stars":3,"rating_247":89.0,"committed_to":"Houston","lat":30.4241219,"lng":-95.4796587,"hometown_city":"Willis","hometown_state":"TX"},{"name":"Tyler Ruxer","year":2026,"position":"TE","stars":4,"rating_247":89.0,"committed_to":"Oklahoma","lat":38.1211634,"lng":-86.9986077,"hometown_city":"Lincoln City","hometown_state":"IN"},{"name":"Julius Miles","year":2026,"position":"TE","stars":4,"rating_247":88.0,"committed_to":"Louisville","lat":30.4982516,"lng":-86.1360517,"hometown_city":"Freeport","hometown_state":"FL"},{"name":"Zack Turner","year":2026,"position":"TE","stars":null,"rating_247":88.0,"committed_to":"SMU","lat":31.4757,"lng":-99.3312,"hometown_city":"Duncanville","hometown_state":"TX"},{"name":"Ryder Mix","year":2026,"position":"TE","stars":3,"rating_247":87.0,"committed_to":"Oklahoma","lat":33.1506744,"lng":-96.8236116,"hometown_city":"Frisco","hometown_state":"TX"},{"name":"Landen Miree","year":2026,"position":"TE","stars":3,"rating_247":87.0,"committed_to":"Arizona State","lat":39.1014537,"lng":-84.5124602,"hometown_city":"Cincinnati","hometown_state":"OH"},{"name":"Scott Smith","year":2026,"position":"TE","stars":3,"rating_247":87.0,"committed_to":null,"lat":30.4459596,"lng":-91.18738,"hometown_city":"Baton Rouge","hometown_state":"LA"},{"name":"Kevin Sullivan","year":2026,"position":"TE","stars":3,"rating_247":87.0,"committed_to":"Kansas","lat":39.100105,"lng":-94.5781416,"hometown_city":"Kansas City","hometown_state":"MO"},{"name":"Cooper McCutchan","year":2026,"position":"TE","stars":3,"rating_247":86.0,"committed_to":"Purdue","lat":39.1014537,"lng":-84.5124602,"hometown_city":"Cincinnati","hometown_state":"OH"},{"name":"Sam Hamilton","year":2026,"position":"TE","stars":3,"rating_247":86.0,"committed_to":"West Virginia","lat":39.1014537,"lng":-84.5124602,"hometown_city":"Cincinnati","hometown_state":"OH"},{"name":"Braden Bach","year":2026,"position":"TE","stars":3,"rating_247":85.0,"committed_to":"Texas Christian","lat":33.110156,"lng":-97.17940980147037,"hometown_city":"Argyle","hometown_state":"TX"},{"name":"Javar Bowden","year":2026,"position":"TE","stars":3,"rating_247":84.0,"committed_to":"Jackson State","lat":30.1600827,"lng":-85.6545729,"hometown_city":"Panama City","hometown_state":"FL"},{"name":"Felix Ojo","year":2026,"position":"OT","stars":5,"rating_247":98.0,"committed_to":"Texas Tech","lat":32.5631924,"lng":-97.1416768,"hometown_city":"Mansfield","hometown_state":"TX"},{"name":"Brysten Martinez","year":2026,"position":"OT","stars":4,"rating_247":95.0,"committed_to":"Louisiana State","lat":30.2385294,"lng":-90.9200987,"hometown_city":"Gonzales","hometown_state":"LA"},{"name":"Bryce Gilmore","year":2026,"position":"OT","stars":4,"rating_247":93.0,"committed_to":"Texas Tech","lat":33.2385763,"lng":-96.7866058,"hometown_city":"Prosper","hometown_state":"TX"},{"name":"John Turntine III","year":2026,"position":"OT","stars":4,"rating_247":93.0,"committed_to":"Texas","lat":32.753177,"lng":-97.3327459,"hometown_city":"Fort Worth","hometown_state":"TX"},{"name":"Nicholas Howard","year":2026,"position":"OT","stars":4,"rating_247":90.0,"committed_to":"Pittsburgh","lat":29.5639758,"lng":-95.2864299,"hometown_city":"Pearland","hometown_state":"TX"},{"name":"Evan Goodwin","year":2026,"position":"OT","stars":4,"rating_247":90.0,"committed_to":"SMU","lat":34.5556489,"lng":-92.5212702,"hometown_city":"Bauxite","hometown_state":"AR"},{"name":"Zaden Krempin","year":2026,"position":"OT","stars":4,"rating_247":90.0,"committed_to":"Texas A&M","lat":33.2385763,"lng":-96.7866058,"hometown_city":"Prosper","hometown_state":"TX"},{"name":"Vincent Johnson Jr.","year":2026,"position":"OT","stars":4,"rating_247":89.0,"committed_to":"Texas Christian","lat":33.1384886,"lng":-95.6010143,"hometown_city":"Sulphur Springs","hometown_state":"TX"},{"name":"Max Wright","year":2026,"position":"OT","stars":3,"rating_247":88.0,"committed_to":"SMU","lat":33.2860549,"lng":-96.5725952,"hometown_city":"Melissa","hometown_state":"TX"},{"name":"Blaise Thomassie","year":2026,"position":"OT","stars":3,"rating_247":87.0,"committed_to":"Stanford","lat":30.4459596,"lng":-91.18738,"hometown_city":"Baton Rouge","hometown_state":"LA"},{"name":"Avery Morcho","year":2026,"position":"OT","stars":3,"rating_247":87.0,"committed_to":"Texas A&M","lat":29.6185669,"lng":-95.5377215,"hometown_city":"Missouri City","hometown_state":"TX"},{"name":"Rhett Gray","year":2026,"position":"OT","stars":3,"rating_247":87.0,"committed_to":"Houston","lat":32.7589648,"lng":-97.7970748,"hometown_city":"Weatherford","hometown_state":"TX"},{"name":"Khalil Sanogo","year":2026,"position":"OT","stars":3,"rating_247":86.0,"committed_to":"Arizona","lat":32.5631924,"lng":-97.1416768,"hometown_city":"Mansfield","hometown_state":"TX"},{"name":"Troy Pless","year":2026,"position":"OT","stars":3,"rating_247":86.0,"committed_to":"Houston","lat":31.1171441,"lng":-97.727796,"hometown_city":"Killeen","hometown_state":"TX"},{"name":"Hugh Smith","year":2026,"position":"OT","stars":3,"rating_247":86.0,"committed_to":"Arkansas","lat":29.6185669,"lng":-95.5377215,"hometown_city":"Missouri City","hometown_state":"TX"},{"name":"Charlie Ward","year":2026,"position":"OT","stars":null,"rating_247":83.0,"committed_to":"Nicholls","lat":31.0689,"lng":-91.9968,"hometown_city":"Walker","hometown_state":"LA"},{"name":"Michael Milson","year":2026,"position":"OT","stars":null,"rating_247":null,"committed_to":null,"lat":31.4757,"lng":-99.3312,"hometown_city":"Port Arthur","hometown_state":"TX"},{"name":"Noah Best","year":2026,"position":"IOL","stars":3,"rating_247":89.0,"committed_to":"Oklahoma","lat":32.482361,"lng":-96.9944489,"hometown_city":"Midlothian","hometown_state":"TX"},{"name":"Pulelei'ite Primus","year":2026,"position":"IOL","stars":3,"rating_247":89.0,"committed_to":"Vanderbilt","lat":31.9973662,"lng":-102.0779482,"hometown_city":"Midland","hometown_state":"TX"},{"name":"Moses Sparks Jr.","year":2026,"position":"IOL","stars":3,"rating_247":89.0,"committed_to":"Utah","lat":35.269381,"lng":-106.632819,"hometown_city":"Rio Rancho","hometown_state":"NM"},{"name":"Nicolas Robertson","year":2026,"position":"IOL","stars":4,"rating_247":88.0,"committed_to":"Texas","lat":30.0798826,"lng":-95.4172549,"hometown_city":"Spring","hometown_state":"TX"},{"name":"Devan Robison","year":2026,"position":"IOL","stars":3,"rating_247":88.0,"committed_to":"Texas Christian","lat":29.6910625,"lng":-95.2091006,"hometown_city":"Pasadena","hometown_state":"TX"},{"name":"Leon Noil Jr.","year":2026,"position":"IOL","stars":3,"rating_247":88.0,"committed_to":"Mississippi State","lat":29.9499323,"lng":-90.0701156,"hometown_city":"New Orleans","hometown_state":"LA"},{"name":"Day'Jon Moore","year":2026,"position":"IOL","stars":3,"rating_247":87.0,"committed_to":"Maryland","lat":30.4241219,"lng":-95.4796587,"hometown_city":"Willis","hometown_state":"TX"},{"name":"Aaron Wolford","year":2026,"position":"IOL","stars":3,"rating_247":87.0,"committed_to":"Houston","lat":29.9913244,"lng":-93.9585067,"hometown_city":"Port Neches","hometown_state":"TX"},{"name":"Marcus Page Jr.","year":2026,"position":"IOL","stars":3,"rating_247":87.0,"committed_to":"Rice","lat":32.747893,"lng":-96.4719289,"hometown_city":"Forney","hometown_state":"TX"},{"name":"Jalan Chapman","year":2026,"position":"IOL","stars":3,"rating_247":87.0,"committed_to":"Mississippi","lat":29.9499323,"lng":-90.0701156,"hometown_city":"New Orleans","hometown_state":"LA"},{"name":"Jerald Mays","year":2026,"position":"IOL","stars":3,"rating_247":87.0,"committed_to":"Texas Tech","lat":30.4393696,"lng":-97.6200043,"hometown_city":"Pflugerville","hometown_state":"TX"},{"name":"Marques Uini","year":2026,"position":"IOL","stars":3,"rating_247":87.0,"committed_to":"Arizona State","lat":31.124062,"lng":-97.9030785,"hometown_city":"Copperas Cove","hometown_state":"TX"},{"name":"Rowdy Pearce","year":2026,"position":"IOL","stars":3,"rating_247":86.0,"committed_to":"Utah","lat":31.9973662,"lng":-102.0779482,"hometown_city":"Midland","hometown_state":"TX"},{"name":"Toa Katoa","year":2026,"position":"IOL","stars":null,"rating_247":86.0,"committed_to":"SMU","lat":31.4757,"lng":-99.3312,"hometown_city":"Euless","hometown_state":"TX"},{"name":"Noah Abebe","year":2026,"position":"IOL","stars":3,"rating_247":85.0,"committed_to":"Houston","lat":29.5293998,"lng":-95.2010447,"hometown_city":"Friendswood","hometown_state":"TX"},{"name":"Langston Hogg","year":2026,"position":"IOL","stars":3,"rating_247":84.0,"committed_to":"Wake Forest","lat":34.1650972,"lng":-84.7999383,"hometown_city":"Cartersville","hometown_state":"GA"},{"name":"Ryley Kester","year":2026,"position":"IOL","stars":3,"rating_247":84.0,"committed_to":"Tulsa","lat":36.0228734,"lng":-95.9683278,"hometown_city":"Jenks","hometown_state":"OK"},{"name":"Jadyn Rhodes","year":2026,"position":"IOL","stars":3,"rating_247":84.0,"committed_to":"McNeese","lat":30.0929879,"lng":-93.7365549,"hometown_city":"Orange","hometown_state":"TX"},{"name":"O'Ryan Mosley","year":2026,"position":"IOL","stars":3,"rating_247":84.0,"committed_to":"Oklahoma State","lat":29.5957696,"lng":-90.7195348,"hometown_city":"Houma","hometown_state":"LA"},{"name":"TaVeon Robinson","year":2026,"position":"IOL","stars":null,"rating_247":84.0,"committed_to":"Colorado State","lat":38.4937,"lng":-98.3804,"hometown_city":"Hutchinson","hometown_state":"KS"},{"name":"Damien Chisum","year":2026,"position":"IOL","stars":3,"rating_247":83.0,"committed_to":"Southern Arkansas","lat":33.44628645,"lng":-94.07638067493534,"hometown_city":"Texarkana","hometown_state":"TX"},{"name":"Landon Barnes","year":2026,"position":"Edge","stars":4,"rating_247":94.0,"committed_to":"Mississippi","lat":32.6518004,"lng":-96.9083366,"hometown_city":"Duncanville","hometown_state":"TX"},{"name":"Carter Buck","year":2026,"position":"Edge","stars":4,"rating_247":92.0,"committed_to":"Texas Christian","lat":30.2711286,"lng":-97.7436995,"hometown_city":"Austin","hometown_state":"TX"},{"name":"Julian Hugo","year":2026,"position":"Edge","stars":4,"rating_247":91.0,"committed_to":"Arizona State","lat":29.5707831,"lng":-98.2330927,"hometown_city":"Cibolo","hometown_state":"TX"},{"name":"Matthew Nelson","year":2026,"position":"Edge","stars":4,"rating_247":89.0,"committed_to":"Oklahoma","lat":34.5959265,"lng":-92.4890469,"hometown_city":"Bryant","hometown_state":"AR"},{"name":"Hudson Woods","year":2026,"position":"Edge","stars":3,"rating_247":89.0,"committed_to":"SMU","lat":29.885073249999998,"lng":-98.4196833729311,"hometown_city":"Spring Branch","hometown_state":"TX"},{"name":"Manny Lewis","year":2026,"position":"Edge","stars":3,"rating_247":88.0,"committed_to":"Appalachian State","lat":34.9362535,"lng":-80.75079198523316,"hometown_city":"Waxhaw","hometown_state":"NC"},{"name":"Jaylen Stewart","year":2026,"position":"Edge","stars":3,"rating_247":88.0,"committed_to":"Illinois","lat":29.5639758,"lng":-95.2864299,"hometown_city":"Pearland","hometown_state":"TX"},{"name":"Tucker Ashford","year":2026,"position":"Edge","stars":3,"rating_247":87.0,"committed_to":"Kansas State","lat":32.8342952,"lng":-97.2289029,"hometown_city":"North Richland Hills","hometown_state":"TX"},{"name":"Alijah Lash","year":2026,"position":"Edge","stars":3,"rating_247":87.0,"committed_to":"San Diego State","lat":32.96116000000001,"lng":-97.34228157049023,"hometown_city":"Haslet","hometown_state":"TX"},{"name":"Amontre Harris","year":2026,"position":"Edge","stars":3,"rating_247":87.0,"committed_to":"SMU","lat":29.9988312,"lng":-95.2621553,"hometown_city":"Humble","hometown_state":"TX"},{"name":"Jordan Harris","year":2026,"position":"Edge","stars":3,"rating_247":87.0,"committed_to":"Appalachian State","lat":34.8667565,"lng":-92.4043219,"hometown_city":"Maumelle","hometown_state":"AR"},{"name":"Tieson Ejiawoko","year":2026,"position":"Edge","stars":3,"rating_247":86.0,"committed_to":null,"lat":30.671598,"lng":-97.65500660120435,"hometown_city":"Georgetown","hometown_state":"TX"},{"name":"Mickey Williams","year":2026,"position":"Edge","stars":3,"rating_247":85.0,"committed_to":"Colorado State","lat":37.7790262,"lng":-122.4199061,"hometown_city":"San Francisco","hometown_state":"CA"},{"name":"Philander Lee","year":2026,"position":"Edge","stars":null,"rating_247":85.0,"committed_to":null,"lat":37.1841,"lng":-119.4696,"hometown_city":"Riverside","hometown_state":"CA"},{"name":"Jerious Singletary","year":2026,"position":"Edge","stars":3,"rating_247":83.0,"committed_to":"North Texas","lat":30.7235263,"lng":-95.5507771,"hometown_city":"Huntsville","hometown_state":"TX"},{"name":"Lamar Brown","year":2026,"position":"DL","stars":5,"rating_247":99.0,"committed_to":"Louisiana State","lat":30.4459596,"lng":-91.18738,"hometown_city":"Baton Rouge","hometown_state":"LA"},{"name":"Richard Anderson","year":2026,"position":"DL","stars":5,"rating_247":98.0,"committed_to":"Louisiana State","lat":29.9499323,"lng":-90.0701156,"hometown_city":"New Orleans","hometown_state":"LA"},{"name":"Jaimeon Winfield","year":2026,"position":"DL","stars":4,"rating_247":98.0,"committed_to":"Southern California","lat":32.9481789,"lng":-96.7297206,"hometown_city":"Richardson","hometown_state":"TX"},{"name":"Jamarion Carlton","year":2026,"position":"DL","stars":4,"rating_247":95.0,"committed_to":"Texas","lat":31.098207,"lng":-97.3427847,"hometown_city":"Temple","hometown_state":"TX"},{"name":"Alister Vallejo","year":2026,"position":"DL","stars":4,"rating_247":94.0,"committed_to":"Michigan","lat":30.6649119,"lng":-97.9225161,"hometown_city":"Liberty Hill","hometown_state":"TX"},{"name":"Dylan Berymon","year":2026,"position":"DL","stars":4,"rating_247":94.0,"committed_to":"Nebraska","lat":32.5093109,"lng":-92.1193012,"hometown_city":"Monroe","hometown_state":"LA"},{"name":"Jae'Lin Battle","year":2026,"position":"DL","stars":4,"rating_247":93.0,"committed_to":"Baylor","lat":35.6571367,"lng":-97.4649038,"hometown_city":"Edmond","hometown_state":"OK"},{"name":"Tajh Overton","year":2026,"position":"DL","stars":4,"rating_247":93.0,"committed_to":"Missouri","lat":36.2661536,"lng":-95.8549456,"hometown_city":"Owasso","hometown_state":"OK"},{"name":"KJ Ford","year":2026,"position":"DL","stars":4,"rating_247":92.0,"committed_to":"Florida","lat":32.6518004,"lng":-96.9083366,"hometown_city":"Duncanville","hometown_state":"TX"},{"name":"Emanuel Tucker","year":2026,"position":"DL","stars":4,"rating_247":90.0,"committed_to":"Mississippi","lat":34.4942683,"lng":-89.0078418,"hometown_city":"New Albany","hometown_state":"MS"},{"name":"Jimmy-Phrisco Alo-Suliafu","year":2026,"position":"DL","stars":3,"rating_247":90.0,"committed_to":"North Carolina","lat":29.690292,"lng":-95.8996261,"hometown_city":"Fulshear","hometown_state":"TX"},{"name":"Demarcus Johnson","year":2026,"position":"DL","stars":null,"rating_247":90.0,"committed_to":"Missouri","lat":38.4937,"lng":-98.3804,"hometown_city":"Hutchinson","hometown_state":"KS"},{"name":"Chris Addison","year":2026,"position":"DL","stars":3,"rating_247":89.0,"committed_to":"Mississippi State","lat":32.1632079,"lng":-91.720681,"hometown_city":"Winnsboro","hometown_state":"LA"},{"name":"Jesse Ford","year":2026,"position":"DL","stars":4,"rating_247":88.0,"committed_to":"Texas Christian","lat":32.701938999999996,"lng":-97.10562379033699,"hometown_city":"Arlington","hometown_state":"TX"},{"name":"Ari Slocum","year":2026,"position":"DL","stars":3,"rating_247":88.0,"committed_to":"Southern Mississippi","lat":32.7734728,"lng":-92.4056986,"hometown_city":"Farmerville","hometown_state":"LA"},{"name":"Daryl Campbell","year":2026,"position":"DL","stars":3,"rating_247":88.0,"committed_to":"Vanderbilt","lat":29.7857853,"lng":-95.8243956,"hometown_city":"Katy","hometown_state":"TX"},{"name":"Tiki Hola","year":2026,"position":"DL","stars":4,"rating_247":88.0,"committed_to":"Notre Dame","lat":30.1104947,"lng":-97.3152701,"hometown_city":"Bastrop","hometown_state":"TX"},{"name":"Viliami Moala","year":2026,"position":"DL","stars":3,"rating_247":88.0,"committed_to":"North Carolina","lat":33.2442813,"lng":-86.8163773,"hometown_city":"Alabaster","hometown_state":"AL"},{"name":"Kaleb Walker","year":2026,"position":"DL","stars":3,"rating_247":88.0,"committed_to":"Houston","lat":32.5156971,"lng":-95.4093998,"hometown_city":"Lindale","hometown_state":"TX"},{"name":"Carnell Jackson","year":2026,"position":"DL","stars":3,"rating_247":88.0,"committed_to":"Kansas State","lat":32.6550905,"lng":-85.50364346309962,"hometown_city":"Auburn","hometown_state":"AL"},{"name":"Isaiah Broughton","year":2026,"position":"DL","stars":3,"rating_247":88.0,"committed_to":"Houston","lat":29.7589382,"lng":-95.3676974,"hometown_city":"Houston","hometown_state":"TX"},{"name":"Duncan McGhee","year":2026,"position":"DL","stars":3,"rating_247":87.0,"committed_to":"Texas Christian","lat":33.44628645,"lng":-94.07638067493534,"hometown_city":"Texarkana","hometown_state":"TX"},{"name":"Ben Duncum","year":2026,"position":"DL","stars":3,"rating_247":87.0,"committed_to":"Kentucky","lat":30.2711286,"lng":-97.7436995,"hometown_city":"Austin","hometown_state":"TX"},{"name":"Jake Johnson","year":2026,"position":"DL","stars":3,"rating_247":87.0,"committed_to":"Southern California","lat":33.2385763,"lng":-96.7866058,"hometown_city":"Prosper","hometown_state":"TX"},{"name":"Darryus McKinley","year":2026,"position":"DL","stars":3,"rating_247":87.0,"committed_to":"Ohio State","lat":30.2240897,"lng":-92.0198427,"hometown_city":"Lafayette","hometown_state":"LA"},{"name":"Na'kwaine Carter","year":2026,"position":"DL","stars":3,"rating_247":87.0,"committed_to":"Kansas","lat":35.3395135,"lng":-97.4867045,"hometown_city":"Moore","hometown_state":"OK"},{"name":"Kordae Houston","year":2026,"position":"DL","stars":3,"rating_247":87.0,"committed_to":"Syracuse","lat":32.7762719,"lng":-96.7968559,"hometown_city":"Dallas","hometown_state":"TX"},{"name":"Freddie Wilson","year":2026,"position":"DL","stars":3,"rating_247":86.0,"committed_to":"Georgia State","lat":29.101628050000002,"lng":-81.01059617608054,"hometown_city":"Port Orange","hometown_state":"FL"},{"name":"Xavier Fleming","year":2026,"position":"DL","stars":3,"rating_247":86.0,"committed_to":"Houston","lat":33.046233,"lng":-96.994174,"hometown_city":"Lewisville","hometown_state":"TX"},{"name":"Kaden Scherer","year":2026,"position":"DL","stars":3,"rating_247":86.0,"committed_to":"Texas","lat":30.671598,"lng":-97.65500660120435,"hometown_city":"Georgetown","hometown_state":"TX"},{"name":"Uzziah Warmate","year":2026,"position":"DL","stars":3,"rating_247":86.0,"committed_to":"Sam Houston","lat":33.2150386,"lng":-97.1330516,"hometown_city":"Denton","hometown_state":"TX"},{"name":"Kaleb Morris","year":2026,"position":"DL","stars":3,"rating_247":86.0,"committed_to":"Mississippi State","lat":30.778688,"lng":-88.2588427,"hometown_city":"Semmes","hometown_state":"AL"},{"name":"Darrius Simmons","year":2026,"position":"DL","stars":3,"rating_247":85.0,"committed_to":"Cincinnati","lat":30.6255617,"lng":-84.4153769,"hometown_city":"Havana","hometown_state":"FL"},{"name":"Maddox Flynt","year":2026,"position":"DL","stars":3,"rating_247":85.0,"committed_to":"Texas Christian","lat":30.2711286,"lng":-97.7436995,"hometown_city":"Austin","hometown_state":"TX"},{"name":"Keith Dotie","year":2026,"position":"DL","stars":3,"rating_247":85.0,"committed_to":"SMU","lat":32.7666103,"lng":-96.599472,"hometown_city":"Mesquite","hometown_state":"TX"},{"name":"Chris Knauls","year":2026,"position":"DL","stars":null,"rating_247":85.0,"committed_to":"Rice","lat":31.4757,"lng":-99.3312,"hometown_city":"Frisco","hometown_state":"TX"},{"name":"Jeffrey Manns","year":2026,"position":"DL","stars":null,"rating_247":85.0,"committed_to":"Arizona State","lat":38.4937,"lng":-98.3804,"hometown_city":"Hutchinson","hometown_state":"KS"},{"name":"Cam Christian","year":2026,"position":"DL","stars":null,"rating_247":84.0,"committed_to":"Texas State","lat":31.4757,"lng":-99.3312,"hometown_city":"Kilgore","hometown_state":"TX"},{"name":"Kore Thomas","year":2026,"position":"DL","stars":3,"rating_247":83.0,"committed_to":"Bowling Green","lat":32.7762719,"lng":-96.7968559,"hometown_city":"Dallas","hometown_state":"TX"},{"name":"Tyler Hagler","year":2026,"position":"DL","stars":3,"rating_247":83.0,"committed_to":null,"lat":32.7312256,"lng":-94.9469309,"hometown_city":"Gilmer","hometown_state":"TX"},{"name":"Anthony Jones Jr.","year":2026,"position":"LB","stars":null,"rating_247":98.0,"committed_to":"Oregon","lat":32.7794,"lng":-86.8287,"hometown_city":"Mobile","hometown_state":"AL"},{"name":"Kosi Okpala","year":2026,"position":"LB","stars":4,"rating_247":96.0,"committed_to":"Texas","lat":29.7589382,"lng":-95.3676974,"hometown_city":"Houston","hometown_state":"TX"},{"name":"Carson Crawford","year":2026,"position":"LB","stars":3,"rating_247":92.0,"committed_to":"Colorado","lat":32.1570412,"lng":-94.338114,"hometown_city":"Carthage","hometown_state":"TX"},{"name":"Qui Beck","year":2026,"position":"LB","stars":null,"rating_247":91.0,"committed_to":"Texas A&M","lat":31.4757,"lng":-99.3312,"hometown_city":"Carthage","hometown_state":"TX"},{"name":"Tank King","year":2026,"position":"LB","stars":4,"rating_247":91.0,"committed_to":"Texas A&M","lat":29.8988618,"lng":-93.9288723,"hometown_city":"Port Arthur","hometown_state":"TX"},{"name":"JJ Bush","year":2026,"position":"LB","stars":4,"rating_247":90.0,"committed_to":"Missouri","lat":30.547295,"lng":-88.18020367595204,"hometown_city":"Theodore","hometown_state":"AL"},{"name":"Justin Edwards","year":2026,"position":"LB","stars":3,"rating_247":89.0,"committed_to":"Miami","lat":28.5421109,"lng":-81.3790304,"hometown_city":"Orlando","hometown_state":"FL"},{"name":"Calvin Thomas","year":2026,"position":"LB","stars":4,"rating_247":89.0,"committed_to":"North Carolina","lat":29.9691116,"lng":-95.6971686,"hometown_city":"Cypress","hometown_state":"TX"},{"name":"Ja'Michael Garrett","year":2026,"position":"LB","stars":null,"rating_247":88.0,"committed_to":"Mississippi","lat":31.0689,"lng":-91.9968,"hometown_city":"Baton Rouge","hometown_state":"LA"},{"name":"Bryson Castile","year":2026,"position":"LB","stars":3,"rating_247":87.0,"committed_to":"Houston","lat":32.701938999999996,"lng":-97.10562379033699,"hometown_city":"Arlington","hometown_state":"TX"},{"name":"Joseph Credit","year":2026,"position":"LB","stars":3,"rating_247":86.0,"committed_to":"Kansas","lat":29.5639758,"lng":-95.2864299,"hometown_city":"Pearland","hometown_state":"TX"},{"name":"Tyler Covar","year":2026,"position":"LB","stars":3,"rating_247":86.0,"committed_to":"Houston","lat":30.2093794,"lng":-95.7507815,"hometown_city":"Magnolia","hometown_state":"TX"},{"name":"Noriel Dominguez","year":2026,"position":"LB","stars":3,"rating_247":86.0,"committed_to":"Texas Christian","lat":29.5821811,"lng":-95.7607832,"hometown_city":"Richmond","hometown_state":"TX"},{"name":"Japrei Wafer","year":2026,"position":"LB","stars":3,"rating_247":84.0,"committed_to":"Texas-El Paso","lat":33.1031744,"lng":-96.6705503,"hometown_city":"Allen","hometown_state":"TX"},{"name":"Jermaine Bishop","year":2026,"position":"CB","stars":4,"rating_247":98.0,"committed_to":"Texas","lat":30.4241219,"lng":-95.4796587,"hometown_city":"Willis","hometown_state":"TX"},{"name":"Elbert Hill IV","year":2026,"position":"CB","stars":null,"rating_247":95.0,"committed_to":"Southern California","lat":40.2862,"lng":-82.7937,"hometown_city":"Akron","hometown_state":"OH"},{"name":"Camdin Portis","year":2026,"position":"CB","stars":4,"rating_247":94.0,"committed_to":"Miami","lat":35.2272,"lng":-80.843083,"hometown_city":"Charlotte","hometown_state":"NC"},{"name":"Paris Melvin Jr.","year":2026,"position":"CB","stars":4,"rating_247":94.0,"committed_to":"Houston","lat":29.9691116,"lng":-95.6971686,"hometown_city":"Cypress","hometown_state":"TX"},{"name":"Jaelen Waters","year":2026,"position":"CB","stars":4,"rating_247":94.0,"committed_to":"Miami","lat":27.998541000000003,"lng":-82.27488400114905,"hometown_city":"Seffner","hometown_state":"FL"},{"name":"S'Vioarean Martin","year":2026,"position":"CB","stars":4,"rating_247":93.0,"committed_to":"Texas Tech","lat":31.7621153,"lng":-95.6307891,"hometown_city":"Palestine","hometown_state":"TX"},{"name":"Dylan Purter","year":2026,"position":"CB","stars":4,"rating_247":92.0,"committed_to":"Florida","lat":32.4240286,"lng":-85.6916195,"hometown_city":"Tuskegee","hometown_state":"AL"},{"name":"Hayward Howard Jr.","year":2026,"position":"CB","stars":4,"rating_247":91.0,"committed_to":"Texas","lat":29.9499323,"lng":-90.0701156,"hometown_city":"New Orleans","hometown_state":"LA"},{"name":"Jason Bradford","year":2026,"position":"CB","stars":4,"rating_247":91.0,"committed_to":"Texas Christian","lat":31.098207,"lng":-97.3427847,"hometown_city":"Temple","hometown_state":"TX"},{"name":"Donovan Webb","year":2026,"position":"CB","stars":4,"rating_247":90.0,"committed_to":"Texas Tech","lat":33.1506744,"lng":-96.8236116,"hometown_city":"Frisco","hometown_state":"TX"},{"name":"Zach Taylor","year":2026,"position":"CB","stars":null,"rating_247":89.0,"committed_to":"Texas Christian","lat":31.4757,"lng":-99.3312,"hometown_city":"Fulshear","hometown_state":"TX"},{"name":"Josiah Vilmael","year":2026,"position":"CB","stars":3,"rating_247":88.0,"committed_to":"Kansas State","lat":29.5821811,"lng":-95.7607832,"hometown_city":"Richmond","hometown_state":"TX"},{"name":"Xavier Harmon","year":2026,"position":"CB","stars":3,"rating_247":88.0,"committed_to":"Stanford","lat":30.3118769,"lng":-95.4560512,"hometown_city":"Conroe","hometown_state":"TX"},{"name":"Deuce Gilbert","year":2026,"position":"CB","stars":null,"rating_247":88.0,"committed_to":"SMU","lat":31.4757,"lng":-99.3312,"hometown_city":"Forney","hometown_state":"TX"},{"name":"Isaiah Williams","year":2026,"position":"CB","stars":3,"rating_247":88.0,"committed_to":"Illinois","lat":38.6779591,"lng":-121.1760583,"hometown_city":"Folsom","hometown_state":"CA"},{"name":"Victor Lincoln Jr.","year":2026,"position":"CB","stars":null,"rating_247":87.0,"committed_to":"Mississippi","lat":31.4757,"lng":-99.3312,"hometown_city":"Lancaster","hometown_state":"TX"},{"name":"Isaiah McMillian","year":2026,"position":"CB","stars":3,"rating_247":87.0,"committed_to":"Kentucky","lat":29.7857853,"lng":-95.8243956,"hometown_city":"Katy","hometown_state":"TX"},{"name":"DaQuwan Dunn","year":2026,"position":"CB","stars":3,"rating_247":87.0,"committed_to":"Arizona State","lat":32.9481789,"lng":-96.7297206,"hometown_city":"Richardson","hometown_state":"TX"},{"name":"Prince Jean","year":2026,"position":"CB","stars":3,"rating_247":86.0,"committed_to":"Kentucky","lat":30.8327022,"lng":-83.2784851,"hometown_city":"Valdosta","hometown_state":"GA"},{"name":"James Henderson III","year":2026,"position":"CB","stars":3,"rating_247":86.0,"committed_to":"Houston","lat":29.7589382,"lng":-95.3676974,"hometown_city":"Houston","hometown_state":"TX"},{"name":"Maliek Bracy","year":2026,"position":"CB","stars":3,"rating_247":86.0,"committed_to":"Oklahoma State","lat":33.110156,"lng":-97.17940980147037,"hometown_city":"Argyle","hometown_state":"TX"},{"name":"Maddox Quiller","year":2026,"position":"CB","stars":3,"rating_247":86.0,"committed_to":"Texas Tech","lat":30.4393696,"lng":-97.6200043,"hometown_city":"Pflugerville","hometown_state":"TX"},{"name":"Kai Wheaton","year":2026,"position":"CB","stars":3,"rating_247":86.0,"committed_to":"Oregon State","lat":33.1031744,"lng":-96.6705503,"hometown_city":"Allen","hometown_state":"TX"},{"name":"Brock King","year":2026,"position":"CB","stars":3,"rating_247":86.0,"committed_to":"Texas Christian","lat":29.8988618,"lng":-93.9288723,"hometown_city":"Port Arthur","hometown_state":"TX"},{"name":"Mojo Williams Jr.","year":2026,"position":"CB","stars":null,"rating_247":85.0,"committed_to":"Colorado","lat":31.0689,"lng":-91.9968,"hometown_city":"New Orleans","hometown_state":"LA"},{"name":"Brandon Ford","year":2026,"position":"CB","stars":3,"rating_247":85.0,"committed_to":"Arkansas","lat":32.5782835,"lng":-97.3609829,"hometown_city":"Crowley","hometown_state":"TX"},{"name":"Syncere Berry","year":2026,"position":"CB","stars":3,"rating_247":84.0,"committed_to":"Appalachian State","lat":33.7490987,"lng":-84.3901849,"hometown_city":"Atlanta","hometown_state":"GA"},{"name":"Lebron Bauer","year":2026,"position":"CB","stars":null,"rating_247":83.0,"committed_to":"Oklahoma","lat":31.4757,"lng":-99.3312,"hometown_city":"Allen","hometown_state":"TX"},{"name":"Blaine Bradford","year":2026,"position":"S","stars":4,"rating_247":94.0,"committed_to":"Ohio State","lat":30.4459596,"lng":-91.18738,"hometown_city":"Baton Rouge","hometown_state":"LA"},{"name":"Aiden Hall","year":2026,"position":"S","stars":4,"rating_247":92.0,"committed_to":"Louisiana State","lat":29.9499323,"lng":-90.0701156,"hometown_city":"New Orleans","hometown_state":"LA"},{"name":"Chance Collins","year":2026,"position":"S","stars":4,"rating_247":91.0,"committed_to":"Texas A&M","lat":32.701938999999996,"lng":-97.10562379033699,"hometown_city":"Arlington","hometown_state":"TX"},{"name":"Jordan Deck","year":2026,"position":"S","stars":4,"rating_247":90.0,"committed_to":"Michigan","lat":33.1506744,"lng":-96.8236116,"hometown_city":"Frisco","hometown_state":"TX"},{"name":"Adam Auston","year":2026,"position":"S","stars":3,"rating_247":88.0,"committed_to":"Boise State","lat":34.6086854,"lng":-98.3903305,"hometown_city":"Lawton","hometown_state":"OK"},{"name":"Jordan Davis","year":2026,"position":"S","stars":3,"rating_247":88.0,"committed_to":"Baylor","lat":26.0112014,"lng":-80.1494901,"hometown_city":"Hollywood","hometown_state":"FL"},{"name":"Daijon Gaines","year":2026,"position":"S","stars":3,"rating_247":88.0,"committed_to":"Pittsburg State","lat":36.1556805,"lng":-95.9929113,"hometown_city":"Tulsa","hometown_state":"OK"},{"name":"Markel Ford","year":2026,"position":"S","stars":3,"rating_247":88.0,"committed_to":"Oklahoma","lat":32.7666103,"lng":-96.599472,"hometown_city":"Mesquite","hometown_state":"TX"},{"name":"Bradley Brown","year":2026,"position":"S","stars":3,"rating_247":87.0,"committed_to":"Vanderbilt","lat":33.0136764,"lng":-96.6925096,"hometown_city":"Plano","hometown_state":"TX"},{"name":"Kah'ni Watts","year":2026,"position":"S","stars":null,"rating_247":86.0,"committed_to":"Wisconsin","lat":31.4757,"lng":-99.3312,"hometown_city":"Iowa Colony","hometown_state":"TX"},{"name":"Javen Holmes","year":2026,"position":"S","stars":3,"rating_247":86.0,"committed_to":"Houston","lat":30.4459596,"lng":-91.18738,"hometown_city":"Baton Rouge","hometown_state":"LA"},{"name":"Brody Jones","year":2026,"position":"S","stars":3,"rating_247":86.0,"committed_to":"Missouri","lat":30.507956,"lng":-87.89742922432941,"hometown_city":"Fairhope","hometown_state":"AL"},{"name":"Antione Baker","year":2026,"position":"S","stars":3,"rating_247":86.0,"committed_to":"Vanderbilt","lat":30.2711286,"lng":-97.7436995,"hometown_city":"Austin","hometown_state":"TX"},{"name":"Da'Mare Williams","year":2026,"position":"S","stars":null,"rating_247":86.0,"committed_to":"West Virginia","lat":38.4937,"lng":-98.3804,"hometown_city":"Coffeyville","hometown_state":"KS"},{"name":"Mudassir Abdullah","year":2026,"position":"S","stars":3,"rating_247":85.0,"committed_to":"Houston","lat":29.1438582,"lng":-95.6452249,"hometown_city":"West Columbia","hometown_state":"TX"},{"name":"Braylon Edwards","year":2026,"position":"S","stars":3,"rating_247":85.0,"committed_to":"Colorado","lat":32.6518004,"lng":-96.9083366,"hometown_city":"Duncanville","hometown_state":"TX"},{"name":"Jalen Lott","year":2026,"position":"ATH","stars":5,"rating_247":97.0,"committed_to":"Oregon","lat":33.1506744,"lng":-96.8236116,"hometown_city":"Frisco","hometown_state":"TX"},{"name":"Davian Groce","year":2026,"position":"ATH","stars":4,"rating_247":96.0,"committed_to":"Florida","lat":33.1506744,"lng":-96.8236116,"hometown_city":"Frisco","hometown_state":"TX"},{"name":"Dez Ellis","year":2026,"position":"ATH","stars":null,"rating_247":92.0,"committed_to":"Louisiana State","lat":31.0689,"lng":-91.9968,"hometown_city":"Winnsboro","hometown_state":"LA"},{"name":"Jaron Pula","year":2026,"position":"ATH","stars":4,"rating_247":91.0,"committed_to":"BYU","lat":40.3768954,"lng":-111.7957645,"hometown_city":"American Fork","hometown_state":"UT"},{"name":"Ryelan Morris","year":2026,"position":"ATH","stars":4,"rating_247":91.0,"committed_to":"Baylor","lat":33.5834377,"lng":-95.9099681,"hometown_city":"Honey Grove","hometown_state":"TX"},{"name":"Kaydon Finley","year":2026,"position":"ATH","stars":4,"rating_247":91.0,"committed_to":"Notre Dame","lat":32.69900905,"lng":-97.60396629774493,"hometown_city":"Aledo","hometown_state":"TX"},{"name":"London Smith","year":2026,"position":"ATH","stars":4,"rating_247":90.0,"committed_to":"Baylor","lat":31.549333,"lng":-97.1466695,"hometown_city":"Waco","hometown_state":"TX"},{"name":"La'Keyleon Graves","year":2026,"position":"ATH","stars":null,"rating_247":90.0,"committed_to":"Texas State","lat":31.4757,"lng":-99.3312,"hometown_city":"Kilgore","hometown_state":"TX"},{"name":"X'Zavier Barnett","year":2026,"position":"ATH","stars":3,"rating_247":89.0,"committed_to":"SMU","lat":29.289352,"lng":-97.1492978,"hometown_city":"Yoakum","hometown_state":"TX"},{"name":"Dequane Prevo","year":2026,"position":"ATH","stars":4,"rating_247":89.0,"committed_to":"Arkansas","lat":36.3728538,"lng":-94.2088172,"hometown_city":"Bentonville","hometown_state":"AR"},{"name":"Jermaine Santana-Diaz","year":2026,"position":"ATH","stars":3,"rating_247":88.0,"committed_to":"Colorado State","lat":29.6185669,"lng":-95.5377215,"hometown_city":"Missouri City","hometown_state":"TX"},{"name":"Jaden Parker","year":2026,"position":"ATH","stars":3,"rating_247":87.0,"committed_to":"Arizona","lat":33.34928,"lng":-96.54938,"hometown_city":"Anna","hometown_state":"TX"},{"name":"Aaron Bradshaw","year":2026,"position":"ATH","stars":3,"rating_247":87.0,"committed_to":"Texas Tech","lat":32.753177,"lng":-97.3327459,"hometown_city":"Fort Worth","hometown_state":"TX"},{"name":"Caleb Smith","year":2026,"position":"ATH","stars":3,"rating_247":87.0,"committed_to":"Arizona","lat":33.1031744,"lng":-96.6705503,"hometown_city":"Allen","hometown_state":"TX"},{"name":"Yaheim Riley","year":2026,"position":"ATH","stars":3,"rating_247":86.0,"committed_to":"Texas","lat":30.2711286,"lng":-97.7436995,"hometown_city":"Austin","hometown_state":"TX"},{"name":"Jorden Prince","year":2026,"position":"ATH","stars":null,"rating_247":86.0,"committed_to":null,"lat":31.4757,"lng":-99.3312,"hometown_city":"Beckville","hometown_state":"TX"},{"name":"Payhton Porter","year":2026,"position":"ATH","stars":3,"rating_247":85.0,"committed_to":null,"lat":33.2860549,"lng":-96.5725952,"hometown_city":"Melissa","hometown_state":"TX"},{"name":"Caton Cramer","year":2026,"position":"ATH","stars":3,"rating_247":84.0,"committed_to":"Air Force","lat":32.7189926,"lng":-102.6449101,"hometown_city":"Seminole","hometown_state":"TX"},{"name":"Damian Horace","year":2026,"position":"ATH","stars":3,"rating_247":82.0,"committed_to":"Air Force","lat":30.3118769,"lng":-95.4560512,"hometown_city":"Conroe","hometown_state":"TX"}],"2027":[{"name":"Elijah Haven","year":2027,"position":"QB","stars":null,"rating_247":98.0,"committed_to":"Alabama","lat":31.0689,"lng":-91.9968,"hometown_city":"Baton Rouge","hometown_state":"LA"},{"name":"Kavian Bryant","year":2027,"position":"QB","stars":null,"rating_247":93.0,"committed_to":"Texas Tech","lat":31.4757,"lng":-99.3312,"hometown_city":"Palestine","hometown_state":"TX"},{"name":"Peyton Houston","year":2027,"position":"QB","stars":null,"rating_247":92.0,"committed_to":"Louisiana State","lat":31.0689,"lng":-91.9968,"hometown_city":"Shreveport","hometown_state":"LA"},{"name":"Malachi Zeigler","year":2027,"position":"QB","stars":null,"rating_247":90.0,"committed_to":"SMU","lat":31.0689,"lng":-91.9968,"hometown_city":"Benton","hometown_state":"LA"},{"name":"Kamden Lopati","year":2027,"position":"QB","stars":null,"rating_247":89.0,"committed_to":"Michigan","lat":39.321,"lng":-111.0937,"hometown_city":"Salt Lake City","hometown_state":"UT"},{"name":"Weston Nielsen","year":2027,"position":"QB","stars":null,"rating_247":89.0,"committed_to":"Arizona State","lat":31.4757,"lng":-99.3312,"hometown_city":"Bastrop","hometown_state":"TX"},{"name":"Luke Babin","year":2027,"position":"QB","stars":null,"rating_247":88.0,"committed_to":"Baylor","lat":31.4757,"lng":-99.3312,"hometown_city":"Woodville","hometown_state":"TX"},{"name":"Braden Baker","year":2027,"position":"QB","stars":null,"rating_247":88.0,"committed_to":"Houston","lat":31.4757,"lng":-99.3312,"hometown_city":"Cypress","hometown_state":"TX"},{"name":"Ty Knutson","year":2027,"position":"QB","stars":null,"rating_247":87.0,"committed_to":"Texas","lat":31.4757,"lng":-99.3312,"hometown_city":"Spring Branch","hometown_state":"TX"},{"name":"Brice McCurdy","year":2027,"position":"QB","stars":null,"rating_247":86.0,"committed_to":"Texas Christian","lat":31.4757,"lng":-99.3312,"hometown_city":"Robinson","hometown_state":"TX"},{"name":"Cason Myers","year":2027,"position":"QB","stars":null,"rating_247":86.0,"committed_to":"Arkansas","lat":32.7794,"lng":-86.8287,"hometown_city":"Auburn","hometown_state":"AL"},{"name":"Jerry Meyer III","year":2027,"position":"QB","stars":null,"rating_247":85.0,"committed_to":"South Carolina","lat":31.4757,"lng":-99.3312,"hometown_city":"Waxahachie","hometown_state":"TX"},{"name":"Zephyr Kreye","year":2027,"position":"QB","stars":null,"rating_247":null,"committed_to":null,"lat":31.4757,"lng":-99.3312,"hometown_city":"Anna","hometown_state":"TX"},{"name":"Landen Williams-Callis","year":2027,"position":"RB","stars":null,"rating_247":95.0,"committed_to":null,"lat":31.4757,"lng":-99.3312,"hometown_city":"Richmond","hometown_state":"TX"},{"name":"CaDarius McMiller","year":2027,"position":"RB","stars":null,"rating_247":90.0,"committed_to":"Oregon","lat":31.4757,"lng":-99.3312,"hometown_city":"Tyler","hometown_state":"TX"},{"name":"Lathan Whisenton","year":2027,"position":"RB","stars":null,"rating_247":90.0,"committed_to":"Notre Dame","lat":31.4757,"lng":-99.3312,"hometown_city":"Waco","hometown_state":"TX"},{"name":"Daylon Gordon","year":2027,"position":"RB","stars":null,"rating_247":90.0,"committed_to":"Texas State","lat":31.4757,"lng":-99.3312,"hometown_city":"Wylie","hometown_state":"TX"},{"name":"Jayden Miles","year":2027,"position":"RB","stars":null,"rating_247":90.0,"committed_to":"Florida State","lat":31.0689,"lng":-91.9968,"hometown_city":"Baton Rouge","hometown_state":"LA"},{"name":"Brennen Lacey","year":2027,"position":"RB","stars":null,"rating_247":88.0,"committed_to":"Louisiana State","lat":31.4757,"lng":-99.3312,"hometown_city":"Frisco","hometown_state":"TX"},{"name":"Jayshon Gibson","year":2027,"position":"RB","stars":null,"rating_247":88.0,"committed_to":"UCLA","lat":31.4757,"lng":-99.3312,"hometown_city":"North Richland Hills","hometown_state":"TX"},{"name":"Kendray Porter Jr.","year":2027,"position":"RB","stars":null,"rating_247":88.0,"committed_to":"Houston","lat":31.4757,"lng":-99.3312,"hometown_city":"Newton","hometown_state":"TX"},{"name":"Wayne Shanks Jr.","year":2027,"position":"RB","stars":null,"rating_247":88.0,"committed_to":"Arizona","lat":31.4757,"lng":-99.3312,"hometown_city":"Houston","hometown_state":"TX"},{"name":"Correll Buckhalter Jr.","year":2027,"position":"RB","stars":null,"rating_247":87.0,"committed_to":"Kansas State","lat":31.4757,"lng":-99.3312,"hometown_city":"Argyle","hometown_state":"TX"},{"name":"Antwon Sanders","year":2027,"position":"RB","stars":null,"rating_247":86.0,"committed_to":"California","lat":31.4757,"lng":-99.3312,"hometown_city":"Houston","hometown_state":"TX"},{"name":"Jakoby Dixon","year":2027,"position":"RB","stars":null,"rating_247":86.0,"committed_to":"Oklahoma","lat":31.4757,"lng":-99.3312,"hometown_city":"Brenham","hometown_state":"TX"},{"name":"Ar'mand Stevens","year":2027,"position":"RB","stars":null,"rating_247":null,"committed_to":null,"lat":37.5215,"lng":-78.8537,"hometown_city":"Springfield","hometown_state":"VA"},{"name":"Jermond Macklin","year":2027,"position":"RB","stars":null,"rating_247":null,"committed_to":null,"lat":31.0689,"lng":-91.9968,"hometown_city":"New Orleans","hometown_state":"LA"},{"name":"Easton Royal","year":2027,"position":"WR","stars":null,"rating_247":98.0,"committed_to":"Texas","lat":31.0689,"lng":-91.9968,"hometown_city":"New Orleans","hometown_state":"LA"},{"name":"Benny Easter Jr.","year":2027,"position":"WR","stars":null,"rating_247":92.0,"committed_to":"Texas Tech","lat":31.4757,"lng":-99.3312,"hometown_city":"Humble","hometown_state":"TX"},{"name":"Alvin Mosley","year":2027,"position":"WR","stars":null,"rating_247":92.0,"committed_to":null,"lat":31.4757,"lng":-99.3312,"hometown_city":"Rosharon","hometown_state":"TX"},{"name":"Tre Moore","year":2027,"position":"WR","stars":null,"rating_247":90.0,"committed_to":"Washington","lat":31.4757,"lng":-99.3312,"hometown_city":"Pflugerville","hometown_state":"TX"},{"name":"Branden Sharpe","year":2027,"position":"WR","stars":null,"rating_247":90.0,"committed_to":"Indiana","lat":39.8942,"lng":-86.2816,"hometown_city":"Brownsburg","hometown_state":"IN"},{"name":"Trey Haralson","year":2027,"position":"WR","stars":null,"rating_247":89.0,"committed_to":"SMU","lat":31.4757,"lng":-99.3312,"hometown_city":"Tyler","hometown_state":"TX"},{"name":"Jeremiah Douglas","year":2027,"position":"WR","stars":null,"rating_247":88.0,"committed_to":"Vanderbilt","lat":31.4757,"lng":-99.3312,"hometown_city":"Crandall","hometown_state":"TX"},{"name":"Miguel Whitley","year":2027,"position":"WR","stars":null,"rating_247":88.0,"committed_to":"Mississippi","lat":31.0689,"lng":-91.9968,"hometown_city":"New Orleans","hometown_state":"LA"},{"name":"Javon Vital","year":2027,"position":"WR","stars":null,"rating_247":88.0,"committed_to":"Southern California","lat":31.0689,"lng":-91.9968,"hometown_city":"Lake Charles","hometown_state":"LA"},{"name":"Gary Burney Jr.","year":2027,"position":"WR","stars":null,"rating_247":88.0,"committed_to":"Houston","lat":31.0689,"lng":-91.9968,"hometown_city":"Bossier City","hometown_state":"LA"},{"name":"Kobe Haynes","year":2027,"position":"WR","stars":null,"rating_247":88.0,"committed_to":null,"lat":31.4757,"lng":-99.3312,"hometown_city":"Whitney","hometown_state":"TX"},{"name":"Hunter Haug","year":2027,"position":"WR","stars":null,"rating_247":88.0,"committed_to":null,"lat":31.4757,"lng":-99.3312,"hometown_city":"Spring Branch","hometown_state":"TX"},{"name":"Landon Williams","year":2027,"position":"WR","stars":null,"rating_247":87.0,"committed_to":null,"lat":31.4757,"lng":-99.3312,"hometown_city":"Fulshear","hometown_state":"TX"},{"name":"Josiah Morgan","year":2027,"position":"WR","stars":null,"rating_247":87.0,"committed_to":"Houston","lat":31.0689,"lng":-91.9968,"hometown_city":"Ruston","hometown_state":"LA"},{"name":"Ashton Stark","year":2027,"position":"WR","stars":null,"rating_247":87.0,"committed_to":null,"lat":31.0689,"lng":-91.9968,"hometown_city":"Lutcher","hometown_state":"LA"},{"name":"Ray'Quan Williams","year":2027,"position":"WR","stars":null,"rating_247":87.0,"committed_to":"Tulane","lat":31.0689,"lng":-91.9968,"hometown_city":"New Orleans","hometown_state":"LA"},{"name":"Braylon Fisher","year":2027,"position":"WR","stars":null,"rating_247":86.0,"committed_to":null,"lat":31.4757,"lng":-99.3312,"hometown_city":"Columbus","hometown_state":"TX"},{"name":"Aden Starling","year":2027,"position":"WR","stars":null,"rating_247":86.0,"committed_to":null,"lat":31.4757,"lng":-99.3312,"hometown_city":"Pearland","hometown_state":"TX"},{"name":"Chris Flores","year":2027,"position":"WR","stars":null,"rating_247":86.0,"committed_to":null,"lat":37.1841,"lng":-119.4696,"hometown_city":"Orange","hometown_state":"CA"},{"name":"Jordan Simmons","year":2027,"position":"WR","stars":null,"rating_247":86.0,"committed_to":null,"lat":31.4757,"lng":-99.3312,"hometown_city":"Houston","hometown_state":"TX"},{"name":"James Bethea","year":2027,"position":"WR","stars":null,"rating_247":86.0,"committed_to":null,"lat":28.6305,"lng":-82.4497,"hometown_city":"Ocala","hometown_state":"FL"},{"name":"Braylon Lane","year":2027,"position":"WR","stars":null,"rating_247":86.0,"committed_to":"Houston","lat":31.4757,"lng":-99.3312,"hometown_city":"Houston","hometown_state":"TX"},{"name":"Mo Poko","year":2027,"position":"WR","stars":null,"rating_247":85.0,"committed_to":"Houston","lat":31.4757,"lng":-99.3312,"hometown_city":"Fulshear","hometown_state":"TX"},{"name":"Tre Brown","year":2027,"position":"WR","stars":null,"rating_247":null,"committed_to":null,"lat":31.4757,"lng":-99.3312,"hometown_city":"Humble","hometown_state":"TX"},{"name":"Ray Newsome","year":2027,"position":"WR","stars":null,"rating_247":null,"committed_to":null,"lat":31.4757,"lng":-99.3312,"hometown_city":"Mansfield","hometown_state":"TX"},{"name":"Morris Walters","year":2027,"position":"WR","stars":null,"rating_247":null,"committed_to":null,"lat":31.0689,"lng":-91.9968,"hometown_city":"Jeanerette","hometown_state":"LA"},{"name":"Derrick Martin","year":2027,"position":"WR","stars":null,"rating_247":null,"committed_to":null,"lat":31.4757,"lng":-99.3312,"hometown_city":"Lewisville","hometown_state":"TX"},{"name":"Braylon Deal","year":2027,"position":"WR","stars":null,"rating_247":null,"committed_to":null,"lat":31.4757,"lng":-99.3312,"hometown_city":"Garland","hometown_state":"TX"},{"name":"Ahmad Hudson","year":2027,"position":"TE","stars":null,"rating_247":98.0,"committed_to":"Louisiana State","lat":31.0689,"lng":-91.9968,"hometown_city":"Ruston","hometown_state":"LA"},{"name":"Jack Brown","year":2027,"position":"TE","stars":null,"rating_247":92.0,"committed_to":"Missouri","lat":38.3566,"lng":-92.458,"hometown_city":"St. Charles","hometown_state":"MO"},{"name":"Jeramie Cooper","year":2027,"position":"TE","stars":null,"rating_247":86.0,"committed_to":null,"lat":31.4757,"lng":-99.3312,"hometown_city":"Fort Worth","hometown_state":"TX"},{"name":"Landon Bogany","year":2027,"position":"TE","stars":null,"rating_247":86.0,"committed_to":null,"lat":31.4757,"lng":-99.3312,"hometown_city":"Lewisville","hometown_state":"TX"},{"name":"Ismael Camara","year":2027,"position":"OT","stars":null,"rating_247":98.0,"committed_to":null,"lat":31.4757,"lng":-99.3312,"hometown_city":"Gilmer","hometown_state":"TX"},{"name":"Albert Simien","year":2027,"position":"OT","stars":null,"rating_247":94.0,"committed_to":null,"lat":31.0689,"lng":-91.9968,"hometown_city":"Lake Charles","hometown_state":"LA"},{"name":"Kennedy Brown","year":2027,"position":"OT","stars":null,"rating_247":94.0,"committed_to":"Texas A&M","lat":31.4757,"lng":-99.3312,"hometown_city":"Kingwood","hometown_state":"TX"},{"name":"Kaeden Scott","year":2027,"position":"OT","stars":null,"rating_247":93.0,"committed_to":"Texas A&M","lat":31.4757,"lng":-99.3312,"hometown_city":"San Antonio","hometown_state":"TX"},{"name":"DeMarrion Johnson","year":2027,"position":"OT","stars":null,"rating_247":93.0,"committed_to":"Texas A&M","lat":31.4757,"lng":-99.3312,"hometown_city":"Tyler","hometown_state":"TX"},{"name":"Jasper Ngokwere","year":2027,"position":"OT","stars":null,"rating_247":90.0,"committed_to":"Vanderbilt","lat":31.4757,"lng":-99.3312,"hometown_city":"Richardson","hometown_state":"TX"},{"name":"Koen Hinzman","year":2027,"position":"OT","stars":null,"rating_247":87.0,"committed_to":"Iowa State","lat":44.3467,"lng":-85.4102,"hometown_city":"Hudson","hometown_state":"MI"},{"name":"Aidan Ray","year":2027,"position":"OT","stars":null,"rating_247":87.0,"committed_to":null,"lat":31.4757,"lng":-99.3312,"hometown_city":"Plano","hometown_state":"TX"},{"name":"Caleb Siler","year":2027,"position":"OT","stars":null,"rating_247":87.0,"committed_to":null,"lat":31.4757,"lng":-99.3312,"hometown_city":"Gunter","hometown_state":"TX"},{"name":"Samuel Thiergood","year":2027,"position":"OT","stars":null,"rating_247":87.0,"committed_to":"Houston","lat":31.4757,"lng":-99.3312,"hometown_city":"Richmond","hometown_state":"TX"},{"name":"Judah Gumbs","year":2027,"position":"OT","stars":null,"rating_247":86.0,"committed_to":null,"lat":28.6305,"lng":-82.4497,"hometown_city":"Seffner","hometown_state":"FL"},{"name":"Ty Greene","year":2027,"position":"OT","stars":null,"rating_247":86.0,"committed_to":"Texas Christian","lat":31.4757,"lng":-99.3312,"hometown_city":"Houston","hometown_state":"TX"},{"name":"Thomas Muiruri","year":2027,"position":"OT","stars":null,"rating_247":86.0,"committed_to":"Houston","lat":31.4757,"lng":-99.3312,"hometown_city":"Haslet","hometown_state":"TX"},{"name":"Sonny Mullen","year":2027,"position":"OT","stars":null,"rating_247":86.0,"committed_to":"Oklahoma State","lat":31.4757,"lng":-99.3312,"hometown_city":"Troy","hometown_state":"TX"},{"name":"Zyion Wesley","year":2027,"position":"OT","stars":null,"rating_247":85.0,"committed_to":"Mississippi State","lat":31.0689,"lng":-91.9968,"hometown_city":"New Orleans","hometown_state":"LA"},{"name":"Jordan Carraway","year":2027,"position":"OT","stars":null,"rating_247":84.0,"committed_to":null,"lat":31.4757,"lng":-99.3312,"hometown_city":"Forney","hometown_state":"TX"},{"name":"Hudson Whitenight","year":2027,"position":"OT","stars":null,"rating_247":84.0,"committed_to":"Baylor","lat":31.4757,"lng":-99.3312,"hometown_city":"Dripping Springs","hometown_state":"TX"},{"name":"Brandon Hebert","year":2027,"position":"OT","stars":null,"rating_247":null,"committed_to":null,"lat":31.4757,"lng":-99.3312,"hometown_city":"Houston","hometown_state":"TX"},{"name":"Avery Timms","year":2027,"position":"OT","stars":null,"rating_247":null,"committed_to":null,"lat":31.4757,"lng":-99.3312,"hometown_city":"Killeen","hometown_state":"TX"},{"name":"Jackson Shaw","year":2027,"position":"OT","stars":null,"rating_247":null,"committed_to":"Tulane","lat":31.0689,"lng":-91.9968,"hometown_city":"Baton Rouge","hometown_state":"LA"},{"name":"Peyton Miller","year":2027,"position":"IOL","stars":null,"rating_247":91.0,"committed_to":"Florida","lat":31.4757,"lng":-99.3312,"hometown_city":"Anna","hometown_state":"TX"},{"name":"Keyon Hemphill-Woods","year":2027,"position":"IOL","stars":null,"rating_247":89.0,"committed_to":"Texas","lat":31.4757,"lng":-99.3312,"hometown_city":"Columbus","hometown_state":"TX"},{"name":"Isaac Coughran","year":2027,"position":"IOL","stars":null,"rating_247":88.0,"committed_to":"Oklahoma","lat":31.4757,"lng":-99.3312,"hometown_city":"Katy","hometown_state":"TX"},{"name":"Stephan Hicks Jr.","year":2027,"position":"IOL","stars":null,"rating_247":87.0,"committed_to":null,"lat":31.4757,"lng":-99.3312,"hometown_city":"Cibolo","hometown_state":"TX"},{"name":"Jayden Mack","year":2027,"position":"IOL","stars":null,"rating_247":86.0,"committed_to":null,"lat":31.4757,"lng":-99.3312,"hometown_city":"Hutto","hometown_state":"TX"},{"name":"Jackson Cook","year":2027,"position":"IOL","stars":null,"rating_247":86.0,"committed_to":"Texas","lat":31.4757,"lng":-99.3312,"hometown_city":"Austin","hometown_state":"TX"},{"name":"Kelvin Eiwo","year":2027,"position":"IOL","stars":null,"rating_247":85.0,"committed_to":"Kansas State","lat":31.4757,"lng":-99.3312,"hometown_city":"The Colony","hometown_state":"TX"},{"name":"Aiden Williams","year":2027,"position":"IOL","stars":null,"rating_247":83.0,"committed_to":"Texas State","lat":31.4757,"lng":-99.3312,"hometown_city":"Duncanville","hometown_state":"TX"},{"name":"Titus Lopati","year":2027,"position":"IOL","stars":null,"rating_247":83.0,"committed_to":null,"lat":39.321,"lng":-111.0937,"hometown_city":"Salt Lake City","hometown_state":"UT"},{"name":"Abdus Kone","year":2027,"position":"IOL","stars":null,"rating_247":null,"committed_to":"Maryland","lat":31.4757,"lng":-99.3312,"hometown_city":"Houston","hometown_state":"TX"},{"name":"Jackson Hooker","year":2027,"position":"IOL","stars":null,"rating_247":null,"committed_to":"Rice","lat":31.4757,"lng":-99.3312,"hometown_city":"Prosper","hometown_state":"TX"},{"name":"Cameron Hall","year":2027,"position":"Edge","stars":null,"rating_247":94.0,"committed_to":"Texas","lat":31.4757,"lng":-99.3312,"hometown_city":"Arlington","hometown_state":"TX"},{"name":"Ezekiel Ayangbile","year":2027,"position":"Edge","stars":null,"rating_247":90.0,"committed_to":"Miami","lat":31.4757,"lng":-99.3312,"hometown_city":"Houston","hometown_state":"TX"},{"name":"Kaden McCarty","year":2027,"position":"Edge","stars":null,"rating_247":90.0,"committed_to":"Texas A&M","lat":31.4757,"lng":-99.3312,"hometown_city":"Houston","hometown_state":"TX"},{"name":"Juelz Batiste","year":2027,"position":"Edge","stars":null,"rating_247":89.0,"committed_to":"Mississippi","lat":31.0689,"lng":-91.9968,"hometown_city":"New Orleans","hometown_state":"LA"},{"name":"Sedrick Marsh","year":2027,"position":"Edge","stars":null,"rating_247":88.0,"committed_to":"Kansas State","lat":31.4757,"lng":-99.3312,"hometown_city":"Waxahachie","hometown_state":"TX"},{"name":"Alexander Coey","year":2027,"position":"Edge","stars":null,"rating_247":87.0,"committed_to":null,"lat":31.4757,"lng":-99.3312,"hometown_city":"Conroe","hometown_state":"TX"},{"name":"Dieter Lotulelei","year":2027,"position":"Edge","stars":null,"rating_247":84.0,"committed_to":null,"lat":39.321,"lng":-111.0937,"hometown_city":"Salt Lake City","hometown_state":"UT"},{"name":"Cael Thigpen","year":2027,"position":"Edge","stars":null,"rating_247":84.0,"committed_to":"Houston","lat":31.4757,"lng":-99.3312,"hometown_city":"Houston","hometown_state":"TX"},{"name":"Zyron Forstall","year":2027,"position":"DL","stars":null,"rating_247":98.0,"committed_to":"Texas A&M","lat":28.6305,"lng":-82.4497,"hometown_city":"Bradenton","hometown_state":"FL"},{"name":"Raiden Cook","year":2027,"position":"DL","stars":null,"rating_247":92.0,"committed_to":"Houston","lat":31.4757,"lng":-99.3312,"hometown_city":"Mont Belvieu","hometown_state":"TX"},{"name":"Zane Rowe","year":2027,"position":"DL","stars":null,"rating_247":92.0,"committed_to":"Oregon","lat":31.4757,"lng":-99.3312,"hometown_city":"Denton","hometown_state":"TX"},{"name":"Xavier Muhammad","year":2027,"position":"DL","stars":null,"rating_247":91.0,"committed_to":"Michigan","lat":31.4757,"lng":-99.3312,"hometown_city":"South Houston","hometown_state":"TX"},{"name":"K'Adrian Redmond","year":2027,"position":"DL","stars":null,"rating_247":90.0,"committed_to":"Texas Tech","lat":31.4757,"lng":-99.3312,"hometown_city":"DeSoto","hometown_state":"TX"},{"name":"Jaderian Jones","year":2027,"position":"DL","stars":null,"rating_247":89.0,"committed_to":"California","lat":31.4757,"lng":-99.3312,"hometown_city":"Dallas","hometown_state":"TX"},{"name":"Jaden Bayonne","year":2027,"position":"DL","stars":null,"rating_247":89.0,"committed_to":null,"lat":31.0689,"lng":-91.9968,"hometown_city":"Alexandria","hometown_state":"LA"},{"name":"Jason Johnson","year":2027,"position":"DL","stars":null,"rating_247":89.0,"committed_to":null,"lat":31.4757,"lng":-99.3312,"hometown_city":"Humble","hometown_state":"TX"},{"name":"Amari Vickerson","year":2027,"position":"DL","stars":null,"rating_247":88.0,"committed_to":"SMU","lat":31.4757,"lng":-99.3312,"hometown_city":"Cypress","hometown_state":"TX"},{"name":"Brayden White","year":2027,"position":"DL","stars":null,"rating_247":88.0,"committed_to":"Stanford","lat":31.4757,"lng":-99.3312,"hometown_city":"Shepherd","hometown_state":"TX"},{"name":"DeMarco Jenkins","year":2027,"position":"DL","stars":null,"rating_247":88.0,"committed_to":"Miami","lat":31.4757,"lng":-99.3312,"hometown_city":"Pearland","hometown_state":"TX"},{"name":"Khing Thibodeaux","year":2027,"position":"DL","stars":null,"rating_247":87.0,"committed_to":null,"lat":31.4757,"lng":-99.3312,"hometown_city":"Garland","hometown_state":"TX"},{"name":"Ahzan Bacote","year":2027,"position":"DL","stars":null,"rating_247":87.0,"committed_to":"Arizona","lat":31.4757,"lng":-99.3312,"hometown_city":"San Antonio","hometown_state":"TX"},{"name":"Antonio Underwood","year":2027,"position":"DL","stars":null,"rating_247":86.0,"committed_to":null,"lat":31.4757,"lng":-99.3312,"hometown_city":"Houston","hometown_state":"TX"},{"name":"Khyren Haywood","year":2027,"position":"DL","stars":null,"rating_247":86.0,"committed_to":"Texas Tech","lat":31.4757,"lng":-99.3312,"hometown_city":"Denton","hometown_state":"TX"},{"name":"Kingston Beyer","year":2027,"position":"DL","stars":null,"rating_247":null,"committed_to":null,"lat":31.4757,"lng":-99.3312,"hometown_city":"Fort Worth","hometown_state":"TX"},{"name":"Johnnie Fitzgerald III","year":2027,"position":"DL","stars":null,"rating_247":null,"committed_to":null,"lat":31.4757,"lng":-99.3312,"hometown_city":"Red Oak","hometown_state":"TX"},{"name":"Jhadyn Nelson","year":2027,"position":"LB","stars":null,"rating_247":94.0,"committed_to":"Texas Tech","lat":31.4757,"lng":-99.3312,"hometown_city":"Houston","hometown_state":"TX"},{"name":"JaMarquis Hudson","year":2027,"position":"LB","stars":null,"rating_247":89.0,"committed_to":null,"lat":31.4757,"lng":-99.3312,"hometown_city":"Port Arthur","hometown_state":"TX"},{"name":"Braylon Williams","year":2027,"position":"LB","stars":null,"rating_247":88.0,"committed_to":"SMU","lat":31.4757,"lng":-99.3312,"hometown_city":"Arlington","hometown_state":"TX"},{"name":"Cade Haug","year":2027,"position":"LB","stars":null,"rating_247":88.0,"committed_to":"Texas","lat":31.4757,"lng":-99.3312,"hometown_city":"Kingwood","hometown_state":"TX"},{"name":"Kyle Horde","year":2027,"position":"LB","stars":null,"rating_247":87.0,"committed_to":null,"lat":31.0689,"lng":-91.9968,"hometown_city":"Opelousas","hometown_state":"LA"},{"name":"Rome Ewell","year":2027,"position":"LB","stars":null,"rating_247":86.0,"committed_to":"Houston","lat":31.4757,"lng":-99.3312,"hometown_city":"Springtown","hometown_state":"TX"},{"name":"Jerrell Bridges","year":2027,"position":"LB","stars":null,"rating_247":86.0,"committed_to":"Houston","lat":31.4757,"lng":-99.3312,"hometown_city":"Midlothian","hometown_state":"TX"},{"name":"Bryce Breeden","year":2027,"position":"LB","stars":null,"rating_247":86.0,"committed_to":null,"lat":31.4757,"lng":-99.3312,"hometown_city":"Bridge City","hometown_state":"TX"},{"name":"Davon Smith","year":2027,"position":"LB","stars":null,"rating_247":85.0,"committed_to":"Arizona","lat":31.4757,"lng":-99.3312,"hometown_city":"Houston","hometown_state":"TX"},{"name":"Samuel Weary","year":2027,"position":"LB","stars":null,"rating_247":null,"committed_to":null,"lat":31.4757,"lng":-99.3312,"hometown_city":"Manvel","hometown_state":"TX"},{"name":"John Meredith III","year":2027,"position":"CB","stars":null,"rating_247":98.0,"committed_to":null,"lat":31.4757,"lng":-99.3312,"hometown_city":"Fort Worth","hometown_state":"TX"},{"name":"Karnell James","year":2027,"position":"CB","stars":null,"rating_247":93.0,"committed_to":"Texas","lat":31.4757,"lng":-99.3312,"hometown_city":"Manvel","hometown_state":"TX"},{"name":"Kameron Roberson","year":2027,"position":"CB","stars":null,"rating_247":91.0,"committed_to":null,"lat":31.4757,"lng":-99.3312,"hometown_city":"Cypress","hometown_state":"TX"},{"name":"Jerry Outhouse Jr.","year":2027,"position":"CB","stars":null,"rating_247":91.0,"committed_to":"UCLA","lat":31.4757,"lng":-99.3312,"hometown_city":"Fort Worth","hometown_state":"TX"},{"name":"Brandon Sherrard","year":2027,"position":"CB","stars":null,"rating_247":90.0,"committed_to":null,"lat":31.4757,"lng":-99.3312,"hometown_city":"Pearland","hometown_state":"TX"},{"name":"Joshua Vilmael","year":2027,"position":"CB","stars":null,"rating_247":90.0,"committed_to":null,"lat":31.4757,"lng":-99.3312,"hometown_city":"Richmond","hometown_state":"TX"},{"name":"Mikhail McCreary","year":2027,"position":"CB","stars":null,"rating_247":90.0,"committed_to":"Oklahoma","lat":31.4757,"lng":-99.3312,"hometown_city":"San Antonio","hometown_state":"TX"},{"name":"Montre Jackson","year":2027,"position":"CB","stars":null,"rating_247":90.0,"committed_to":null,"lat":31.4757,"lng":-99.3312,"hometown_city":"Garland","hometown_state":"TX"},{"name":"Blake Jenkins","year":2027,"position":"CB","stars":null,"rating_247":90.0,"committed_to":"Michigan","lat":31.4757,"lng":-99.3312,"hometown_city":"Katy","hometown_state":"TX"},{"name":"Joshua Banks","year":2027,"position":"CB","stars":null,"rating_247":90.0,"committed_to":null,"lat":31.4757,"lng":-99.3312,"hometown_city":"Humble","hometown_state":"TX"},{"name":"Darrod Jacobs","year":2027,"position":"CB","stars":null,"rating_247":88.0,"committed_to":null,"lat":31.4757,"lng":-99.3312,"hometown_city":"Port Arthur","hometown_state":"TX"},{"name":"Bryant Robinson","year":2027,"position":"CB","stars":null,"rating_247":88.0,"committed_to":"Clemson","lat":31.4757,"lng":-99.3312,"hometown_city":"Frisco","hometown_state":"TX"},{"name":"Elijajuan Houston","year":2027,"position":"CB","stars":null,"rating_247":88.0,"committed_to":"Arizona State","lat":31.4757,"lng":-99.3312,"hometown_city":"Fort Worth","hometown_state":"TX"},{"name":"Jaden Bibbs","year":2027,"position":"CB","stars":null,"rating_247":88.0,"committed_to":null,"lat":31.4757,"lng":-99.3312,"hometown_city":"Coppell","hometown_state":"TX"},{"name":"Dhillon McGee","year":2027,"position":"CB","stars":null,"rating_247":87.0,"committed_to":null,"lat":31.4757,"lng":-99.3312,"hometown_city":"Red Oak","hometown_state":"TX"},{"name":"Davontrae Kirkland","year":2027,"position":"CB","stars":null,"rating_247":87.0,"committed_to":"Baylor","lat":31.4757,"lng":-99.3312,"hometown_city":"Waco","hometown_state":"TX"},{"name":"Stanley Peters Jr.","year":2027,"position":"CB","stars":null,"rating_247":87.0,"committed_to":null,"lat":32.7364,"lng":-89.6678,"hometown_city":"Seminary","hometown_state":"MS"},{"name":"Braylun Huglon","year":2027,"position":"CB","stars":null,"rating_247":86.0,"committed_to":"Colorado State","lat":31.0689,"lng":-91.9968,"hometown_city":"Shreveport","hometown_state":"LA"},{"name":"Logan Debose","year":2027,"position":"CB","stars":null,"rating_247":86.0,"committed_to":"Houston","lat":31.4757,"lng":-99.3312,"hometown_city":"Houston","hometown_state":"TX"},{"name":"Prince Washington","year":2027,"position":"CB","stars":null,"rating_247":84.0,"committed_to":"Colorado","lat":31.4757,"lng":-99.3312,"hometown_city":"Houston","hometown_state":"TX"},{"name":"Jewellz Tapp","year":2027,"position":"CB","stars":null,"rating_247":null,"committed_to":null,"lat":31.0689,"lng":-91.9968,"hometown_city":"River Ridge","hometown_state":"LA"},{"name":"Semaj Stanford","year":2027,"position":"S","stars":null,"rating_247":94.0,"committed_to":"Oregon","lat":35.5889,"lng":-97.4943,"hometown_city":"Broken Arrow","hometown_state":"OK"},{"name":"Trey Martin","year":2027,"position":"S","stars":null,"rating_247":90.0,"committed_to":null,"lat":31.0689,"lng":-91.9968,"hometown_city":"Winnsboro","hometown_state":"LA"},{"name":"Jayden Anding","year":2027,"position":"S","stars":null,"rating_247":90.0,"committed_to":null,"lat":31.0689,"lng":-91.9968,"hometown_city":"Ruston","hometown_state":"LA"},{"name":"Karon Eugene","year":2027,"position":"S","stars":null,"rating_247":90.0,"committed_to":null,"lat":31.0689,"lng":-91.9968,"hometown_city":"New Iberia","hometown_state":"LA"},{"name":"Eli Johnson","year":2027,"position":"S","stars":null,"rating_247":88.0,"committed_to":"Ohio State","lat":31.4757,"lng":-99.3312,"hometown_city":"Cibolo","hometown_state":"TX"},{"name":"Aiden Martin","year":2027,"position":"S","stars":null,"rating_247":88.0,"committed_to":"Utah","lat":31.4757,"lng":-99.3312,"hometown_city":"San Antonio","hometown_state":"TX"},{"name":"Aaron Williams","year":2027,"position":"S","stars":null,"rating_247":88.0,"committed_to":"North Carolina","lat":31.4757,"lng":-99.3312,"hometown_city":"Missouri City","hometown_state":"TX"},{"name":"Trey Johnson","year":2027,"position":"S","stars":null,"rating_247":87.0,"committed_to":"North Carolina","lat":31.4757,"lng":-99.3312,"hometown_city":"Cibolo","hometown_state":"TX"},{"name":"Marvin Joseph","year":2027,"position":"S","stars":null,"rating_247":87.0,"committed_to":null,"lat":31.0689,"lng":-91.9968,"hometown_city":"Baton Rouge","hometown_state":"LA"},{"name":"James Roberson","year":2027,"position":"S","stars":null,"rating_247":87.0,"committed_to":"Wisconsin","lat":31.4757,"lng":-99.3312,"hometown_city":"Allen","hometown_state":"TX"},{"name":"Braiden Graves","year":2027,"position":"S","stars":null,"rating_247":87.0,"committed_to":"Kansas","lat":31.4757,"lng":-99.3312,"hometown_city":"Cypress","hometown_state":"TX"},{"name":"Rontrae Carter","year":2027,"position":"S","stars":null,"rating_247":87.0,"committed_to":null,"lat":31.0689,"lng":-91.9968,"hometown_city":"Marrero","hometown_state":"LA"},{"name":"Savoy Guidry","year":2027,"position":"S","stars":null,"rating_247":87.0,"committed_to":"Stanford","lat":31.0689,"lng":-91.9968,"hometown_city":"New Orleans","hometown_state":"LA"},{"name":"Isaiah Udom","year":2027,"position":"S","stars":null,"rating_247":87.0,"committed_to":"SMU","lat":31.4757,"lng":-99.3312,"hometown_city":"Dallas","hometown_state":"TX"},{"name":"Kyron Turner","year":2027,"position":"S","stars":null,"rating_247":87.0,"committed_to":"Cincinnati","lat":31.0689,"lng":-91.9968,"hometown_city":"Haughton","hometown_state":"LA"},{"name":"Levi McKenzie","year":2027,"position":"S","stars":null,"rating_247":86.0,"committed_to":null,"lat":28.6305,"lng":-82.4497,"hometown_city":"Fort Myers","hometown_state":"FL"},{"name":"Tavon Bolden","year":2027,"position":"S","stars":null,"rating_247":86.0,"committed_to":"Houston","lat":31.4757,"lng":-99.3312,"hometown_city":"Humble","hometown_state":"TX"},{"name":"Luke Stevens","year":2027,"position":"S","stars":null,"rating_247":85.0,"committed_to":"Arizona","lat":31.4757,"lng":-99.3312,"hometown_city":"North Richland Hills","hometown_state":"TX"},{"name":"JayQuan Snell","year":2027,"position":"ATH","stars":null,"rating_247":94.0,"committed_to":"Texas A&M","lat":31.4757,"lng":-99.3312,"hometown_city":"Waxahachie","hometown_state":"TX"},{"name":"Braylon Calais","year":2027,"position":"ATH","stars":null,"rating_247":90.0,"committed_to":"Louisiana State","lat":31.0689,"lng":-91.9968,"hometown_city":"Carencro","hometown_state":"LA"},{"name":"Julian Reese II","year":2027,"position":"ATH","stars":null,"rating_247":90.0,"committed_to":null,"lat":31.4757,"lng":-99.3312,"hometown_city":"Amarillo","hometown_state":"TX"},{"name":"Markez Davis","year":2027,"position":"ATH","stars":null,"rating_247":90.0,"committed_to":"Louisiana State","lat":31.0689,"lng":-91.9968,"hometown_city":"Opelousas","hometown_state":"LA"},{"name":"Bra'jon Melancon","year":2027,"position":"ATH","stars":null,"rating_247":89.0,"committed_to":null,"lat":31.0689,"lng":-91.9968,"hometown_city":"Rosedale","hometown_state":"LA"},{"name":"Carson White","year":2027,"position":"ATH","stars":null,"rating_247":89.0,"committed_to":"Oklahoma State","lat":31.4757,"lng":-99.3312,"hometown_city":"Iowa Colony","hometown_state":"TX"},{"name":"Yoshawn Hudson","year":2027,"position":"ATH","stars":null,"rating_247":89.0,"committed_to":null,"lat":32.7364,"lng":-89.6678,"hometown_city":"Winona","hometown_state":"MS"},{"name":"Kaston Lewis","year":2027,"position":"ATH","stars":null,"rating_247":89.0,"committed_to":null,"lat":31.0689,"lng":-91.9968,"hometown_city":"Iowa","hometown_state":"LA"},{"name":"Javarious Griffin Jr.","year":2027,"position":"ATH","stars":null,"rating_247":88.0,"committed_to":"Mississippi State","lat":32.7364,"lng":-89.6678,"hometown_city":"Cleveland","hometown_state":"MS"},{"name":"Jaiden Fields","year":2027,"position":"ATH","stars":null,"rating_247":88.0,"committed_to":null,"lat":31.4757,"lng":-99.3312,"hometown_city":"Hutto","hometown_state":"TX"},{"name":"Victor Scott","year":2027,"position":"ATH","stars":null,"rating_247":87.0,"committed_to":"North Texas","lat":31.4757,"lng":-99.3312,"hometown_city":"Lancaster","hometown_state":"TX"},{"name":"Antayvious Ellis","year":2027,"position":"ATH","stars":null,"rating_247":87.0,"committed_to":"Nebraska","lat":41.5378,"lng":-99.7951,"hometown_city":"Omaha","hometown_state":"NE"},{"name":"Marquis Fennell","year":2027,"position":"ATH","stars":null,"rating_247":87.0,"committed_to":null,"lat":32.6415,"lng":-83.4426,"hometown_city":"Valdosta","hometown_state":"GA"},{"name":"Isaiah Reed","year":2027,"position":"ATH","stars":null,"rating_247":87.0,"committed_to":"Texas State","lat":31.4757,"lng":-99.3312,"hometown_city":"Hamshire","hometown_state":"TX"},{"name":"Marcus Watson","year":2027,"position":"ATH","stars":null,"rating_247":87.0,"committed_to":"Houston","lat":31.0689,"lng":-91.9968,"hometown_city":"Baton Rouge","hometown_state":"LA"},{"name":"Bryson Dossett","year":2027,"position":"ATH","stars":null,"rating_247":86.0,"committed_to":"Kansas State","lat":31.4757,"lng":-99.3312,"hometown_city":"Missouri City","hometown_state":"TX"},{"name":"DeAnthony Crittenden","year":2027,"position":"ATH","stars":null,"rating_247":85.0,"committed_to":null,"lat":40.2862,"lng":-82.7937,"hometown_city":"Cleveland","hometown_state":"OH"},{"name":"Brawley Tuitupou","year":2027,"position":"ATH","stars":null,"rating_247":83.0,"committed_to":null,"lat":39.321,"lng":-111.0937,"hometown_city":"Orem","hometown_state":"UT"},{"name":"Jalani Culpepper","year":2027,"position":"ATH","stars":null,"rating_247":82.0,"committed_to":null,"lat":31.4757,"lng":-99.3312,"hometown_city":"Georgetown","hometown_state":"TX"},{"name":"Liam Madkins","year":2027,"position":"ATH","stars":null,"rating_247":null,"committed_to":"Texas State","lat":31.4757,"lng":-99.3312,"hometown_city":"Houston","hometown_state":"TX"},{"name":"Malcolm LaForest","year":2027,"position":"ATH","stars":null,"rating_247":null,"committed_to":null,"lat":42.2596,"lng":-71.8083,"hometown_city":"Brockton","hometown_state":"MA"},{"name":"Andres von der Meden","year":2027,"position":"K","stars":null,"rating_247":null,"committed_to":"Texas A&M","lat":31.4757,"lng":-99.3312,"hometown_city":"Tomball","hometown_state":"TX"}],"2028":[{"name":"Carter Zingelmann","year":2028,"position":"QB","stars":null,"rating_247":90.0,"committed_to":null,"lat":31.4757,"lng":-99.3312,"hometown_city":"Coppell","hometown_state":"TX"},{"name":"Kingston Preyear","year":2028,"position":"QB","stars":null,"rating_247":90.0,"committed_to":null,"lat":32.7794,"lng":-86.8287,"hometown_city":"Alexander City","hometown_state":"AL"},{"name":"Tristin Gaines","year":2028,"position":"QB","stars":null,"rating_247":89.0,"committed_to":null,"lat":31.4757,"lng":-99.3312,"hometown_city":"Waller","hometown_state":"TX"},{"name":"Trey Wright","year":2028,"position":"QB","stars":null,"rating_247":88.0,"committed_to":null,"lat":31.4757,"lng":-99.3312,"hometown_city":"Frisco","hometown_state":"TX"},{"name":"Hudson Tomcheck","year":2028,"position":"QB","stars":null,"rating_247":86.0,"committed_to":null,"lat":31.4757,"lng":-99.3312,"hometown_city":"Southlake","hometown_state":"TX"},{"name":"Chase Curren","year":2028,"position":"QB","stars":null,"rating_247":86.0,"committed_to":null,"lat":37.1841,"lng":-119.4696,"hometown_city":"Encino","hometown_state":"CA"},{"name":"Jaxon Schad","year":2028,"position":"QB","stars":null,"rating_247":85.0,"committed_to":null,"lat":31.4757,"lng":-99.3312,"hometown_city":"Pflugerville","hometown_state":"TX"},{"name":"Carter Morgan","year":2028,"position":"QB","stars":null,"rating_247":null,"committed_to":null,"lat":31.4757,"lng":-99.3312,"hometown_city":"Denton","hometown_state":"TX"},{"name":"Ian Thomas","year":2028,"position":"RB","stars":null,"rating_247":90.0,"committed_to":null,"lat":31.4757,"lng":-99.3312,"hometown_city":"Tomball","hometown_state":"TX"},{"name":"Dalen Powell","year":2028,"position":"RB","stars":null,"rating_247":90.0,"committed_to":null,"lat":31.0689,"lng":-91.9968,"hometown_city":"Ruston","hometown_state":"LA"},{"name":"Sean Simon","year":2028,"position":"RB","stars":null,"rating_247":90.0,"committed_to":null,"lat":31.4757,"lng":-99.3312,"hometown_city":"La Porte","hometown_state":"TX"},{"name":"Micah Rhodes","year":2028,"position":"RB","stars":null,"rating_247":90.0,"committed_to":null,"lat":31.4757,"lng":-99.3312,"hometown_city":"Spring","hometown_state":"TX"},{"name":"Noble Williams","year":2028,"position":"RB","stars":null,"rating_247":null,"committed_to":null,"lat":31.0689,"lng":-91.9968,"hometown_city":"Alexandria","hometown_state":"LA"},{"name":"Tayveon Horne","year":2028,"position":"RB","stars":null,"rating_247":null,"committed_to":null,"lat":31.4757,"lng":-99.3312,"hometown_city":"Gilmer","hometown_state":"TX"},{"name":"Darrik Ward Jr.","year":2028,"position":"RB","stars":null,"rating_247":null,"committed_to":null,"lat":31.4757,"lng":-99.3312,"hometown_city":"Crandall","hometown_state":"TX"},{"name":"Khristian White","year":2028,"position":"RB","stars":null,"rating_247":null,"committed_to":null,"lat":31.4757,"lng":-99.3312,"hometown_city":"Cypress","hometown_state":"TX"},{"name":"Caiden Bellard","year":2028,"position":"RB","stars":null,"rating_247":null,"committed_to":null,"lat":31.0689,"lng":-91.9968,"hometown_city":"Lafayette","hometown_state":"LA"},{"name":"Jaylen Addai","year":2028,"position":"WR","stars":null,"rating_247":93.0,"committed_to":null,"lat":31.4757,"lng":-99.3312,"hometown_city":"Pearland","hometown_state":"TX"},{"name":"James Foster III","year":2028,"position":"WR","stars":null,"rating_247":91.0,"committed_to":null,"lat":31.4757,"lng":-99.3312,"hometown_city":"Lancaster","hometown_state":"TX"},{"name":"Peyton Smith","year":2028,"position":"WR","stars":null,"rating_247":90.0,"committed_to":null,"lat":31.4757,"lng":-99.3312,"hometown_city":"La Porte","hometown_state":"TX"},{"name":"Jaden Hurndon","year":2028,"position":"WR","stars":null,"rating_247":90.0,"committed_to":null,"lat":31.4757,"lng":-99.3312,"hometown_city":"Longview","hometown_state":"TX"},{"name":"Damarion Mays","year":2028,"position":"WR","stars":null,"rating_247":90.0,"committed_to":null,"lat":31.4757,"lng":-99.3312,"hometown_city":"Fort Worth","hometown_state":"TX"},{"name":"Jacolby Campbell","year":2028,"position":"WR","stars":null,"rating_247":90.0,"committed_to":null,"lat":31.0689,"lng":-91.9968,"hometown_city":"Abbeville","hometown_state":"LA"},{"name":"Carter St. Junious","year":2028,"position":"WR","stars":null,"rating_247":90.0,"committed_to":null,"lat":31.4757,"lng":-99.3312,"hometown_city":"Manvel","hometown_state":"TX"},{"name":"Carson LaCombe","year":2028,"position":"WR","stars":null,"rating_247":90.0,"committed_to":null,"lat":31.4757,"lng":-99.3312,"hometown_city":"San Antonio","hometown_state":"TX"},{"name":"Jordan Anderson","year":2028,"position":"WR","stars":null,"rating_247":88.0,"committed_to":null,"lat":31.4757,"lng":-99.3312,"hometown_city":"Pflugerville","hometown_state":"TX"},{"name":"Will Walker","year":2028,"position":"WR","stars":null,"rating_247":null,"committed_to":null,"lat":31.0689,"lng":-91.9968,"hometown_city":"Ponchatoula","hometown_state":"LA"},{"name":"Dylan Belt","year":2028,"position":"WR","stars":null,"rating_247":null,"committed_to":null,"lat":31.4757,"lng":-99.3312,"hometown_city":"Mesquite","hometown_state":"TX"},{"name":"Josyah Johnson","year":2028,"position":"WR","stars":null,"rating_247":null,"committed_to":null,"lat":31.4757,"lng":-99.3312,"hometown_city":"Allen","hometown_state":"TX"},{"name":"Ryan Wiley","year":2028,"position":"WR","stars":null,"rating_247":null,"committed_to":null,"lat":31.4757,"lng":-99.3312,"hometown_city":"Rockwall","hometown_state":"TX"},{"name":"Kade Smith","year":2028,"position":"WR","stars":null,"rating_247":null,"committed_to":null,"lat":31.4757,"lng":-99.3312,"hometown_city":"Fort Worth","hometown_state":"TX"},{"name":"Dez Bryant Jr.","year":2028,"position":"WR","stars":null,"rating_247":null,"committed_to":null,"lat":31.4757,"lng":-99.3312,"hometown_city":"Southlake","hometown_state":"TX"},{"name":"Steeler Wesley","year":2028,"position":"TE","stars":null,"rating_247":87.0,"committed_to":null,"lat":39.321,"lng":-111.0937,"hometown_city":"Lehi","hometown_state":"UT"},{"name":"Jaxson Fort","year":2028,"position":"TE","stars":null,"rating_247":null,"committed_to":null,"lat":31.4757,"lng":-99.3312,"hometown_city":"Forney","hometown_state":"TX"},{"name":"James Skaer","year":2028,"position":"TE","stars":null,"rating_247":null,"committed_to":null,"lat":31.4757,"lng":-99.3312,"hometown_city":"The Woodlands","hometown_state":"TX"},{"name":"Mataio Fano","year":2028,"position":"OT","stars":null,"rating_247":91.0,"committed_to":null,"lat":39.321,"lng":-111.0937,"hometown_city":"Orem","hometown_state":"UT"},{"name":"Jamarios Canton","year":2028,"position":"OT","stars":null,"rating_247":90.0,"committed_to":null,"lat":28.6305,"lng":-82.4497,"hometown_city":"Bradenton","hometown_state":"FL"},{"name":"R'Monie Edwards","year":2028,"position":"OT","stars":null,"rating_247":90.0,"committed_to":null,"lat":31.4757,"lng":-99.3312,"hometown_city":"Cypress","hometown_state":"TX"},{"name":"Maxx Jones","year":2028,"position":"OT","stars":null,"rating_247":90.0,"committed_to":null,"lat":28.6305,"lng":-82.4497,"hometown_city":"Bradenton","hometown_state":"FL"},{"name":"Wyatt Wagner","year":2028,"position":"OT","stars":null,"rating_247":90.0,"committed_to":null,"lat":31.4757,"lng":-99.3312,"hometown_city":"Midlothian","hometown_state":"TX"},{"name":"Jayden Thompson","year":2028,"position":"OT","stars":null,"rating_247":87.0,"committed_to":null,"lat":31.4757,"lng":-99.3312,"hometown_city":"Lucas","hometown_state":"TX"},{"name":"Ty McCurry","year":2028,"position":"OT","stars":null,"rating_247":85.0,"committed_to":null,"lat":31.4757,"lng":-99.3312,"hometown_city":"Southlake","hometown_state":"TX"},{"name":"Sean Sherman","year":2028,"position":"OT","stars":null,"rating_247":null,"committed_to":null,"lat":31.4757,"lng":-99.3312,"hometown_city":"Anna","hometown_state":"TX"},{"name":"Kendrick Harris","year":2028,"position":"IOL","stars":null,"rating_247":91.0,"committed_to":null,"lat":31.4757,"lng":-99.3312,"hometown_city":"Duncanville","hometown_state":"TX"},{"name":"Vernon Pittman","year":2028,"position":"IOL","stars":null,"rating_247":87.0,"committed_to":null,"lat":31.4757,"lng":-99.3312,"hometown_city":"Carthage","hometown_state":"TX"},{"name":"Jude Womack","year":2028,"position":"IOL","stars":null,"rating_247":86.0,"committed_to":null,"lat":31.4757,"lng":-99.3312,"hometown_city":"Frisco","hometown_state":"TX"},{"name":"Abram Bengard","year":2028,"position":"IOL","stars":null,"rating_247":null,"committed_to":null,"lat":31.4757,"lng":-99.3312,"hometown_city":"Frisco","hometown_state":"TX"},{"name":"Kendrick Morgan","year":2028,"position":"IOL","stars":null,"rating_247":null,"committed_to":null,"lat":31.4757,"lng":-99.3312,"hometown_city":"Frisco","hometown_state":"TX"},{"name":"Major Stokes","year":2028,"position":"Edge","stars":null,"rating_247":90.0,"committed_to":null,"lat":39.321,"lng":-111.0937,"hometown_city":"Orem","hometown_state":"UT"},{"name":"Samiu Taukiuvea","year":2028,"position":"Edge","stars":null,"rating_247":90.0,"committed_to":null,"lat":39.321,"lng":-111.0937,"hometown_city":"Salt Lake City","hometown_state":"UT"},{"name":"Chance Archangel","year":2028,"position":"Edge","stars":null,"rating_247":89.0,"committed_to":"Texas A&M","lat":31.0689,"lng":-91.9968,"hometown_city":"New Iberia","hometown_state":"LA"},{"name":"Reagan Smith","year":2028,"position":"Edge","stars":null,"rating_247":89.0,"committed_to":null,"lat":31.4757,"lng":-99.3312,"hometown_city":"Pflugerville","hometown_state":"TX"},{"name":"Ke'Drid Smith","year":2028,"position":"Edge","stars":null,"rating_247":88.0,"committed_to":null,"lat":31.4757,"lng":-99.3312,"hometown_city":"Texarkana","hometown_state":"TX"},{"name":"Brayson Robinson","year":2028,"position":"Edge","stars":null,"rating_247":88.0,"committed_to":null,"lat":31.4757,"lng":-99.3312,"hometown_city":"Manvel","hometown_state":"TX"},{"name":"Takeshi Savery","year":2028,"position":"Edge","stars":null,"rating_247":87.0,"committed_to":null,"lat":39.321,"lng":-111.0937,"hometown_city":"Salt Lake City","hometown_state":"UT"},{"name":"Cameron Sydnor","year":2028,"position":"Edge","stars":null,"rating_247":87.0,"committed_to":null,"lat":31.4757,"lng":-99.3312,"hometown_city":"Houston","hometown_state":"TX"},{"name":"Khalen Taylor","year":2028,"position":"Edge","stars":null,"rating_247":87.0,"committed_to":null,"lat":31.4757,"lng":-99.3312,"hometown_city":"Missouri City","hometown_state":"TX"},{"name":"Luke Baysinger","year":2028,"position":"Edge","stars":null,"rating_247":null,"committed_to":null,"lat":31.4757,"lng":-99.3312,"hometown_city":"Texarkana","hometown_state":"TX"},{"name":"DeMitri Johnson","year":2028,"position":"Edge","stars":null,"rating_247":null,"committed_to":null,"lat":31.4757,"lng":-99.3312,"hometown_city":"Waco","hometown_state":"TX"},{"name":"RJ Wyms","year":2028,"position":"DL","stars":null,"rating_247":90.0,"committed_to":null,"lat":31.4757,"lng":-99.3312,"hometown_city":"The Woodlands","hometown_state":"TX"},{"name":"David Dotson","year":2028,"position":"DL","stars":null,"rating_247":90.0,"committed_to":null,"lat":31.4757,"lng":-99.3312,"hometown_city":"Humble","hometown_state":"TX"},{"name":"Logan Lokey","year":2028,"position":"DL","stars":null,"rating_247":88.0,"committed_to":null,"lat":31.4757,"lng":-99.3312,"hometown_city":"Denton","hometown_state":"TX"},{"name":"Ronald Crawford","year":2028,"position":"DL","stars":null,"rating_247":88.0,"committed_to":null,"lat":31.0689,"lng":-91.9968,"hometown_city":"New Orleans","hometown_state":"LA"},{"name":"Jayden Johnson","year":2028,"position":"DL","stars":null,"rating_247":null,"committed_to":null,"lat":31.4757,"lng":-99.3312,"hometown_city":"Houston","hometown_state":"TX"},{"name":"Jordyn Grant","year":2028,"position":"DL","stars":null,"rating_247":null,"committed_to":null,"lat":31.4757,"lng":-99.3312,"hometown_city":"The Woodlands","hometown_state":"TX"},{"name":"Blake Nesbitt","year":2028,"position":"LB","stars":null,"rating_247":90.0,"committed_to":null,"lat":38.3566,"lng":-92.458,"hometown_city":"Kirksville","hometown_state":"MO"},{"name":"Jay Schell","year":2028,"position":"LB","stars":null,"rating_247":90.0,"committed_to":null,"lat":32.6415,"lng":-83.4426,"hometown_city":"Rabun Gap","hometown_state":"GA"},{"name":"Aidan Adams","year":2028,"position":"LB","stars":null,"rating_247":88.0,"committed_to":null,"lat":31.0689,"lng":-91.9968,"hometown_city":"Ruston","hometown_state":"LA"},{"name":"Amir Adkinson","year":2028,"position":"LB","stars":null,"rating_247":null,"committed_to":null,"lat":31.4757,"lng":-99.3312,"hometown_city":"Lancaster","hometown_state":"TX"},{"name":"Ja'Merce Johnson","year":2028,"position":"LB","stars":null,"rating_247":null,"committed_to":null,"lat":31.4757,"lng":-99.3312,"hometown_city":"Katy","hometown_state":"TX"},{"name":"Isaiah Taylor","year":2028,"position":"CB","stars":null,"rating_247":90.0,"committed_to":null,"lat":31.4757,"lng":-99.3312,"hometown_city":"Keller","hometown_state":"TX"},{"name":"Dailon Denkins","year":2028,"position":"CB","stars":null,"rating_247":90.0,"committed_to":null,"lat":31.4757,"lng":-99.3312,"hometown_city":"Missouri City","hometown_state":"TX"},{"name":"Royce Bimage","year":2028,"position":"CB","stars":null,"rating_247":88.0,"committed_to":null,"lat":31.4757,"lng":-99.3312,"hometown_city":"Dickinson","hometown_state":"TX"},{"name":"Dominic Butler","year":2028,"position":"CB","stars":null,"rating_247":88.0,"committed_to":null,"lat":31.4757,"lng":-99.3312,"hometown_city":"Allen","hometown_state":"TX"},{"name":"Kahmaree Crumity","year":2028,"position":"CB","stars":null,"rating_247":88.0,"committed_to":null,"lat":28.6305,"lng":-82.4497,"hometown_city":"Tallahassee","hometown_state":"FL"},{"name":"Cordey Sherman","year":2028,"position":"CB","stars":null,"rating_247":null,"committed_to":null,"lat":31.4757,"lng":-99.3312,"hometown_city":"Houston","hometown_state":"TX"},{"name":"Denim Steed","year":2028,"position":"CB","stars":null,"rating_247":null,"committed_to":null,"lat":31.4757,"lng":-99.3312,"hometown_city":"Stafford","hometown_state":"TX"},{"name":"Kalen Simmons","year":2028,"position":"S","stars":null,"rating_247":90.0,"committed_to":null,"lat":31.4757,"lng":-99.3312,"hometown_city":"Iowa Colony","hometown_state":"TX"},{"name":"Kia Jones Jr.","year":2028,"position":"S","stars":null,"rating_247":90.0,"committed_to":null,"lat":40.8781,"lng":-77.7996,"hometown_city":"Pittsburgh","hometown_state":"PA"},{"name":"Savion James","year":2028,"position":"S","stars":null,"rating_247":90.0,"committed_to":null,"lat":31.4757,"lng":-99.3312,"hometown_city":"Humble","hometown_state":"TX"},{"name":"Jarvious Owens Jr.","year":2028,"position":"S","stars":null,"rating_247":89.0,"committed_to":null,"lat":31.4757,"lng":-99.3312,"hometown_city":"Houston","hometown_state":"TX"},{"name":"Bryce Hayes-Roberts","year":2028,"position":"S","stars":null,"rating_247":89.0,"committed_to":null,"lat":28.6305,"lng":-82.4497,"hometown_city":"Bradenton","hometown_state":"FL"},{"name":"Jaden Keelen","year":2028,"position":"S","stars":null,"rating_247":88.0,"committed_to":null,"lat":31.0689,"lng":-91.9968,"hometown_city":"River Ridge","hometown_state":"LA"},{"name":"Nolan Hawkins","year":2028,"position":"S","stars":null,"rating_247":null,"committed_to":null,"lat":31.4757,"lng":-99.3312,"hometown_city":"Trophy Club","hometown_state":"TX"},{"name":"CJ Whaley","year":2028,"position":"ATH","stars":null,"rating_247":90.0,"committed_to":null,"lat":31.4757,"lng":-99.3312,"hometown_city":"Atlanta","hometown_state":"TX"},{"name":"Cayden Lancelin","year":2028,"position":"ATH","stars":null,"rating_247":90.0,"committed_to":null,"lat":31.0689,"lng":-91.9968,"hometown_city":"New Iberia","hometown_state":"LA"},{"name":"Jay'Maree Bowens","year":2028,"position":"ATH","stars":null,"rating_247":90.0,"committed_to":null,"lat":31.4757,"lng":-99.3312,"hometown_city":"Converse","hometown_state":"TX"},{"name":"Brayden Bonik","year":2028,"position":"ATH","stars":null,"rating_247":89.0,"committed_to":null,"lat":31.4757,"lng":-99.3312,"hometown_city":"Missouri City","hometown_state":"TX"},{"name":"Dillon Mitchell","year":2028,"position":"ATH","stars":null,"rating_247":89.0,"committed_to":null,"lat":31.4757,"lng":-99.3312,"hometown_city":"Houston","hometown_state":"TX"},{"name":"Brayden Arnold","year":2028,"position":"ATH","stars":null,"rating_247":88.0,"committed_to":null,"lat":31.4757,"lng":-99.3312,"hometown_city":"Duncanville","hometown_state":"TX"},{"name":"Tristan Shelton","year":2028,"position":"ATH","stars":null,"rating_247":null,"committed_to":null,"lat":31.4757,"lng":-99.3312,"hometown_city":"Denton","hometown_state":"TX"},{"name":"Kipton Neighbors","year":2028,"position":"ATH","stars":null,"rating_247":null,"committed_to":null,"lat":31.4757,"lng":-99.3312,"hometown_city":"Gilmer","hometown_state":"TX"}]}