{"2026":[{"name":"Jonas Williams","year":2026,"position":"QB","stars":4,"rating_247":95.0,"committed_to":"Southern California","lat":41.4958665,"lng":-87.8486613,"hometown_city":"Frankfort","hometown_state":"IL"},{"name":"Dereon Coleman","year":2026,"position":"QB","stars":4,"rating_247":89.0,"committed_to":"Miami","lat":28.5421109,"lng":-81.3790304,"hometown_city":"Orlando","hometown_state":"FL"},{"name":"Teddy Jarrard","year":2026,"position":"QB","stars":4,"rating_247":89.0,"committed_to":"Notre Dame","lat":34.0234337,"lng":-84.6154897,"hometown_city":"Kennesaw","hometown_state":"GA"},{"name":"Derek Zammit","year":2026,"position":"QB","stars":4,"rating_247":88.0,"committed_to":"Washington","lat":40.9491723,"lng":-74.2376802,"hometown_city":"Wayne","hometown_state":"NJ"},{"name":"DJ Bordeaux","year":2026,"position":"QB","stars":null,"rating_247":87.0,"committed_to":"UCLA","lat":38.9972,"lng":-105.5478,"hometown_city":"Parker","hometown_state":"CO"},{"name":"Michael Clayton II","year":2026,"position":"QB","stars":null,"rating_247":86.0,"committed_to":"Illinois","lat":28.6305,"lng":-82.4497,"hometown_city":"Miami","hometown_state":"FL"},{"name":"Semaj Beals","year":2026,"position":"QB","stars":3,"rating_247":86.0,"committed_to":"Akron","lat":39.9527237,"lng":-75.1635262,"hometown_city":"Philadelphia","hometown_state":"PA"},{"name":"La\u00e2\u20ac\u2122Darius Simmons","year":2026,"position":"QB","stars":null,"rating_247":null,"committed_to":null,"lat":28.6305,"lng":-82.4497,"hometown_city":"Palm Coast","hometown_state":"FL"},{"name":"DeZephen Walker","year":2026,"position":"RB","stars":4,"rating_247":89.0,"committed_to":"Oklahoma","lat":38.7145481,"lng":-94.4611204,"hometown_city":"Peculiar","hometown_state":"MO"},{"name":"LaMarcus Bell","year":2026,"position":"RB","stars":3,"rating_247":89.0,"committed_to":"Utah","lat":45.4206749,"lng":-122.6706498,"hometown_city":"Lake Oswego","hometown_state":"OR"},{"name":"Javari Barnett","year":2026,"position":"RB","stars":3,"rating_247":88.0,"committed_to":"Illinois","lat":27.9477595,"lng":-82.458444,"hometown_city":"Tampa","hometown_state":"FL"},{"name":"Javian Mallory","year":2026,"position":"RB","stars":4,"rating_247":88.0,"committed_to":"Miami","lat":26.3586885,"lng":-80.0830984,"hometown_city":"Boca Raton","hometown_state":"FL"},{"name":"Amari Thomas","year":2026,"position":"RB","stars":4,"rating_247":88.0,"committed_to":"Florida State","lat":30.4435293,"lng":-85.0451953,"hometown_city":"Blountstown","hometown_state":"FL"},{"name":"Evan Hampton","year":2026,"position":"RB","stars":4,"rating_247":88.0,"committed_to":"Vanderbilt","lat":37.7742152,"lng":-87.1133304,"hometown_city":"Owensboro","hometown_state":"KY"},{"name":"Kory Amachree","year":2026,"position":"RB","stars":null,"rating_247":88.0,"committed_to":"Kansas","lat":44.3467,"lng":-85.4102,"hometown_city":"Haslett","hometown_state":"MI"},{"name":"Izaiah Wright","year":2026,"position":"RB","stars":3,"rating_247":87.0,"committed_to":"Purdue","lat":42.0708765,"lng":-83.2465957,"hometown_city":"Rockwood","hometown_state":"MI"},{"name":"Max Warner","year":2026,"position":"RB","stars":null,"rating_247":87.0,"committed_to":"Missouri","lat":40.0417,"lng":-89.1965,"hometown_city":"Chicago","hometown_state":"IL"},{"name":"Chase Enlow","year":2026,"position":"RB","stars":3,"rating_247":87.0,"committed_to":"Buffalo","lat":40.3492744,"lng":-74.6592958,"hometown_city":"Princeton","hometown_state":"NJ"},{"name":"Dionne Sims","year":2026,"position":"RB","stars":3,"rating_247":85.0,"committed_to":"Rice","lat":29.7589382,"lng":-95.3676974,"hometown_city":"Houston","hometown_state":"TX"},{"name":"Nelsyn Wheeler","year":2026,"position":"RB","stars":3,"rating_247":85.0,"committed_to":"Illinois","lat":41.2587459,"lng":-95.9383758,"hometown_city":"Omaha","hometown_state":"NE"},{"name":"Diesel McFadden","year":2026,"position":"RB","stars":3,"rating_247":84.0,"committed_to":"Illinois State","lat":41.8755616,"lng":-87.6244212,"hometown_city":"Chicago","hometown_state":"IL"},{"name":"Elijah Lee","year":2026,"position":"RB","stars":null,"rating_247":null,"committed_to":null,"lat":39.055,"lng":-76.7909,"hometown_city":"Randallstown","hometown_state":"MD"},{"name":"Calvin Russell III","year":2026,"position":"WR","stars":null,"rating_247":98.0,"committed_to":"Syracuse","lat":28.6305,"lng":-82.4497,"hometown_city":"Miami","hometown_state":"FL"},{"name":"Somourian Wingo","year":2026,"position":"WR","stars":4,"rating_247":97.0,"committed_to":"Miami","lat":29.8946952,"lng":-81.3145395,"hometown_city":"St. Augustine","hometown_state":"FL"},{"name":"Ethan Feaster","year":2026,"position":"WR","stars":4,"rating_247":96.0,"committed_to":"Southern California","lat":32.6061241,"lng":-96.865612653687,"hometown_city":"DeSoto","hometown_state":"TX"},{"name":"Milan Parris","year":2026,"position":"WR","stars":4,"rating_247":96.0,"committed_to":"Miami","lat":41.1596261,"lng":-81.4406258,"hometown_city":"Stow","hometown_state":"OH"},{"name":"Jayden Petit","year":2026,"position":"WR","stars":4,"rating_247":94.0,"committed_to":"Oklahoma","lat":26.1421976,"lng":-81.7942944,"hometown_city":"Naples","hometown_state":"FL"},{"name":"Jordan Clay","year":2026,"position":"WR","stars":4,"rating_247":94.0,"committed_to":"Washington","lat":29.4246002,"lng":-98.4951405,"hometown_city":"San Antonio","hometown_state":"TX"},{"name":"Jayden Warren","year":2026,"position":"WR","stars":4,"rating_247":92.0,"committed_to":"Texas A&M","lat":29.3521203,"lng":-95.460341,"hometown_city":"Rosharon","hometown_state":"TX"},{"name":"Zion Robinson","year":2026,"position":"WR","stars":4,"rating_247":91.0,"committed_to":"Stanford","lat":32.5631924,"lng":-97.1416768,"hometown_city":"Mansfield","hometown_state":"TX"},{"name":"Zion Robinson","year":2026,"position":"WR","stars":4,"rating_247":91.0,"committed_to":"Stanford","lat":32.5631924,"lng":-97.1416768,"hometown_city":"Mansfield","hometown_state":"TX"},{"name":"Nas Rankin","year":2026,"position":"WR","stars":null,"rating_247":91.0,"committed_to":"Illinois","lat":40.0417,"lng":-89.1965,"hometown_city":"Chicago","hometown_state":"IL"},{"name":"Kohen Brown","year":2026,"position":"WR","stars":3,"rating_247":90.0,"committed_to":"Texas","lat":32.3944908,"lng":-96.8439365,"hometown_city":"Waxahachie","hometown_state":"TX"},{"name":"Madden Williams","year":2026,"position":"WR","stars":4,"rating_247":90.0,"committed_to":"Texas A&M","lat":33.8825705,"lng":-118.1167679,"hometown_city":"Bellflower","hometown_state":"CA"},{"name":"Daniel Odom","year":2026,"position":"WR","stars":4,"rating_247":90.0,"committed_to":"Oklahoma","lat":33.8825705,"lng":-118.1167679,"hometown_city":"Bellflower","hometown_state":"CA"},{"name":"Kenyon Alston","year":2026,"position":"WR","stars":3,"rating_247":89.0,"committed_to":"Illinois","lat":28.5421109,"lng":-81.3790304,"hometown_city":"Orlando","hometown_state":"FL"},{"name":"Tayveon Wilson","year":2026,"position":"WR","stars":3,"rating_247":89.0,"committed_to":"Clemson","lat":38.4192496,"lng":-82.445154,"hometown_city":"Huntington","hometown_state":"WV"},{"name":"Davion Peters","year":2026,"position":"WR","stars":3,"rating_247":89.0,"committed_to":"Baylor","lat":31.098207,"lng":-97.3427847,"hometown_city":"Temple","hometown_state":"TX"},{"name":"Jaeden Ricketts","year":2026,"position":"WR","stars":4,"rating_247":88.0,"committed_to":"Ohio State","lat":39.9956193,"lng":-82.6743341,"hometown_city":"Pataskala","hometown_state":"OH"},{"name":"Tatum Bell Jr.","year":2026,"position":"WR","stars":3,"rating_247":88.0,"committed_to":"Nevada, Las Vegas","lat":33.046233,"lng":-96.994174,"hometown_city":"Lewisville","hometown_state":"TX"},{"name":"Davon Grant","year":2026,"position":"WR","stars":3,"rating_247":88.0,"committed_to":"Illinois","lat":41.9294736,"lng":-88.7503647,"hometown_city":"DeKalb","hometown_state":"IL"},{"name":"Owen Cabell","year":2026,"position":"WR","stars":3,"rating_247":88.0,"committed_to":"Vanderbilt","lat":36.1622296,"lng":-86.7743531,"hometown_city":"Nashville","hometown_state":"TN"},{"name":"Derrick Salley Jr.","year":2026,"position":"WR","stars":null,"rating_247":88.0,"committed_to":"Kansas State","lat":38.4937,"lng":-98.3804,"hometown_city":"Hutchinson","hometown_state":"KS"},{"name":"Keon Hutchins","year":2026,"position":"WR","stars":null,"rating_247":88.0,"committed_to":"West Virginia","lat":32.7364,"lng":-89.6678,"hometown_city":"Senatobia","hometown_state":"MS"},{"name":"Amarion Jackson","year":2026,"position":"WR","stars":3,"rating_247":87.0,"committed_to":"Penn State","lat":41.2587459,"lng":-95.9383758,"hometown_city":"Omaha","hometown_state":"NE"},{"name":"James Scott","year":2026,"position":"WR","stars":3,"rating_247":87.0,"committed_to":"Texas Christian","lat":30.3118769,"lng":-95.4560512,"hometown_city":"Conroe","hometown_state":"TX"},{"name":"Brock Boyd","year":2026,"position":"WR","stars":3,"rating_247":87.0,"committed_to":"Ohio State","lat":32.9412363,"lng":-97.1341783,"hometown_city":"Southlake","hometown_state":"TX"},{"name":"Larry Miles","year":2026,"position":"WR","stars":3,"rating_247":87.0,"committed_to":"Nebraska","lat":28.5421109,"lng":-81.3790304,"hometown_city":"Orlando","hometown_state":"FL"},{"name":"Zach Washington","year":2026,"position":"WR","stars":null,"rating_247":87.0,"committed_to":"Michigan State","lat":40.0417,"lng":-89.1965,"hometown_city":"Wheaton","hometown_state":"IL"},{"name":"Xavier Stinson","year":2026,"position":"WR","stars":3,"rating_247":87.0,"committed_to":"Iowa","lat":27.6387163,"lng":-80.3975399,"hometown_city":"Vero Beach","hometown_state":"FL"},{"name":"Devyon Hill-Lomax","year":2026,"position":"WR","stars":3,"rating_247":87.0,"committed_to":"Missouri","lat":38.8114364,"lng":-89.953157,"hometown_city":"Edwardsville","hometown_state":"IL"},{"name":"Nyqir Helton","year":2026,"position":"WR","stars":3,"rating_247":87.0,"committed_to":"North Carolina","lat":39.769838,"lng":-74.8873855,"hometown_city":"Atco","hometown_state":"NJ"},{"name":"Demetrice McCray","year":2026,"position":"WR","stars":3,"rating_247":86.0,"committed_to":"Pittsburgh","lat":28.5421109,"lng":-81.3790304,"hometown_city":"Orlando","hometown_state":"FL"},{"name":"Brody Keefe","year":2026,"position":"WR","stars":3,"rating_247":86.0,"committed_to":"Duke","lat":35.2272,"lng":-80.843083,"hometown_city":"Charlotte","hometown_state":"NC"},{"name":"Leslie Mosley Jr.","year":2026,"position":"WR","stars":null,"rating_247":86.0,"committed_to":"Illinois","lat":28.6305,"lng":-82.4497,"hometown_city":"West Palm Beach","hometown_state":"FL"},{"name":"Markus Kier","year":2026,"position":"WR","stars":3,"rating_247":86.0,"committed_to":"UCLA","lat":33.7872568,"lng":-117.8503088,"hometown_city":"Orange","hometown_state":"CA"},{"name":"Jaylen Pile","year":2026,"position":"WR","stars":3,"rating_247":85.0,"committed_to":"Michigan","lat":32.7762719,"lng":-96.7968559,"hometown_city":"Dallas","hometown_state":"TX"},{"name":"Jayden Moore","year":2026,"position":"WR","stars":3,"rating_247":85.0,"committed_to":"North Dakota","lat":44.9271194,"lng":-93.4074945,"hometown_city":"Hopkins","hometown_state":"MN"},{"name":"Maxwell Young","year":2026,"position":"WR","stars":3,"rating_247":83.0,"committed_to":"Fresno State","lat":33.8347516,"lng":-117.911732,"hometown_city":"Anaheim","hometown_state":"CA"},{"name":"Quinn Martinez","year":2026,"position":"WR","stars":3,"rating_247":83.0,"committed_to":null,"lat":37.7986184,"lng":-121.2117148,"hometown_city":"Manteca","hometown_state":"CA"},{"name":"Jacob Harvey","year":2026,"position":"WR","stars":null,"rating_247":83.0,"committed_to":"Illinois","lat":40.0417,"lng":-89.1965,"hometown_city":"Mt. Zion","hometown_state":"IL"},{"name":"Tylan Vickers","year":2026,"position":"WR","stars":null,"rating_247":null,"committed_to":null,"lat":28.6305,"lng":-82.4497,"hometown_city":"Havana","hometown_state":"FL"},{"name":"Nate Cichy","year":2026,"position":"WR","stars":null,"rating_247":null,"committed_to":"Illinois","lat":40.0417,"lng":-89.1965,"hometown_city":"Mount Prospect","hometown_state":"IL"},{"name":"Lincoln Keyes","year":2026,"position":"TE","stars":4,"rating_247":95.0,"committed_to":"Georgia","lat":42.1667072,"lng":-83.7816075,"hometown_city":"Saline","hometown_state":"MI"},{"name":"Gavin Mueller","year":2026,"position":"TE","stars":4,"rating_247":94.0,"committed_to":"Miami","lat":41.9941938,"lng":-88.2922996,"hometown_city":"South Elgin","hometown_state":"IL"},{"name":"JC Anderson","year":2026,"position":"TE","stars":null,"rating_247":91.0,"committed_to":"Louisiana State","lat":40.0417,"lng":-89.1965,"hometown_city":"Mt. Zion","hometown_state":"IL"},{"name":"Evan Jacobson","year":2026,"position":"TE","stars":4,"rating_247":91.0,"committed_to":"Texas A&M","lat":41.6118485,"lng":-93.8845129,"hometown_city":"Waukee","hometown_state":"IA"},{"name":"BJ Thurman","year":2026,"position":"TE","stars":null,"rating_247":89.0,"committed_to":"Illinois","lat":37.1841,"lng":-119.4696,"hometown_city":"San Mateo","hometown_state":"CA"},{"name":"Corbyn Fordham","year":2026,"position":"TE","stars":3,"rating_247":88.0,"committed_to":"Florida State","lat":30.3321838,"lng":-81.655651,"hometown_city":"Jacksonville","hometown_state":"FL"},{"name":"Zack Turner","year":2026,"position":"TE","stars":null,"rating_247":88.0,"committed_to":"SMU","lat":31.4757,"lng":-99.3312,"hometown_city":"Duncanville","hometown_state":"TX"},{"name":"Kekua Aumua","year":2026,"position":"TE","stars":3,"rating_247":88.0,"committed_to":"Washington","lat":21.679124,"lng":-157.94838,"hometown_city":"Kahuku","hometown_state":"HI"},{"name":"Ryder Mix","year":2026,"position":"TE","stars":3,"rating_247":87.0,"committed_to":"Oklahoma","lat":33.1506744,"lng":-96.8236116,"hometown_city":"Frisco","hometown_state":"TX"},{"name":"Jack Janda","year":2026,"position":"TE","stars":3,"rating_247":87.0,"committed_to":"Iowa","lat":42.5869558,"lng":-83.36895696372882,"hometown_city":"Orchard Lake","hometown_state":"MI"},{"name":"Landen Miree","year":2026,"position":"TE","stars":3,"rating_247":87.0,"committed_to":"Arizona State","lat":39.1014537,"lng":-84.5124602,"hometown_city":"Cincinnati","hometown_state":"OH"},{"name":"Eddie Whiting","year":2026,"position":"TE","stars":3,"rating_247":87.0,"committed_to":"Michigan State","lat":43.5499749,"lng":-96.700327,"hometown_city":"Sioux Falls","hometown_state":"SD"},{"name":"Isaac Jensen","year":2026,"position":"TE","stars":3,"rating_247":87.0,"committed_to":"Missouri","lat":41.2587459,"lng":-95.9383758,"hometown_city":"Omaha","hometown_state":"NE"},{"name":"PJ MacFarlane","year":2026,"position":"TE","stars":3,"rating_247":87.0,"committed_to":"Indiana","lat":39.5150576,"lng":-84.3982763,"hometown_city":"Middletown","hometown_state":"OH"},{"name":"Kevin Sullivan","year":2026,"position":"TE","stars":3,"rating_247":87.0,"committed_to":"Kansas","lat":39.100105,"lng":-94.5781416,"hometown_city":"Kansas City","hometown_state":"MO"},{"name":"Jack Utz","year":2026,"position":"TE","stars":3,"rating_247":86.0,"committed_to":"Kansas","lat":39.3703535,"lng":-94.781086,"hometown_city":"Platte City","hometown_state":"MO"},{"name":"Will Vala","year":2026,"position":"TE","stars":3,"rating_247":86.0,"committed_to":"Illinois","lat":41.7938195,"lng":-88.010376,"hometown_city":"Downers Grove","hometown_state":"IL"},{"name":"Colby Simpson","year":2026,"position":"TE","stars":3,"rating_247":85.0,"committed_to":"Tulane","lat":34.1460234,"lng":-118.8061794,"hometown_city":"Westlake Village","hometown_state":"CA"},{"name":"Javar Bowden","year":2026,"position":"TE","stars":3,"rating_247":84.0,"committed_to":"Jackson State","lat":30.1600827,"lng":-85.6545729,"hometown_city":"Panama City","hometown_state":"FL"},{"name":"Calerbe Hermane","year":2026,"position":"TE","stars":null,"rating_247":null,"committed_to":"Murray State","lat":28.6305,"lng":-82.4497,"hometown_city":"Boca Raton","hometown_state":"FL"},{"name":"Jackson Cantwell","year":2026,"position":"OT","stars":5,"rating_247":99.0,"committed_to":"Miami","lat":37.0439358,"lng":-93.3098534,"hometown_city":"Nixa","hometown_state":"MO"},{"name":"Claude Mpouma","year":2026,"position":"OT","stars":4,"rating_247":93.0,"committed_to":"Nebraska","lat":41.8755616,"lng":-87.6244212,"hometown_city":"Chicago","hometown_state":"IL"},{"name":"Gregory Patrick","year":2026,"position":"OT","stars":4,"rating_247":91.0,"committed_to":"Notre Dame","lat":42.2011538,"lng":-85.5800022,"hometown_city":"Portage","hometown_state":"MI"},{"name":"Champ Smith","year":2026,"position":"OT","stars":3,"rating_247":89.0,"committed_to":"Illinois","lat":25.7742658,"lng":-80.1936589,"hometown_city":"Miami","hometown_state":"FL"},{"name":"Khalief Canty Jr.","year":2026,"position":"OT","stars":null,"rating_247":88.0,"committed_to":"Missouri","lat":44.3467,"lng":-85.4102,"hometown_city":"Detroit","hometown_state":"MI"},{"name":"Marlen Bright","year":2026,"position":"OT","stars":4,"rating_247":88.0,"committed_to":"Virginia Tech","lat":40.9491723,"lng":-74.2376802,"hometown_city":"Wayne","hometown_state":"NJ"},{"name":"TJ Taylor","year":2026,"position":"OT","stars":null,"rating_247":88.0,"committed_to":"Illinois","lat":37.1841,"lng":-119.4696,"hometown_city":"Valencia","hometown_state":"CA"},{"name":"Malik White","year":2026,"position":"OT","stars":3,"rating_247":87.0,"committed_to":"Nevada, Las Vegas","lat":34.1033192,"lng":-117.5751735,"hometown_city":"Rancho Cucamonga","hometown_state":"CA"},{"name":"Casey Thomann","year":2026,"position":"OT","stars":3,"rating_247":87.0,"committed_to":"Illinois","lat":38.7296538,"lng":-88.0846891,"hometown_city":"Olney","hometown_state":"IL"},{"name":"Alfred Washington","year":2026,"position":"OT","stars":null,"rating_247":86.0,"committed_to":"Illinois","lat":32.7364,"lng":-89.6678,"hometown_city":"Booneville","hometown_state":"MS"},{"name":"JaKolby Jones","year":2026,"position":"OT","stars":null,"rating_247":84.0,"committed_to":"Louisiana State","lat":32.7364,"lng":-89.6678,"hometown_city":"Wesson","hometown_state":"MS"},{"name":"Ben Nichols","year":2026,"position":"IOL","stars":4,"rating_247":94.0,"committed_to":"Notre Dame","lat":43.0346872,"lng":-83.5180155,"hometown_city":"Davison","hometown_state":"MI"},{"name":"Breck Kolojay","year":2026,"position":"IOL","stars":4,"rating_247":93.0,"committed_to":"Southern California","lat":27.4989278,"lng":-82.5748194,"hometown_city":"Bradenton","hometown_state":"FL"},{"name":"Kai Pritchard","year":2026,"position":"IOL","stars":4,"rating_247":91.0,"committed_to":"Illinois","lat":39.9537359,"lng":-74.1979576,"hometown_city":"Toms River","hometown_state":"NJ"},{"name":"Gene Riordan","year":2026,"position":"IOL","stars":4,"rating_247":90.0,"committed_to":"Iowa","lat":41.794528,"lng":-87.92761808245767,"hometown_city":"Hinsdale","hometown_state":"IL"},{"name":"Owen Fors","year":2026,"position":"IOL","stars":3,"rating_247":90.0,"committed_to":"Northwestern","lat":42.1539141,"lng":-88.1361888,"hometown_city":"Barrington","hometown_state":"IL"},{"name":"Tony Balanganayi","year":2026,"position":"IOL","stars":3,"rating_247":89.0,"committed_to":"Illinois","lat":42.1105779,"lng":-88.0336888,"hometown_city":"Palatine","hometown_state":"IL"},{"name":"G'Nivre Carr","year":2026,"position":"IOL","stars":3,"rating_247":88.0,"committed_to":"Florida","lat":27.4989278,"lng":-82.5748194,"hometown_city":"Bradenton","hometown_state":"FL"},{"name":"Canon Pickett","year":2026,"position":"IOL","stars":3,"rating_247":87.0,"committed_to":"Miami","lat":27.9477595,"lng":-82.458444,"hometown_city":"Tampa","hometown_state":"FL"},{"name":"Sam Simpson","year":2026,"position":"IOL","stars":null,"rating_247":87.0,"committed_to":"Indiana","lat":44.6243,"lng":-89.9941,"hometown_city":"River Falls","hometown_state":"WI"},{"name":"Maika Matelau","year":2026,"position":"IOL","stars":null,"rating_247":87.0,"committed_to":"Illinois","lat":37.1841,"lng":-119.4696,"hometown_city":"Walnut","hometown_state":"CA"},{"name":"George Williams-Haseotes","year":2026,"position":"IOL","stars":null,"rating_247":86.0,"committed_to":"Vanderbilt","lat":28.6305,"lng":-82.4497,"hometown_city":"Naples","hometown_state":"FL"},{"name":"Landen Von Seggern","year":2026,"position":"IOL","stars":3,"rating_247":86.0,"committed_to":"Illinois","lat":41.2587459,"lng":-95.9383758,"hometown_city":"Omaha","hometown_state":"NE"},{"name":"James Thomas","year":2026,"position":"IOL","stars":3,"rating_247":84.0,"committed_to":null,"lat":42.8858503,"lng":-87.8631362,"hometown_city":"Oak Creek","hometown_state":"WI"},{"name":"Kaleb Barnes","year":2026,"position":"IOL","stars":3,"rating_247":84.0,"committed_to":null,"lat":30.4380832,"lng":-84.2809332,"hometown_city":"Tallahassee","hometown_state":"FL"},{"name":"Luke Wafle","year":2026,"position":"Edge","stars":4,"rating_247":99.0,"committed_to":"Southern California","lat":40.3492744,"lng":-74.6592958,"hometown_city":"Princeton","hometown_state":"NJ"},{"name":"Carter Meadows","year":2026,"position":"Edge","stars":5,"rating_247":98.0,"committed_to":"Michigan","lat":38.8949855,"lng":-77.0365708,"hometown_city":"Washington","hometown_state":"DC"},{"name":"Titan Davis","year":2026,"position":"Edge","stars":4,"rating_247":96.0,"committed_to":"Michigan","lat":38.6268039,"lng":-90.1994097,"hometown_city":"St. Louis","hometown_state":"MO"},{"name":"Asharri Charles","year":2026,"position":"Edge","stars":4,"rating_247":95.0,"committed_to":"Miami","lat":27.0999188,"lng":-82.4543597,"hometown_city":"Venice","hometown_state":"FL"},{"name":"Trenton Henderson","year":2026,"position":"Edge","stars":4,"rating_247":95.0,"committed_to":"Louisiana State","lat":30.421309,"lng":-87.2169149,"hometown_city":"Pensacola","hometown_state":"FL"},{"name":"DeAnthony Lafayette","year":2026,"position":"Edge","stars":4,"rating_247":91.0,"committed_to":"Miami","lat":28.5421109,"lng":-81.3790304,"hometown_city":"Orlando","hometown_state":"FL"},{"name":"Jalen Anderson","year":2026,"position":"Edge","stars":null,"rating_247":90.0,"committed_to":"Florida State","lat":32.7364,"lng":-89.6678,"hometown_city":"Poplarville","hometown_state":"MS"},{"name":"Zavion Griffin-Haynes","year":2026,"position":"Edge","stars":3,"rating_247":89.0,"committed_to":"North Carolina","lat":35.9232862,"lng":-78.4573914,"hometown_city":"Rolesville","hometown_state":"NC"},{"name":"Kamron Wilson","year":2026,"position":"Edge","stars":3,"rating_247":89.0,"committed_to":"Syracuse","lat":25.7742658,"lng":-80.1936589,"hometown_city":"Miami","hometown_state":"FL"},{"name":"McHale Blade","year":2026,"position":"Edge","stars":4,"rating_247":89.0,"committed_to":"Michigan","lat":41.8755616,"lng":-87.6244212,"hometown_city":"Chicago","hometown_state":"IL"},{"name":"Jarius Rodgers","year":2026,"position":"Edge","stars":3,"rating_247":88.0,"committed_to":"Syracuse","lat":30.1654707,"lng":-81.7016346,"hometown_city":"Orange Park","hometown_state":"FL"},{"name":"Braeden Jones","year":2026,"position":"Edge","stars":4,"rating_247":88.0,"committed_to":"Southern California","lat":41.8755616,"lng":-87.6244212,"hometown_city":"Chicago","hometown_state":"IL"},{"name":"Parker Crim","year":2026,"position":"Edge","stars":null,"rating_247":88.0,"committed_to":"Illinois","lat":40.2862,"lng":-82.7937,"hometown_city":"Elida","hometown_state":"OH"},{"name":"Max Meier","year":2026,"position":"Edge","stars":3,"rating_247":88.0,"committed_to":"Stanford","lat":34.0536909,"lng":-118.2427666,"hometown_city":"Los Angeles","hometown_state":"CA"},{"name":"Jaylen Stewart","year":2026,"position":"Edge","stars":3,"rating_247":88.0,"committed_to":"Illinois","lat":29.5639758,"lng":-95.2864299,"hometown_city":"Pearland","hometown_state":"TX"},{"name":"Tucker Ashford","year":2026,"position":"Edge","stars":3,"rating_247":87.0,"committed_to":"Kansas State","lat":32.8342952,"lng":-97.2289029,"hometown_city":"North Richland Hills","hometown_state":"TX"},{"name":"Jacob Alexander","year":2026,"position":"Edge","stars":3,"rating_247":87.0,"committed_to":"Illinois","lat":41.4958665,"lng":-87.8486613,"hometown_city":"Frankfort","hometown_state":"IL"},{"name":"Landon Bland","year":2026,"position":"Edge","stars":3,"rating_247":87.0,"committed_to":"Oklahoma State","lat":37.1765141,"lng":-94.3103412,"hometown_city":"Carthage","hometown_state":"MO"},{"name":"Cory House","year":2026,"position":"Edge","stars":3,"rating_247":87.0,"committed_to":"Michigan State","lat":35.1490215,"lng":-90.0516285,"hometown_city":"Memphis","hometown_state":"TN"},{"name":"Kingston Shaw","year":2026,"position":"Edge","stars":3,"rating_247":86.0,"committed_to":"Illinois","lat":28.5421109,"lng":-81.3790304,"hometown_city":"Orlando","hometown_state":"FL"},{"name":"Kayden Bennett","year":2026,"position":"Edge","stars":3,"rating_247":86.0,"committed_to":"Illinois","lat":41.9816944,"lng":-72.6506604,"hometown_city":"Suffield","hometown_state":"CT"},{"name":"James Johnson","year":2026,"position":"DL","stars":4,"rating_247":93.0,"committed_to":"Texas","lat":25.7742658,"lng":-80.1936589,"hometown_city":"Miami","hometown_state":"FL"},{"name":"Kevontay Hugan","year":2026,"position":"DL","stars":4,"rating_247":93.0,"committed_to":"Indiana","lat":27.3364347,"lng":-82.5306527,"hometown_city":"Sarasota","hometown_state":"FL"},{"name":"Lance Dawson","year":2026,"position":"DL","stars":4,"rating_247":92.0,"committed_to":"Cincinnati","lat":41.4516512,"lng":-82.0350598,"hometown_city":"Avon","hometown_state":"OH"},{"name":"Elijah Golden","year":2026,"position":"DL","stars":4,"rating_247":92.0,"committed_to":"Notre Dame","lat":27.3364347,"lng":-82.5306527,"hometown_city":"Sarasota","hometown_state":"FL"},{"name":"Kendall Guervil","year":2026,"position":"DL","stars":4,"rating_247":91.0,"committed_to":"Florida","lat":26.640628,"lng":-81.8723084,"hometown_city":"Fort Myers","hometown_state":"FL"},{"name":"Cam McHaney","year":2026,"position":"DL","stars":null,"rating_247":89.0,"committed_to":"Indiana","lat":28.6305,"lng":-82.4497,"hometown_city":"Bradenton","hometown_state":"FL"},{"name":"Jermaine Kinsler","year":2026,"position":"DL","stars":4,"rating_247":89.0,"committed_to":"Texas A&M","lat":40.9543943,"lng":-74.0308504,"hometown_city":"Oradell","hometown_state":"NJ"},{"name":"Gabe Hill","year":2026,"position":"DL","stars":null,"rating_247":88.0,"committed_to":"Indiana","lat":40.0417,"lng":-89.1965,"hometown_city":"Naperville","hometown_state":"IL"},{"name":"JaMarcus Whyce","year":2026,"position":"DL","stars":3,"rating_247":88.0,"committed_to":"Maryland","lat":39.7589478,"lng":-84.1916069,"hometown_city":"Dayton","hometown_state":"OH"},{"name":"Daniel Howard","year":2026,"position":"DL","stars":3,"rating_247":88.0,"committed_to":"Iowa State","lat":41.8755616,"lng":-87.6244212,"hometown_city":"Chicago","hometown_state":"IL"},{"name":"JJ Finch","year":2026,"position":"DL","stars":3,"rating_247":88.0,"committed_to":"Tennessee","lat":39.7683331,"lng":-86.1583502,"hometown_city":"Indianapolis","hometown_state":"IN"},{"name":"King Liggins","year":2026,"position":"DL","stars":3,"rating_247":87.0,"committed_to":"Illinois","lat":41.8755616,"lng":-87.6244212,"hometown_city":"Chicago","hometown_state":"IL"},{"name":"Blake Smythe","year":2026,"position":"DL","stars":3,"rating_247":87.0,"committed_to":"Indiana","lat":39.4806056,"lng":-86.0549863,"hometown_city":"Franklin","hometown_state":"IN"},{"name":"Joshua Davis","year":2026,"position":"DL","stars":null,"rating_247":87.0,"committed_to":"Illinois","lat":32.7364,"lng":-89.6678,"hometown_city":"Wesson","hometown_state":"MS"},{"name":"Tyrell O'Neal","year":2026,"position":"DL","stars":3,"rating_247":86.0,"committed_to":"Toledo","lat":41.5051613,"lng":-81.6934446,"hometown_city":"Cleveland","hometown_state":"OH"},{"name":"Bryce Robinson","year":2026,"position":"DL","stars":3,"rating_247":86.0,"committed_to":"Nevada, Las Vegas","lat":33.9528472,"lng":-84.5496148,"hometown_city":"Marietta","hometown_state":"GA"},{"name":"Deon Williams","year":2026,"position":"DL","stars":null,"rating_247":null,"committed_to":"Illinois","lat":37.1841,"lng":-119.4696,"hometown_city":"San Francisco","hometown_state":"CA"},{"name":"Cincere Johnson","year":2026,"position":"LB","stars":4,"rating_247":98.0,"committed_to":"Ohio State","lat":41.5051613,"lng":-81.6934446,"hometown_city":"Cleveland","hometown_state":"OH"},{"name":"Izayia Williams","year":2026,"position":"LB","stars":4,"rating_247":91.0,"committed_to":"Florida State","lat":28.78992535,"lng":-81.77516353978501,"hometown_city":"Tavares","hometown_state":"FL"},{"name":"Ja'Kobe Clapper","year":2026,"position":"LB","stars":null,"rating_247":89.0,"committed_to":"Notre Dame","lat":40.2862,"lng":-82.7937,"hometown_city":"Cincinnati","hometown_state":"OH"},{"name":"Calvin Thomas","year":2026,"position":"LB","stars":4,"rating_247":89.0,"committed_to":"North Carolina","lat":29.9691116,"lng":-95.6971686,"hometown_city":"Cypress","hometown_state":"TX"},{"name":"Kedric Golston II","year":2026,"position":"LB","stars":4,"rating_247":89.0,"committed_to":"Tennessee","lat":39.0437192,"lng":-77.4874899,"hometown_city":"Ashburn","hometown_state":"VA"},{"name":"Tyson Harley","year":2026,"position":"LB","stars":4,"rating_247":89.0,"committed_to":"Virginia Tech","lat":38.8949855,"lng":-77.0365708,"hometown_city":"Washington","hometown_state":"DC"},{"name":"Trevor Gibbs","year":2026,"position":"LB","stars":3,"rating_247":89.0,"committed_to":"Indiana","lat":41.4169806,"lng":-87.3653136,"hometown_city":"Crown Point","hometown_state":"IN"},{"name":"Cameron Thomas","year":2026,"position":"LB","stars":null,"rating_247":88.0,"committed_to":"Illinois","lat":40.2862,"lng":-82.7937,"hometown_city":"West Chester","hometown_state":"OH"},{"name":"Hudson Dunn","year":2026,"position":"LB","stars":3,"rating_247":87.0,"committed_to":"Minnesota","lat":33.5806115,"lng":-112.2372942,"hometown_city":"Peoria","hometown_state":"AZ"},{"name":"Adam Balogoun-Ali","year":2026,"position":"LB","stars":4,"rating_247":87.0,"committed_to":"Auburn","lat":26.715364,"lng":-80.0532942,"hometown_city":"West Palm Beach","hometown_state":"FL"},{"name":"Archie Chambers","year":2026,"position":"LB","stars":null,"rating_247":87.0,"committed_to":"Texas-San Antonio","lat":32.7364,"lng":-89.6678,"hometown_city":"Wesson","hometown_state":"MS"},{"name":"Tony Williams","year":2026,"position":"LB","stars":3,"rating_247":86.0,"committed_to":"Illinois","lat":30.3321838,"lng":-81.655651,"hometown_city":"Jacksonville","hometown_state":"FL"},{"name":"Jamarion Phillips","year":2026,"position":"LB","stars":3,"rating_247":86.0,"committed_to":"Baylor","lat":32.7762719,"lng":-96.7968559,"hometown_city":"Dallas","hometown_state":"TX"},{"name":"Kaedyn Cobbs","year":2026,"position":"LB","stars":3,"rating_247":86.0,"committed_to":"Illinois","lat":33.2150386,"lng":-97.1330516,"hometown_city":"Denton","hometown_state":"TX"},{"name":"Jayden Jones","year":2026,"position":"LB","stars":3,"rating_247":86.0,"committed_to":"Connecticut","lat":39.4020593,"lng":-75.0393368,"hometown_city":"Millville","hometown_state":"NJ"},{"name":"Noriel Dominguez","year":2026,"position":"LB","stars":3,"rating_247":86.0,"committed_to":"Texas Christian","lat":29.5821811,"lng":-95.7607832,"hometown_city":"Richmond","hometown_state":"TX"},{"name":"Andre Parker","year":2026,"position":"LB","stars":3,"rating_247":85.0,"committed_to":"Marshall","lat":39.1014537,"lng":-84.5124602,"hometown_city":"Cincinnati","hometown_state":"OH"},{"name":"Lesroy Tittle","year":2026,"position":"LB","stars":3,"rating_247":83.0,"committed_to":null,"lat":41.7571701,"lng":-88.3147539,"hometown_city":"Aurora","hometown_state":"IL"},{"name":"Chuck Kennon","year":2026,"position":"CB","stars":null,"rating_247":97.0,"committed_to":"Florida State","lat":28.6305,"lng":-82.4497,"hometown_city":"Sarasota","hometown_state":"FL"},{"name":"Ayden Pouncey","year":2026,"position":"CB","stars":4,"rating_247":96.0,"committed_to":"Notre Dame","lat":26.13784445,"lng":-81.75399813758739,"hometown_city":"Winter Park","hometown_state":"FL"},{"name":"Elbert Hill IV","year":2026,"position":"CB","stars":null,"rating_247":95.0,"committed_to":"Southern California","lat":40.2862,"lng":-82.7937,"hometown_city":"Akron","hometown_state":"OH"},{"name":"JJ Dunnigan","year":2026,"position":"CB","stars":4,"rating_247":95.0,"committed_to":"Miami","lat":39.1836082,"lng":-96.5716694,"hometown_city":"Manhattan","hometown_state":"KS"},{"name":"Caden Harris","year":2026,"position":"CB","stars":4,"rating_247":95.0,"committed_to":"Georgia","lat":35.5939671,"lng":-89.262291,"hometown_city":"Brownsville","hometown_state":"TN"},{"name":"Nick Hankins Jr.","year":2026,"position":"CB","stars":null,"rating_247":93.0,"committed_to":"Illinois","lat":40.0417,"lng":-89.1965,"hometown_city":"Belleville","hometown_state":"IL"},{"name":"Justice Fitzpatrick","year":2026,"position":"CB","stars":4,"rating_247":92.0,"committed_to":"Georgia","lat":26.1223084,"lng":-80.1433786,"hometown_city":"Fort Lauderdale","hometown_state":"FL"},{"name":"Vic Singleton","year":2026,"position":"CB","stars":null,"rating_247":91.0,"committed_to":"Texas A&M","lat":40.2862,"lng":-82.7937,"hometown_city":"Toledo","hometown_state":"OH"},{"name":"Messiah Tilson","year":2026,"position":"CB","stars":4,"rating_247":90.0,"committed_to":"Rutgers","lat":42.2713945,"lng":-89.093966,"hometown_city":"Rockford","hometown_state":"IL"},{"name":"AJ Marks","year":2026,"position":"CB","stars":3,"rating_247":90.0,"committed_to":"Wake Forest","lat":27.4989278,"lng":-82.5748194,"hometown_city":"Bradenton","hometown_state":"FL"},{"name":"Kasmir Hicks","year":2026,"position":"CB","stars":4,"rating_247":90.0,"committed_to":"Indiana","lat":39.7683331,"lng":-86.1583502,"hometown_city":"Indianapolis","hometown_state":"IN"},{"name":"Kenton Dopson III","year":2026,"position":"CB","stars":null,"rating_247":90.0,"committed_to":"North Carolina","lat":28.6305,"lng":-82.4497,"hometown_city":"Miami","hometown_state":"FL"},{"name":"Brandon Lockhart","year":2026,"position":"CB","stars":4,"rating_247":89.0,"committed_to":"Southern California","lat":34.2595715,"lng":-118.6023247,"hometown_city":"Chatsworth","hometown_state":"CA"},{"name":"Almirian Thomas","year":2026,"position":"CB","stars":3,"rating_247":89.0,"committed_to":"Illinois","lat":26.6059432,"lng":-81.9806771,"hometown_city":"Cape Coral","hometown_state":"FL"},{"name":"Brody Jennings","year":2026,"position":"CB","stars":4,"rating_247":88.0,"committed_to":"Miami","lat":30.3321838,"lng":-81.655651,"hometown_city":"Jacksonville","hometown_state":"FL"},{"name":"Jakwon Morris","year":2026,"position":"CB","stars":null,"rating_247":88.0,"committed_to":"Illinois","lat":32.7364,"lng":-89.6678,"hometown_city":"Senatobia","hometown_state":"MS"},{"name":"Raderrion Daniels","year":2026,"position":"CB","stars":3,"rating_247":87.0,"committed_to":"Purdue","lat":34.9042635,"lng":-90.2145395,"hometown_city":"Lake Cormorant","hometown_state":"MS"},{"name":"Jalon Copeland","year":2026,"position":"CB","stars":3,"rating_247":87.0,"committed_to":"Arkansas","lat":30.8327022,"lng":-83.2784851,"hometown_city":"Valdosta","hometown_state":"GA"},{"name":"Elijah Durr","year":2026,"position":"CB","stars":3,"rating_247":87.0,"committed_to":"Washington","lat":47.2495798,"lng":-122.4398746,"hometown_city":"Tacoma","hometown_state":"WA"},{"name":"Emari Peterson","year":2026,"position":"CB","stars":3,"rating_247":86.0,"committed_to":"Louisiana State","lat":28.5421109,"lng":-81.3790304,"hometown_city":"Orlando","hometown_state":"FL"},{"name":"Javan Allison","year":2026,"position":"CB","stars":3,"rating_247":84.0,"committed_to":"Jacksonville State","lat":25.7742658,"lng":-80.1936589,"hometown_city":"Miami","hometown_state":"FL"},{"name":"Leonzay Merzius","year":2026,"position":"CB","stars":3,"rating_247":84.0,"committed_to":"Western Kentucky","lat":26.0112014,"lng":-80.1494901,"hometown_city":"Hollywood","hometown_state":"FL"},{"name":"Devin Jackson","year":2026,"position":"S","stars":4,"rating_247":95.0,"committed_to":"Oregon","lat":28.5421109,"lng":-81.3790304,"hometown_city":"Orlando","hometown_state":"FL"},{"name":"Jaydin Broadnax","year":2026,"position":"S","stars":4,"rating_247":92.0,"committed_to":"Louisville","lat":26.3586885,"lng":-80.0830984,"hometown_city":"Boca Raton","hometown_state":"FL"},{"name":"Xavier Lherisse","year":2026,"position":"S","stars":4,"rating_247":91.0,"committed_to":"Oregon","lat":28.0836269,"lng":-80.6081089,"hometown_city":"Melbourne","hometown_state":"FL"},{"name":"Kaden Gebhardt","year":2026,"position":"S","stars":3,"rating_247":90.0,"committed_to":"Ohio State","lat":40.1983958,"lng":-83.0101843,"hometown_city":"Lewis Center","hometown_state":"OH"},{"name":"Marcus Jennings","year":2026,"position":"S","stars":3,"rating_247":90.0,"committed_to":"Pittsburgh","lat":42.3315509,"lng":-83.0466403,"hometown_city":"Detroit","hometown_state":"MI"},{"name":"Keenan Harris","year":2026,"position":"S","stars":3,"rating_247":89.0,"committed_to":"Missouri","lat":38.6268039,"lng":-90.1994097,"hometown_city":"St. Louis","hometown_state":"MO"},{"name":"Jacob Eberhart","year":2026,"position":"S","stars":4,"rating_247":89.0,"committed_to":"Illinois","lat":38.6268039,"lng":-90.1994097,"hometown_city":"St. Louis","hometown_state":"MO"},{"name":"D'Montae Tims","year":2026,"position":"S","stars":3,"rating_247":88.0,"committed_to":"Indiana","lat":27.998541000000003,"lng":-82.27488400114905,"hometown_city":"Seffner","hometown_state":"FL"},{"name":"Braeden Presley","year":2026,"position":"S","stars":3,"rating_247":88.0,"committed_to":"Oklahoma State","lat":35.9420431,"lng":-95.8833235,"hometown_city":"Bixby","hometown_state":"OK"},{"name":"Isaiah Williams","year":2026,"position":"S","stars":3,"rating_247":88.0,"committed_to":"Illinois","lat":38.6779591,"lng":-121.1760583,"hometown_city":"Folsom","hometown_state":"CA"},{"name":"Karaijus Hayes","year":2026,"position":"S","stars":3,"rating_247":86.0,"committed_to":"Florida International","lat":27.3364347,"lng":-82.5306527,"hometown_city":"Sarasota","hometown_state":"FL"},{"name":"Emoni Smith","year":2026,"position":"S","stars":3,"rating_247":86.0,"committed_to":"Purdue","lat":39.9139207,"lng":-83.1633336,"hometown_city":"Galloway","hometown_state":"OH"},{"name":"Dre Riley","year":2026,"position":"S","stars":null,"rating_247":86.0,"committed_to":"Mississippi State","lat":32.7364,"lng":-89.6678,"hometown_city":"Senatobia","hometown_state":"MS"},{"name":"RJ Holland","year":2026,"position":"S","stars":3,"rating_247":84.0,"committed_to":"Central State","lat":39.896277299999994,"lng":-82.77319049748806,"hometown_city":"Pickerington","hometown_state":"OH"},{"name":"Robert Reddick","year":2026,"position":"S","stars":3,"rating_247":84.0,"committed_to":"Kansas","lat":39.7683331,"lng":-86.1583502,"hometown_city":"Indianapolis","hometown_state":"IN"},{"name":"Camaul King","year":2026,"position":"S","stars":null,"rating_247":83.0,"committed_to":"Fordham","lat":28.6305,"lng":-82.4497,"hometown_city":"Miami","hometown_state":"FL"},{"name":"Dylan Bowen","year":2026,"position":"S","stars":null,"rating_247":null,"committed_to":null,"lat":39.8942,"lng":-86.2816,"hometown_city":"Cedar Lake","hometown_state":"IN"},{"name":"Hezekiah Jones","year":2026,"position":"S","stars":null,"rating_247":null,"committed_to":null,"lat":28.6305,"lng":-82.4497,"hometown_city":"Cape Coral","hometown_state":"FL"},{"name":"Jalen Lott","year":2026,"position":"ATH","stars":5,"rating_247":97.0,"committed_to":"Oregon","lat":33.1506744,"lng":-96.8236116,"hometown_city":"Frisco","hometown_state":"TX"},{"name":"Joey O'Brien","year":2026,"position":"ATH","stars":5,"rating_247":97.0,"committed_to":"Notre Dame","lat":40.1023326,"lng":-75.1521195,"hometown_city":"Glenside","hometown_state":"PA"},{"name":"Mack Sutter","year":2026,"position":"ATH","stars":4,"rating_247":96.0,"committed_to":"Alabama","lat":40.8616513,"lng":-89.6777665,"hometown_city":"Dunlap","hometown_state":"IL"},{"name":"C.J. Sadler","year":2026,"position":"ATH","stars":null,"rating_247":93.0,"committed_to":"North Carolina","lat":44.3467,"lng":-85.4102,"hometown_city":"Detroit","hometown_state":"MI"},{"name":"Derrek Cooper","year":2026,"position":"ATH","stars":4,"rating_247":93.0,"committed_to":"Texas","lat":26.0112014,"lng":-80.1494901,"hometown_city":"Hollywood","hometown_state":"FL"},{"name":"Jakob Weatherspoon","year":2026,"position":"ATH","stars":4,"rating_247":93.0,"committed_to":"North Carolina","lat":41.4516512,"lng":-82.0350598,"hometown_city":"Avon","hometown_state":"OH"},{"name":"Jordan Thomas","year":2026,"position":"ATH","stars":4,"rating_247":93.0,"committed_to":"Ohio State","lat":40.9543943,"lng":-74.0308504,"hometown_city":"Oradell","hometown_state":"NJ"},{"name":"Roman Voss","year":2026,"position":"ATH","stars":null,"rating_247":91.0,"committed_to":"Minnesota","lat":46.2807,"lng":-94.3053,"hometown_city":"Jackson","hometown_state":"MN"},{"name":"Marcello Vitti","year":2026,"position":"ATH","stars":4,"rating_247":91.0,"committed_to":"Iowa","lat":42.3222599,"lng":-83.1763145,"hometown_city":"Dearborn","hometown_state":"MI"},{"name":"Samson Gash","year":2026,"position":"ATH","stars":4,"rating_247":90.0,"committed_to":"Michigan State","lat":42.48059,"lng":-83.4754913,"hometown_city":"Novi","hometown_state":"MI"},{"name":"Devonte Anderson","year":2026,"position":"ATH","stars":3,"rating_247":90.0,"committed_to":"Rutgers","lat":28.5656649,"lng":-81.5856742,"hometown_city":"Winter Garden","hometown_state":"FL"},{"name":"EJ White","year":2026,"position":"ATH","stars":null,"rating_247":90.0,"committed_to":"Florida State","lat":28.6305,"lng":-82.4497,"hometown_city":"Vero Beach","hometown_state":"FL"},{"name":"Jayden McGregory","year":2026,"position":"ATH","stars":4,"rating_247":89.0,"committed_to":"Missouri","lat":41.5910641,"lng":-93.6037149,"hometown_city":"Des Moines","hometown_state":"IA"},{"name":"Lincoln Watkins","year":2026,"position":"ATH","stars":3,"rating_247":88.0,"committed_to":"Kentucky","lat":42.9815877,"lng":-82.440466,"hometown_city":"Port Huron","hometown_state":"MI"},{"name":"Terrance Saryon","year":2026,"position":"ATH","stars":3,"rating_247":88.0,"committed_to":"BYU","lat":45.6306954,"lng":-122.6744557,"hometown_city":"Vancouver","hometown_state":"WA"},{"name":"Zaiden McDonald","year":2026,"position":"ATH","stars":3,"rating_247":88.0,"committed_to":"Stanford","lat":40.735657,"lng":-74.1723667,"hometown_city":"Newark","hometown_state":"NJ"},{"name":"Josh Galbreath","year":2026,"position":"ATH","stars":3,"rating_247":88.0,"committed_to":"Kansas","lat":38.9719384,"lng":-95.2359496,"hometown_city":"Lawrence","hometown_state":"KS"},{"name":"Zion Legree","year":2026,"position":"ATH","stars":3,"rating_247":86.0,"committed_to":"Wisconsin","lat":30.4057552,"lng":-86.618842,"hometown_city":"Fort Walton Beach","hometown_state":"FL"},{"name":"Carson Sneed","year":2026,"position":"ATH","stars":3,"rating_247":86.0,"committed_to":"North Carolina","lat":36.1622296,"lng":-86.7743531,"hometown_city":"Nashville","hometown_state":"TN"},{"name":"Jordan Thompson","year":2026,"position":"ATH","stars":3,"rating_247":85.0,"committed_to":"Memphis","lat":26.2378597,"lng":-80.1247667,"hometown_city":"Pompano Beach","hometown_state":"FL"},{"name":"Ace Brown","year":2026,"position":"ATH","stars":3,"rating_247":84.0,"committed_to":"Colorado State","lat":41.083064,"lng":-81.518485,"hometown_city":"Akron","hometown_state":"OH"},{"name":"Caden Considine","year":2026,"position":"ATH","stars":null,"rating_247":84.0,"committed_to":"Illinois","lat":40.0417,"lng":-89.1965,"hometown_city":"Byron","hometown_state":"IL"},{"name":"Aaryn Tate","year":2026,"position":"ATH","stars":null,"rating_247":null,"committed_to":null,"lat":35.5557,"lng":-79.3877,"hometown_city":"McLeansville","hometown_state":"NC"},{"name":"Damion King IV","year":2026,"position":"ATH","stars":null,"rating_247":null,"committed_to":"Ferris State","lat":44.3467,"lng":-85.4102,"hometown_city":"Warren","hometown_state":"MI"}],"2027":[{"name":"Trae Taylor","year":2027,"position":"QB","stars":null,"rating_247":98.0,"committed_to":"Nebraska","lat":41.5378,"lng":-99.7951,"hometown_city":"Omaha","hometown_state":"NE"},{"name":"Peter Bourque","year":2027,"position":"QB","stars":null,"rating_247":94.0,"committed_to":"Virginia Tech","lat":42.2596,"lng":-71.8083,"hometown_city":"Marion","hometown_state":"MA"},{"name":"Braylen Warren","year":2027,"position":"QB","stars":null,"rating_247":90.0,"committed_to":"Missouri","lat":41.5378,"lng":-99.7951,"hometown_city":"Omaha","hometown_state":"NE"},{"name":"Blake Roskopf","year":2027,"position":"QB","stars":null,"rating_247":90.0,"committed_to":"Washington","lat":34.2744,"lng":-111.6602,"hometown_city":"Goodyear","hometown_state":"AZ"},{"name":"Kamden Lopati","year":2027,"position":"QB","stars":null,"rating_247":89.0,"committed_to":"Michigan","lat":39.321,"lng":-111.0937,"hometown_city":"Salt Lake City","hometown_state":"UT"},{"name":"Kharim Hughley","year":2027,"position":"QB","stars":null,"rating_247":89.0,"committed_to":"Clemson","lat":32.6415,"lng":-83.4426,"hometown_city":"Gainesville","hometown_state":"GA"},{"name":"Weston Nielsen","year":2027,"position":"QB","stars":null,"rating_247":89.0,"committed_to":"Arizona State","lat":31.4757,"lng":-99.3312,"hometown_city":"Bastrop","hometown_state":"TX"},{"name":"Wonderful Monds IV","year":2027,"position":"QB","stars":null,"rating_247":88.0,"committed_to":"Notre Dame","lat":28.6305,"lng":-82.4497,"hometown_city":"Vero Beach","hometown_state":"FL"},{"name":"Dane Weber","year":2027,"position":"QB","stars":null,"rating_247":88.0,"committed_to":"California","lat":37.1841,"lng":-119.4696,"hometown_city":"Temecula","hometown_state":"CA"},{"name":"Logan Flaherty","year":2027,"position":"QB","stars":null,"rating_247":86.0,"committed_to":"Florida State","lat":28.6305,"lng":-82.4497,"hometown_city":"Port Charlotte","hometown_state":"FL"},{"name":"Derrick Baker","year":2027,"position":"QB","stars":null,"rating_247":86.0,"committed_to":"Tennessee","lat":32.6415,"lng":-83.4426,"hometown_city":"Alpharetta","hometown_state":"GA"},{"name":"Sladen Shack","year":2027,"position":"QB","stars":null,"rating_247":86.0,"committed_to":"Illinois","lat":32.7364,"lng":-89.6678,"hometown_city":"Brandon","hometown_state":"MS"},{"name":"Kingston Miles","year":2027,"position":"RB","stars":null,"rating_247":90.0,"committed_to":"Auburn","lat":38.3566,"lng":-92.458,"hometown_city":"St. Louis","hometown_state":"MO"},{"name":"Javian Jones-Priest","year":2027,"position":"RB","stars":null,"rating_247":89.0,"committed_to":"Virginia Tech","lat":31.4757,"lng":-99.3312,"hometown_city":"Arlington","hometown_state":"TX"},{"name":"Tristan Willis","year":2027,"position":"RB","stars":null,"rating_247":88.0,"committed_to":"Georgia Tech","lat":31.4757,"lng":-99.3312,"hometown_city":"Houston","hometown_state":"TX"},{"name":"Arwin Jackson","year":2027,"position":"RB","stars":null,"rating_247":87.0,"committed_to":null,"lat":28.6305,"lng":-82.4497,"hometown_city":"Opa Locka","hometown_state":"FL"},{"name":"Xavier Bala","year":2027,"position":"RB","stars":null,"rating_247":87.0,"committed_to":"Boston College","lat":42.9538,"lng":-75.5268,"hometown_city":"Long Island City","hometown_state":"NY"},{"name":"TJ Lewis","year":2027,"position":"RB","stars":null,"rating_247":87.0,"committed_to":null,"lat":40.0417,"lng":-89.1965,"hometown_city":"Bolingbrook","hometown_state":"IL"},{"name":"Keyon Thomas","year":2027,"position":"RB","stars":null,"rating_247":86.0,"committed_to":null,"lat":39.8942,"lng":-86.2816,"hometown_city":"Indianapolis","hometown_state":"IN"},{"name":"Amos Bradford","year":2027,"position":"RB","stars":null,"rating_247":86.0,"committed_to":"Purdue","lat":28.6305,"lng":-82.4497,"hometown_city":"Hollywood","hometown_state":"FL"},{"name":"Rayshawn Duncan Jr.","year":2027,"position":"RB","stars":null,"rating_247":null,"committed_to":null,"lat":40.2862,"lng":-82.7937,"hometown_city":"Bedford","hometown_state":"OH"},{"name":"Steven Alexis","year":2027,"position":"RB","stars":null,"rating_247":null,"committed_to":"Colorado","lat":28.6305,"lng":-82.4497,"hometown_city":"St. Petersburg","hometown_state":"FL"},{"name":"Dakota Guerrant","year":2027,"position":"WR","stars":null,"rating_247":98.0,"committed_to":null,"lat":44.3467,"lng":-85.4102,"hometown_city":"Harper Woods","hometown_state":"MI"},{"name":"Osani Gayles","year":2027,"position":"WR","stars":null,"rating_247":95.0,"committed_to":null,"lat":28.6305,"lng":-82.4497,"hometown_city":"Bradenton","hometown_state":"FL"},{"name":"Eric McFarland III","year":2027,"position":"WR","stars":null,"rating_247":94.0,"committed_to":null,"lat":28.6305,"lng":-82.4497,"hometown_city":"Bradenton","hometown_state":"FL"},{"name":"Julius Jones","year":2027,"position":"WR","stars":null,"rating_247":92.0,"committed_to":null,"lat":28.6305,"lng":-82.4497,"hometown_city":"Fort Lauderdale","hometown_state":"FL"},{"name":"Briceson Thrower Jr.","year":2027,"position":"WR","stars":null,"rating_247":91.0,"committed_to":"Texas","lat":31.4757,"lng":-99.3312,"hometown_city":"Forney","hometown_state":"TX"},{"name":"Tre Moore","year":2027,"position":"WR","stars":null,"rating_247":90.0,"committed_to":"Washington","lat":31.4757,"lng":-99.3312,"hometown_city":"Pflugerville","hometown_state":"TX"},{"name":"Quentin Burrell","year":2027,"position":"WR","stars":null,"rating_247":90.0,"committed_to":"Michigan","lat":40.0417,"lng":-89.1965,"hometown_city":"Chicago","hometown_state":"IL"},{"name":"Tyler Fryman","year":2027,"position":"WR","stars":null,"rating_247":90.0,"committed_to":null,"lat":37.5347,"lng":-85.3021,"hometown_city":"Fort Mitchell","hometown_state":"KY"},{"name":"Landon Blum","year":2027,"position":"WR","stars":null,"rating_247":90.0,"committed_to":"Penn State","lat":42.0751,"lng":-93.496,"hometown_city":"Woodbine","hometown_state":"IA"},{"name":"Bennett Konkey","year":2027,"position":"WR","stars":null,"rating_247":90.0,"committed_to":null,"lat":40.0417,"lng":-89.1965,"hometown_city":"Geneva","hometown_state":"IL"},{"name":"Julian Caldwell","year":2027,"position":"WR","stars":null,"rating_247":90.0,"committed_to":"Texas Tech","lat":31.4757,"lng":-99.3312,"hometown_city":"Argyle","hometown_state":"TX"},{"name":"Ah'Mari Stevens","year":2027,"position":"WR","stars":null,"rating_247":90.0,"committed_to":"Louisiana State","lat":28.6305,"lng":-82.4497,"hometown_city":"Hollywood","hometown_state":"FL"},{"name":"Trey Haralson","year":2027,"position":"WR","stars":null,"rating_247":89.0,"committed_to":"SMU","lat":31.4757,"lng":-99.3312,"hometown_city":"Tyler","hometown_state":"TX"},{"name":"Jaiden Kelly-Murray","year":2027,"position":"WR","stars":null,"rating_247":89.0,"committed_to":"Colorado","lat":33.9169,"lng":-80.8964,"hometown_city":"Mount Pleasant","hometown_state":"SC"},{"name":"Sheldon Isaac","year":2027,"position":"WR","stars":null,"rating_247":88.0,"committed_to":null,"lat":32.7364,"lng":-89.6678,"hometown_city":"McComb","hometown_state":"MS"},{"name":"Isaiah Alvarez","year":2027,"position":"WR","stars":null,"rating_247":88.0,"committed_to":null,"lat":40.1907,"lng":-74.6728,"hometown_city":"Ramsey","hometown_state":"NJ"},{"name":"Bryan Porter","year":2027,"position":"WR","stars":null,"rating_247":88.0,"committed_to":null,"lat":40.1907,"lng":-74.6728,"hometown_city":"Oradell","hometown_state":"NJ"},{"name":"Rob Larson","year":2027,"position":"WR","stars":null,"rating_247":88.0,"committed_to":"UCLA","lat":37.1841,"lng":-119.4696,"hometown_city":"Folsom","hometown_state":"CA"},{"name":"Charles Britton III","year":2027,"position":"WR","stars":null,"rating_247":88.0,"committed_to":null,"lat":44.3467,"lng":-85.4102,"hometown_city":"Belleville","hometown_state":"MI"},{"name":"Antayvious Ellis","year":2027,"position":"WR","stars":null,"rating_247":87.0,"committed_to":"Nebraska","lat":41.5378,"lng":-99.7951,"hometown_city":"Omaha","hometown_state":"NE"},{"name":"Don Spillers","year":2027,"position":"WR","stars":null,"rating_247":87.0,"committed_to":null,"lat":44.3467,"lng":-85.4102,"hometown_city":"Detroit","hometown_state":"MI"},{"name":"Chad Willis","year":2027,"position":"WR","stars":null,"rating_247":87.0,"committed_to":"Cincinnati","lat":44.3467,"lng":-85.4102,"hometown_city":"Orchard Lake","hometown_state":"MI"},{"name":"Laron Baker Jr.","year":2027,"position":"WR","stars":null,"rating_247":87.0,"committed_to":null,"lat":40.0417,"lng":-89.1965,"hometown_city":"East St. Louis","hometown_state":"IL"},{"name":"Brody Knowles","year":2027,"position":"WR","stars":null,"rating_247":87.0,"committed_to":null,"lat":31.4757,"lng":-99.3312,"hometown_city":"Southlake","hometown_state":"TX"},{"name":"Austin Coles","year":2027,"position":"WR","stars":null,"rating_247":87.0,"committed_to":"Kentucky","lat":28.6305,"lng":-82.4497,"hometown_city":"Fort Lauderdale","hometown_state":"FL"},{"name":"Roscoe Hayes","year":2027,"position":"WR","stars":null,"rating_247":86.0,"committed_to":"West Virginia","lat":32.6415,"lng":-83.4426,"hometown_city":"Atlanta","hometown_state":"GA"},{"name":"Trysten Shaw","year":2027,"position":"WR","stars":null,"rating_247":86.0,"committed_to":"Tulsa","lat":31.4757,"lng":-99.3312,"hometown_city":"Arlington","hometown_state":"TX"},{"name":"Jordan Karhoff","year":2027,"position":"TE","stars":null,"rating_247":93.0,"committed_to":"Virginia Tech","lat":40.2862,"lng":-82.7937,"hometown_city":"Columbus","hometown_state":"OH"},{"name":"Brock Williams","year":2027,"position":"TE","stars":null,"rating_247":93.0,"committed_to":"Texas","lat":40.0417,"lng":-89.1965,"hometown_city":"Libertyville","hometown_state":"IL"},{"name":"Jack Brown","year":2027,"position":"TE","stars":null,"rating_247":92.0,"committed_to":"Missouri","lat":38.3566,"lng":-92.458,"hometown_city":"St. Charles","hometown_state":"MO"},{"name":"Cooper Terwilliger","year":2027,"position":"TE","stars":null,"rating_247":90.0,"committed_to":"Penn State","lat":44.4443,"lng":-100.2263,"hometown_city":"Pierre","hometown_state":"SD"},{"name":"Korz Loken","year":2027,"position":"TE","stars":null,"rating_247":90.0,"committed_to":"Wisconsin","lat":44.6243,"lng":-89.9941,"hometown_city":"Iola","hometown_state":"WI"},{"name":"George Lamons Jr.","year":2027,"position":"TE","stars":null,"rating_247":89.0,"committed_to":"Auburn","lat":32.6415,"lng":-83.4426,"hometown_city":"Quitman","hometown_state":"GA"},{"name":"D'Angelo White","year":2027,"position":"TE","stars":null,"rating_247":89.0,"committed_to":"Louisville","lat":40.2862,"lng":-82.7937,"hometown_city":"Cleveland","hometown_state":"OH"},{"name":"Ben Hynek","year":2027,"position":"TE","stars":null,"rating_247":89.0,"committed_to":"Kansas State","lat":47.4501,"lng":-100.4659,"hometown_city":"Stanley","hometown_state":"ND"},{"name":"Mason Oglesby","year":2027,"position":"TE","stars":null,"rating_247":89.0,"committed_to":"Kansas","lat":39.8942,"lng":-86.2816,"hometown_city":"New Palestine","hometown_state":"IN"},{"name":"Colton Johnson","year":2027,"position":"TE","stars":null,"rating_247":88.0,"committed_to":null,"lat":35.858,"lng":-86.3505,"hometown_city":"Baxter","hometown_state":"TN"},{"name":"Anthony Cartwright","year":2027,"position":"TE","stars":null,"rating_247":88.0,"committed_to":null,"lat":44.3467,"lng":-85.4102,"hometown_city":"Franklin","hometown_state":"MI"},{"name":"Ben Kolar","year":2027,"position":"TE","stars":null,"rating_247":88.0,"committed_to":"Stanford","lat":35.5889,"lng":-97.4943,"hometown_city":"Norman","hometown_state":"OK"},{"name":"Christian Hanshaw","year":2027,"position":"TE","stars":null,"rating_247":88.0,"committed_to":null,"lat":39.321,"lng":-111.0937,"hometown_city":"American Fork","hometown_state":"UT"},{"name":"JT Geraci","year":2027,"position":"TE","stars":null,"rating_247":88.0,"committed_to":"Texas","lat":40.1907,"lng":-74.6728,"hometown_city":"Ramsey","hometown_state":"NJ"},{"name":"Judah Lancaster","year":2027,"position":"TE","stars":null,"rating_247":86.0,"committed_to":"South Carolina","lat":35.858,"lng":-86.3505,"hometown_city":"Brentwood","hometown_state":"TN"},{"name":"Mason Hall","year":2027,"position":"TE","stars":null,"rating_247":86.0,"committed_to":"Virginia","lat":32.6415,"lng":-83.4426,"hometown_city":"Watkinsville","hometown_state":"GA"},{"name":"Cade Newman","year":2027,"position":"TE","stars":null,"rating_247":86.0,"committed_to":"Illinois","lat":42.0751,"lng":-93.496,"hometown_city":"Ankeny","hometown_state":"IA"},{"name":"Mark Matthews","year":2027,"position":"OT","stars":null,"rating_247":98.0,"committed_to":"Texas A&M","lat":28.6305,"lng":-82.4497,"hometown_city":"Fort Lauderdale","hometown_state":"FL"},{"name":"Ismael Camara","year":2027,"position":"OT","stars":null,"rating_247":98.0,"committed_to":null,"lat":31.4757,"lng":-99.3312,"hometown_city":"Gilmer","hometown_state":"TX"},{"name":"Oluwasemilore Olubobola","year":2027,"position":"OT","stars":null,"rating_247":98.0,"committed_to":"Notre Dame","lat":40.1907,"lng":-74.6728,"hometown_city":"Jersey City","hometown_state":"NJ"},{"name":"Terrance Smith","year":2027,"position":"OT","stars":null,"rating_247":95.0,"committed_to":null,"lat":40.8781,"lng":-77.7996,"hometown_city":"Lansdale","hometown_state":"PA"},{"name":"Dominic Black","year":2027,"position":"OT","stars":null,"rating_247":91.0,"committed_to":"Kentucky","lat":40.2862,"lng":-82.7937,"hometown_city":"New Madison","hometown_state":"OH"},{"name":"Caleb Johnson","year":2027,"position":"OT","stars":null,"rating_247":90.0,"committed_to":null,"lat":39.8942,"lng":-86.2816,"hometown_city":"Noblesville","hometown_state":"IN"},{"name":"Davis Seaman","year":2027,"position":"OT","stars":null,"rating_247":90.0,"committed_to":"Ohio State","lat":40.2862,"lng":-82.7937,"hometown_city":"Columbus","hometown_state":"OH"},{"name":"Cameron Wagner","year":2027,"position":"OT","stars":null,"rating_247":90.0,"committed_to":"Oregon","lat":40.0417,"lng":-89.1965,"hometown_city":"St. Joseph","hometown_state":"IL"},{"name":"Timi Aliu","year":2027,"position":"OT","stars":null,"rating_247":90.0,"committed_to":"Nebraska","lat":32.6415,"lng":-83.4426,"hometown_city":"Locust Grove","hometown_state":"GA"},{"name":"Mason Halliman","year":2027,"position":"OT","stars":null,"rating_247":89.0,"committed_to":"Illinois","lat":40.0417,"lng":-89.1965,"hometown_city":"Frankfort","hometown_state":"IL"},{"name":"Amaziah Siale","year":2027,"position":"OT","stars":null,"rating_247":89.0,"committed_to":"California","lat":37.1841,"lng":-119.4696,"hometown_city":"Mission Viejo","hometown_state":"CA"},{"name":"DJ Dotson","year":2027,"position":"OT","stars":null,"rating_247":89.0,"committed_to":"Georgia","lat":32.7364,"lng":-89.6678,"hometown_city":"Hattiesburg","hometown_state":"MS"},{"name":"Tye Kennedy","year":2027,"position":"OT","stars":null,"rating_247":88.0,"committed_to":null,"lat":34.2744,"lng":-111.6602,"hometown_city":"Mesa","hometown_state":"AZ"},{"name":"Reed Gerken","year":2027,"position":"OT","stars":null,"rating_247":88.0,"committed_to":"Kentucky","lat":40.2862,"lng":-82.7937,"hometown_city":"Perrysburg","hometown_state":"OH"},{"name":"Soren Fifer","year":2027,"position":"OT","stars":null,"rating_247":88.0,"committed_to":"Illinois","lat":40.0417,"lng":-89.1965,"hometown_city":"Morton","hometown_state":"IL"},{"name":"Conner Rutherford","year":2027,"position":"OT","stars":null,"rating_247":88.0,"committed_to":"North Carolina State","lat":40.2862,"lng":-82.7937,"hometown_city":"Chillicothe","hometown_state":"OH"},{"name":"Corey Laga","year":2027,"position":"OT","stars":null,"rating_247":88.0,"committed_to":null,"lat":40.0417,"lng":-89.1965,"hometown_city":"Lemont","hometown_state":"IL"},{"name":"Brayden Harris","year":2027,"position":"OT","stars":null,"rating_247":87.0,"committed_to":"Kansas State","lat":38.3566,"lng":-92.458,"hometown_city":"Jackson","hometown_state":"MO"},{"name":"Clayton Lee","year":2027,"position":"OT","stars":null,"rating_247":86.0,"committed_to":null,"lat":28.6305,"lng":-82.4497,"hometown_city":"Callahan","hometown_state":"FL"},{"name":"Ethan McIntosh","year":2027,"position":"OT","stars":null,"rating_247":86.0,"committed_to":"Wisconsin","lat":44.6243,"lng":-89.9941,"hometown_city":"Verona","hometown_state":"WI"},{"name":"Zane Keric","year":2027,"position":"OT","stars":null,"rating_247":85.0,"committed_to":"Rutgers","lat":28.6305,"lng":-82.4497,"hometown_city":"Naples","hometown_state":"FL"},{"name":"Hunter Mallinger","year":2027,"position":"IOL","stars":null,"rating_247":89.0,"committed_to":"Wisconsin","lat":44.6243,"lng":-89.9941,"hometown_city":"Sussex","hometown_state":"WI"},{"name":"Keyon Hemphill-Woods","year":2027,"position":"IOL","stars":null,"rating_247":89.0,"committed_to":"Texas","lat":31.4757,"lng":-99.3312,"hometown_city":"Columbus","hometown_state":"TX"},{"name":"Ian Walker","year":2027,"position":"IOL","stars":null,"rating_247":89.0,"committed_to":"Kentucky","lat":40.1907,"lng":-74.6728,"hometown_city":"Pennington","hometown_state":"NJ"},{"name":"DaJohn Yarborough","year":2027,"position":"IOL","stars":null,"rating_247":89.0,"committed_to":null,"lat":34.2744,"lng":-111.6602,"hometown_city":"Chandler","hometown_state":"AZ"},{"name":"Richie Flanigan","year":2027,"position":"IOL","stars":null,"rating_247":89.0,"committed_to":"Notre Dame","lat":44.6243,"lng":-89.9941,"hometown_city":"Green Bay","hometown_state":"WI"},{"name":"Jameer Henry","year":2027,"position":"IOL","stars":null,"rating_247":88.0,"committed_to":null,"lat":44.3467,"lng":-85.4102,"hometown_city":"Detroit","hometown_state":"MI"},{"name":"Nicholas Schurman","year":2027,"position":"IOL","stars":null,"rating_247":87.0,"committed_to":null,"lat":39.8942,"lng":-86.2816,"hometown_city":"Westfield","hometown_state":"IN"},{"name":"Reis Russell","year":2027,"position":"IOL","stars":null,"rating_247":87.0,"committed_to":"Washington","lat":38.9972,"lng":-105.5478,"hometown_city":"Littleton","hometown_state":"CO"},{"name":"Luke Injaychock","year":2027,"position":"IOL","stars":null,"rating_247":86.0,"committed_to":"Missouri","lat":40.0417,"lng":-89.1965,"hometown_city":"La Grange Park","hometown_state":"IL"},{"name":"Gavin Ericson-Staton","year":2027,"position":"IOL","stars":null,"rating_247":86.0,"committed_to":"Illinois","lat":40.0417,"lng":-89.1965,"hometown_city":"Lombard","hometown_state":"IL"},{"name":"Jayden Dean","year":2027,"position":"IOL","stars":null,"rating_247":85.0,"committed_to":null,"lat":28.6305,"lng":-82.4497,"hometown_city":"Fort Lauderdale","hometown_state":"FL"},{"name":"Noah Nixon","year":2027,"position":"IOL","stars":null,"rating_247":85.0,"committed_to":"Pittsburgh","lat":32.6415,"lng":-83.4426,"hometown_city":"Buford","hometown_state":"GA"},{"name":"Aidan O'Neil","year":2027,"position":"Edge","stars":null,"rating_247":93.0,"committed_to":"Notre Dame","lat":40.1907,"lng":-74.6728,"hometown_city":"Ramsey","hometown_state":"NJ"},{"name":"Jackson Vaughn","year":2027,"position":"Edge","stars":null,"rating_247":92.0,"committed_to":"Notre Dame","lat":40.1907,"lng":-74.6728,"hometown_city":"Oradell","hometown_state":"NJ"},{"name":"Recarder Kitchen","year":2027,"position":"Edge","stars":null,"rating_247":90.0,"committed_to":"Michigan","lat":44.3467,"lng":-85.4102,"hometown_city":"Muskegon","hometown_state":"MI"},{"name":"Demarcus Deroche","year":2027,"position":"Edge","stars":null,"rating_247":90.0,"committed_to":"Miami","lat":28.6305,"lng":-82.4497,"hometown_city":"Fort Lauderdale","hometown_state":"FL"},{"name":"Desmond Malpress","year":2027,"position":"Edge","stars":null,"rating_247":90.0,"committed_to":"Clemson","lat":28.6305,"lng":-82.4497,"hometown_city":"Jacksonville","hometown_state":"FL"},{"name":"Ifeanyi Emedobi","year":2027,"position":"Edge","stars":null,"rating_247":89.0,"committed_to":null,"lat":39.8942,"lng":-86.2816,"hometown_city":"Fort Wayne","hometown_state":"IN"},{"name":"Tommy Riordan","year":2027,"position":"Edge","stars":null,"rating_247":89.0,"committed_to":"Iowa","lat":40.0417,"lng":-89.1965,"hometown_city":"Hinsdale","hometown_state":"IL"},{"name":"Myles Smith","year":2027,"position":"Edge","stars":null,"rating_247":89.0,"committed_to":"Indiana","lat":44.3467,"lng":-85.4102,"hometown_city":"Farmington","hometown_state":"MI"},{"name":"Chris Kasky","year":2027,"position":"Edge","stars":null,"rating_247":89.0,"committed_to":"Missouri","lat":40.0417,"lng":-89.1965,"hometown_city":"La Grange Park","hometown_state":"IL"},{"name":"Jaylen Mercer","year":2027,"position":"Edge","stars":null,"rating_247":88.0,"committed_to":null,"lat":40.2862,"lng":-82.7937,"hometown_city":"Cincinnati","hometown_state":"OH"},{"name":"Jayce Brewer","year":2027,"position":"Edge","stars":null,"rating_247":88.0,"committed_to":"Michigan","lat":39.8942,"lng":-86.2816,"hometown_city":"Indianapolis","hometown_state":"IN"},{"name":"Munir Lewis","year":2027,"position":"Edge","stars":null,"rating_247":88.0,"committed_to":"Louisville","lat":40.2862,"lng":-82.7937,"hometown_city":"Cleveland","hometown_state":"OH"},{"name":"Alex Johnson","year":2027,"position":"Edge","stars":null,"rating_247":88.0,"committed_to":"Boston College","lat":33.9169,"lng":-80.8964,"hometown_city":"Fort Mill","hometown_state":"SC"},{"name":"Josh Christensen","year":2027,"position":"Edge","stars":null,"rating_247":88.0,"committed_to":null,"lat":43.9336,"lng":-120.5583,"hometown_city":"Lake Oswego","hometown_state":"OR"},{"name":"Brody Pfannenstiel","year":2027,"position":"Edge","stars":null,"rating_247":87.0,"committed_to":"Texas Tech","lat":38.4937,"lng":-98.3804,"hometown_city":"Hoisington","hometown_state":"KS"},{"name":"Owen Roberts","year":2027,"position":"Edge","stars":null,"rating_247":86.0,"committed_to":"Purdue","lat":40.0417,"lng":-89.1965,"hometown_city":"Elmhurst","hometown_state":"IL"},{"name":"Ryan Paulsen","year":2027,"position":"Edge","stars":null,"rating_247":86.0,"committed_to":"Illinois","lat":42.0751,"lng":-93.496,"hometown_city":"DeWitt","hometown_state":"IA"},{"name":"Wilzard Sterling","year":2027,"position":"Edge","stars":null,"rating_247":null,"committed_to":null,"lat":28.6305,"lng":-82.4497,"hometown_city":"Boca Raton","hometown_state":"FL"},{"name":"Alifeleti Tuihalamaka","year":2027,"position":"DL","stars":null,"rating_247":91.0,"committed_to":"Southern California","lat":37.1841,"lng":-119.4696,"hometown_city":"Westlake Village","hometown_state":"CA"},{"name":"Luke Starcevic","year":2027,"position":"DL","stars":null,"rating_247":91.0,"committed_to":"Clemson","lat":47.4501,"lng":-100.4659,"hometown_city":"Kindred","hometown_state":"ND"},{"name":"Brayden Parks","year":2027,"position":"DL","stars":null,"rating_247":91.0,"committed_to":null,"lat":40.0417,"lng":-89.1965,"hometown_city":"Oak Lawn","hometown_state":"IL"},{"name":"Elijah Guertin","year":2027,"position":"DL","stars":null,"rating_247":90.0,"committed_to":null,"lat":41.6762,"lng":-71.5562,"hometown_city":"Warwick","hometown_state":"RI"},{"name":"David Hill","year":2027,"position":"DL","stars":null,"rating_247":90.0,"committed_to":"Wisconsin","lat":40.0417,"lng":-89.1965,"hometown_city":"Flossmoor","hometown_state":"IL"},{"name":"Nehemiah Ombati","year":2027,"position":"DL","stars":null,"rating_247":89.0,"committed_to":"Nebraska","lat":46.2807,"lng":-94.3053,"hometown_city":"Shakopee","hometown_state":"MN"},{"name":"Keysan Taylor","year":2027,"position":"DL","stars":null,"rating_247":89.0,"committed_to":"Mississippi","lat":40.0417,"lng":-89.1965,"hometown_city":"Rockford","hometown_state":"IL"},{"name":"Ohimai Ozolua","year":2027,"position":"DL","stars":null,"rating_247":89.0,"committed_to":"Michigan State","lat":40.0417,"lng":-89.1965,"hometown_city":"Chicago","hometown_state":"IL"},{"name":"De'Voun Kendrick","year":2027,"position":"DL","stars":null,"rating_247":88.0,"committed_to":"Florida","lat":28.6305,"lng":-82.4497,"hometown_city":"Tampa","hometown_state":"FL"},{"name":"Jamar Thompson","year":2027,"position":"DL","stars":null,"rating_247":88.0,"committed_to":"Georgia Tech","lat":28.6305,"lng":-82.4497,"hometown_city":"Boca Raton","hometown_state":"FL"},{"name":"Jason Lewis","year":2027,"position":"DL","stars":null,"rating_247":88.0,"committed_to":null,"lat":28.6305,"lng":-82.4497,"hometown_city":"Kissimmee","hometown_state":"FL"},{"name":"Khing Thibodeaux","year":2027,"position":"DL","stars":null,"rating_247":87.0,"committed_to":null,"lat":31.4757,"lng":-99.3312,"hometown_city":"Garland","hometown_state":"TX"},{"name":"Joseph Graves","year":2027,"position":"DL","stars":null,"rating_247":87.0,"committed_to":null,"lat":28.6305,"lng":-82.4497,"hometown_city":"Bradenton","hometown_state":"FL"},{"name":"Markius Woods","year":2027,"position":"DL","stars":null,"rating_247":87.0,"committed_to":null,"lat":40.1907,"lng":-74.6728,"hometown_city":"Lawrenceville","hometown_state":"NJ"},{"name":"James Stewart","year":2027,"position":"DL","stars":null,"rating_247":87.0,"committed_to":"Arkansas","lat":35.858,"lng":-86.3505,"hometown_city":"Murfreesboro","hometown_state":"TN"},{"name":"Carter Napier","year":2027,"position":"DL","stars":null,"rating_247":87.0,"committed_to":"Pittsburgh","lat":40.2862,"lng":-82.7937,"hometown_city":"Springboro","hometown_state":"OH"},{"name":"Josh Johnson","year":2027,"position":"DL","stars":null,"rating_247":86.0,"committed_to":"Miami","lat":28.6305,"lng":-82.4497,"hometown_city":"Key West","hometown_state":"FL"},{"name":"Errol Demontagnac","year":2027,"position":"DL","stars":null,"rating_247":86.0,"committed_to":"Nebraska","lat":28.6305,"lng":-82.4497,"hometown_city":"Seffner","hometown_state":"FL"},{"name":"Eli Thornton","year":2027,"position":"DL","stars":null,"rating_247":86.0,"committed_to":"Arkansas","lat":34.8938,"lng":-92.4426,"hometown_city":"Jonesboro","hometown_state":"AR"},{"name":"Will Zaccagnino","year":2027,"position":"DL","stars":null,"rating_247":86.0,"committed_to":"Wisconsin","lat":41.6219,"lng":-72.7273,"hometown_city":"Trumbull","hometown_state":"CT"},{"name":"Corey Randolph","year":2027,"position":"DL","stars":null,"rating_247":86.0,"committed_to":null,"lat":40.0417,"lng":-89.1965,"hometown_city":"Chicago","hometown_state":"IL"},{"name":"Anitoni Tahi","year":2027,"position":"DL","stars":null,"rating_247":86.0,"committed_to":"Kansas State","lat":34.2744,"lng":-111.6602,"hometown_city":"Chandler","hometown_state":"AZ"},{"name":"Darren White","year":2027,"position":"DL","stars":null,"rating_247":null,"committed_to":"Buffalo","lat":28.6305,"lng":-82.4497,"hometown_city":"Orlando","hometown_state":"FL"},{"name":"Akhcuonam Augustin","year":2027,"position":"DL","stars":null,"rating_247":null,"committed_to":null,"lat":28.6305,"lng":-82.4497,"hometown_city":"Naples","hometown_state":"FL"},{"name":"Ronald Moore","year":2027,"position":"DL","stars":null,"rating_247":null,"committed_to":null,"lat":40.0417,"lng":-89.1965,"hometown_city":"Chicago","hometown_state":"IL"},{"name":"Roman Igwebuike","year":2027,"position":"LB","stars":null,"rating_247":91.0,"committed_to":null,"lat":40.0417,"lng":-89.1965,"hometown_city":"Chicago","hometown_state":"IL"},{"name":"Antwoine Higgins","year":2027,"position":"LB","stars":null,"rating_247":88.0,"committed_to":"Kentucky","lat":40.2862,"lng":-82.7937,"hometown_city":"Cincinnati","hometown_state":"OH"},{"name":"Braylon Williams","year":2027,"position":"LB","stars":null,"rating_247":88.0,"committed_to":"SMU","lat":31.4757,"lng":-99.3312,"hometown_city":"Arlington","hometown_state":"TX"},{"name":"Josiah Pouncy","year":2027,"position":"LB","stars":null,"rating_247":88.0,"committed_to":"Louisville","lat":40.2862,"lng":-82.7937,"hometown_city":"Cincinnati","hometown_state":"OH"},{"name":"Theo Wilson","year":2027,"position":"LB","stars":null,"rating_247":88.0,"committed_to":null,"lat":28.6305,"lng":-82.4497,"hometown_city":"Seffner","hometown_state":"FL"},{"name":"Marshaun Ivy","year":2027,"position":"LB","stars":null,"rating_247":87.0,"committed_to":"Arizona State","lat":38.3566,"lng":-92.458,"hometown_city":"St. Louis","hometown_state":"MO"},{"name":"Jahmiere Daniels-Portis","year":2027,"position":"LB","stars":null,"rating_247":87.0,"committed_to":null,"lat":40.2862,"lng":-82.7937,"hometown_city":"Springfield","hometown_state":"OH"},{"name":"Noah Renes","year":2027,"position":"LB","stars":null,"rating_247":86.0,"committed_to":null,"lat":28.6305,"lng":-82.4497,"hometown_city":"Niceville","hometown_state":"FL"},{"name":"Sean Rice","year":2027,"position":"LB","stars":null,"rating_247":86.0,"committed_to":"Illinois","lat":40.0417,"lng":-89.1965,"hometown_city":"Evergreen Park","hometown_state":"IL"},{"name":"Matthew Brady","year":2027,"position":"LB","stars":null,"rating_247":85.0,"committed_to":"Michigan State","lat":40.0417,"lng":-89.1965,"hometown_city":"Bloomington","hometown_state":"IL"},{"name":"Anthony James","year":2027,"position":"LB","stars":null,"rating_247":85.0,"committed_to":null,"lat":31.4757,"lng":-99.3312,"hometown_city":"La Marque","hometown_state":"TX"},{"name":"Giacamo SanFilippo","year":2027,"position":"LB","stars":null,"rating_247":85.0,"committed_to":"Kansas State","lat":28.6305,"lng":-82.4497,"hometown_city":"Orlando","hometown_state":"FL"},{"name":"Dewayne Ingram","year":2027,"position":"LB","stars":null,"rating_247":null,"committed_to":null,"lat":31.4757,"lng":-99.3312,"hometown_city":"Garland","hometown_state":"TX"},{"name":"Ace Alston","year":2027,"position":"CB","stars":null,"rating_247":93.0,"committed_to":"Notre Dame","lat":40.2862,"lng":-82.7937,"hometown_city":"Cincinnati","hometown_state":"OH"},{"name":"Kei'Shjuan Telfair","year":2027,"position":"CB","stars":null,"rating_247":92.0,"committed_to":"Penn State","lat":40.2862,"lng":-82.7937,"hometown_city":"Euclid","hometown_state":"OH"},{"name":"Raheem Floyd","year":2027,"position":"CB","stars":null,"rating_247":91.0,"committed_to":null,"lat":40.0417,"lng":-89.1965,"hometown_city":"East St. Louis","hometown_state":"IL"},{"name":"Tavares Harrington","year":2027,"position":"CB","stars":null,"rating_247":90.0,"committed_to":"Michigan","lat":40.0417,"lng":-89.1965,"hometown_city":"Chicago","hometown_state":"IL"},{"name":"Montre Jackson","year":2027,"position":"CB","stars":null,"rating_247":90.0,"committed_to":null,"lat":31.4757,"lng":-99.3312,"hometown_city":"Garland","hometown_state":"TX"},{"name":"Justin Johnson","year":2027,"position":"CB","stars":null,"rating_247":90.0,"committed_to":"Illinois","lat":40.0417,"lng":-89.1965,"hometown_city":"Evanston","hometown_state":"IL"},{"name":"Jaden Carey","year":2027,"position":"CB","stars":null,"rating_247":88.0,"committed_to":null,"lat":28.6305,"lng":-82.4497,"hometown_city":"Fort Lauderdale","hometown_state":"FL"},{"name":"Kamauri Whitfield","year":2027,"position":"CB","stars":null,"rating_247":88.0,"committed_to":null,"lat":28.6305,"lng":-82.4497,"hometown_city":"Orlando","hometown_state":"FL"},{"name":"Trezavant Boyd","year":2027,"position":"CB","stars":null,"rating_247":87.0,"committed_to":null,"lat":28.6305,"lng":-82.4497,"hometown_city":"Miami","hometown_state":"FL"},{"name":"Roman Combs","year":2027,"position":"CB","stars":null,"rating_247":87.0,"committed_to":"Purdue","lat":40.2862,"lng":-82.7937,"hometown_city":"West Chester","hometown_state":"OH"},{"name":"Bryson Dossett","year":2027,"position":"CB","stars":null,"rating_247":86.0,"committed_to":"Kansas State","lat":31.4757,"lng":-99.3312,"hometown_city":"Missouri City","hometown_state":"TX"},{"name":"Zayden Gamble","year":2027,"position":"S","stars":null,"rating_247":92.0,"committed_to":"Notre Dame","lat":28.6305,"lng":-82.4497,"hometown_city":"Fort Lauderdale","hometown_state":"FL"},{"name":"Kenaz Sullivan","year":2027,"position":"S","stars":null,"rating_247":90.0,"committed_to":null,"lat":37.5215,"lng":-78.8537,"hometown_city":"Springfield","hometown_state":"VA"},{"name":"Darrell Mattison","year":2027,"position":"S","stars":null,"rating_247":90.0,"committed_to":"Mississippi","lat":40.0417,"lng":-89.1965,"hometown_city":"Chicago","hometown_state":"IL"},{"name":"Jake Thies","year":2027,"position":"S","stars":null,"rating_247":89.0,"committed_to":"Iowa","lat":40.0417,"lng":-89.1965,"hometown_city":"Oak Park","hometown_state":"IL"},{"name":"Keiran Govan","year":2027,"position":"S","stars":null,"rating_247":89.0,"committed_to":"Missouri","lat":38.3566,"lng":-92.458,"hometown_city":"Republic","hometown_state":"MO"},{"name":"Aaron Williams","year":2027,"position":"S","stars":null,"rating_247":88.0,"committed_to":"North Carolina","lat":31.4757,"lng":-99.3312,"hometown_city":"Missouri City","hometown_state":"TX"},{"name":"Errol Kerns III","year":2027,"position":"S","stars":null,"rating_247":88.0,"committed_to":"Texas A&M","lat":39.8942,"lng":-86.2816,"hometown_city":"Indianapolis","hometown_state":"IN"},{"name":"Blake Betton","year":2027,"position":"S","stars":null,"rating_247":88.0,"committed_to":"Penn State","lat":46.2807,"lng":-94.3053,"hometown_city":"Shakopee","hometown_state":"MN"},{"name":"Hezikiah Kelley","year":2027,"position":"S","stars":null,"rating_247":87.0,"committed_to":null,"lat":40.2862,"lng":-82.7937,"hometown_city":"Cincinnati","hometown_state":"OH"},{"name":"Keontay Toomer","year":2027,"position":"S","stars":null,"rating_247":87.0,"committed_to":"Louisville","lat":39.8942,"lng":-86.2816,"hometown_city":"Indianapolis","hometown_state":"IN"},{"name":"Jabarri Lofton","year":2027,"position":"S","stars":null,"rating_247":87.0,"committed_to":"Missouri","lat":40.0417,"lng":-89.1965,"hometown_city":"East St. Louis","hometown_state":"IL"},{"name":"James Johnson","year":2027,"position":"S","stars":null,"rating_247":87.0,"committed_to":"Cincinnati","lat":40.0417,"lng":-89.1965,"hometown_city":"Belleville","hometown_state":"IL"},{"name":"Henry Sakalas","year":2027,"position":"S","stars":null,"rating_247":87.0,"committed_to":"Michigan State","lat":40.0417,"lng":-89.1965,"hometown_city":"La Grange Park","hometown_state":"IL"},{"name":"David Coleman Jr.","year":2027,"position":"S","stars":null,"rating_247":86.0,"committed_to":"Bowling Green","lat":28.6305,"lng":-82.4497,"hometown_city":"Orlando","hometown_state":"FL"},{"name":"Darryl Flemister","year":2027,"position":"S","stars":null,"rating_247":86.0,"committed_to":null,"lat":44.3467,"lng":-85.4102,"hometown_city":"Detroit","hometown_state":"MI"},{"name":"Latroy Pender Jr.","year":2027,"position":"S","stars":null,"rating_247":null,"committed_to":null,"lat":28.6305,"lng":-82.4497,"hometown_city":"Fort Myers","hometown_state":"FL"},{"name":"Jaylen Oliver","year":2027,"position":"S","stars":null,"rating_247":null,"committed_to":"Arizona","lat":31.4757,"lng":-99.3312,"hometown_city":"Houston","hometown_state":"TX"},{"name":"Tyrone Howard Jr.","year":2027,"position":"S","stars":null,"rating_247":null,"committed_to":null,"lat":28.6305,"lng":-82.4497,"hometown_city":"Naples","hometown_state":"FL"},{"name":"Monshun Sales","year":2027,"position":"ATH","stars":null,"rating_247":98.0,"committed_to":null,"lat":39.8942,"lng":-86.2816,"hometown_city":"Indianapolis","hometown_state":"IN"},{"name":"Gideon Gash","year":2027,"position":"ATH","stars":null,"rating_247":94.0,"committed_to":"Texas Tech","lat":44.3467,"lng":-85.4102,"hometown_city":"Novi","hometown_state":"MI"},{"name":"Myson Johnson-Cook","year":2027,"position":"ATH","stars":null,"rating_247":94.0,"committed_to":"Auburn","lat":40.0417,"lng":-89.1965,"hometown_city":"East St. Louis","hometown_state":"IL"},{"name":"Bode Sparrow","year":2027,"position":"ATH","stars":null,"rating_247":93.0,"committed_to":null,"lat":39.321,"lng":-111.0937,"hometown_city":"Kaysville","hometown_state":"UT"},{"name":"Mikahi Allen","year":2027,"position":"ATH","stars":null,"rating_247":90.0,"committed_to":null,"lat":40.1907,"lng":-74.6728,"hometown_city":"Ramsey","hometown_state":"NJ"},{"name":"Jabari Watkins","year":2027,"position":"ATH","stars":null,"rating_247":90.0,"committed_to":"Arkansas","lat":32.6415,"lng":-83.4426,"hometown_city":"Thomasville","hometown_state":"GA"},{"name":"Davion Crumitie","year":2027,"position":"ATH","stars":null,"rating_247":89.0,"committed_to":"Vanderbilt","lat":28.6305,"lng":-82.4497,"hometown_city":"Tallahassee","hometown_state":"FL"},{"name":"Colt Lumpris","year":2027,"position":"ATH","stars":null,"rating_247":89.0,"committed_to":"Michigan","lat":40.1907,"lng":-74.6728,"hometown_city":"Lawrenceville","hometown_state":"NJ"},{"name":"Jordan Haskins","year":2027,"position":"ATH","stars":null,"rating_247":89.0,"committed_to":"Louisville","lat":37.5347,"lng":-85.3021,"hometown_city":"Lexington","hometown_state":"KY"},{"name":"Turmarian Moreland","year":2027,"position":"ATH","stars":null,"rating_247":88.0,"committed_to":null,"lat":28.6305,"lng":-82.4497,"hometown_city":"West Palm Beach","hometown_state":"FL"},{"name":"Cade Cooper","year":2027,"position":"ATH","stars":null,"rating_247":88.0,"committed_to":"Louisiana State","lat":40.8781,"lng":-77.7996,"hometown_city":"Malvern","hometown_state":"PA"},{"name":"Steele Harris","year":2027,"position":"ATH","stars":null,"rating_247":88.0,"committed_to":"Wisconsin","lat":47.0527,"lng":-109.6333,"hometown_city":"Great Falls","hometown_state":"MT"},{"name":"Stanley Smart","year":2027,"position":"ATH","stars":null,"rating_247":87.0,"committed_to":"Virginia Tech","lat":32.6415,"lng":-83.4426,"hometown_city":"Savannah","hometown_state":"GA"},{"name":"Jonathan Galette","year":2027,"position":"ATH","stars":null,"rating_247":87.0,"committed_to":"Penn State","lat":40.1907,"lng":-74.6728,"hometown_city":"Montvale","hometown_state":"NJ"},{"name":"Kyle Davis","year":2027,"position":"ATH","stars":null,"rating_247":87.0,"committed_to":null,"lat":39.055,"lng":-76.7909,"hometown_city":"North Bethesda","hometown_state":"MD"},{"name":"Chase Guers","year":2027,"position":"ATH","stars":null,"rating_247":87.0,"committed_to":null,"lat":40.8781,"lng":-77.7996,"hometown_city":"Schuylkill Haven","hometown_state":"PA"},{"name":"Elijah Goins","year":2027,"position":"ATH","stars":null,"rating_247":86.0,"committed_to":"Boston College","lat":44.3467,"lng":-85.4102,"hometown_city":"Macomb","hometown_state":"MI"},{"name":"DeAnthony Crittenden","year":2027,"position":"ATH","stars":null,"rating_247":85.0,"committed_to":null,"lat":40.2862,"lng":-82.7937,"hometown_city":"Cleveland","hometown_state":"OH"},{"name":"Virgil Lemons","year":2027,"position":"ATH","stars":null,"rating_247":null,"committed_to":null,"lat":28.6305,"lng":-82.4497,"hometown_city":"Fort Lauderdale","hometown_state":"FL"}],"2028":[{"name":"Jayden Wade","year":2028,"position":"QB","stars":null,"rating_247":95.0,"committed_to":"Georgia","lat":28.6305,"lng":-82.4497,"hometown_city":"Bradenton","hometown_state":"FL"},{"name":"Christopher Vargas","year":2028,"position":"QB","stars":null,"rating_247":95.0,"committed_to":null,"lat":42.2596,"lng":-71.8083,"hometown_city":"Danvers","hometown_state":"MA"},{"name":"Donald Tabron II","year":2028,"position":"QB","stars":null,"rating_247":90.0,"committed_to":null,"lat":44.3467,"lng":-85.4102,"hometown_city":"Detroit","hometown_state":"MI"},{"name":"Neimann Lawrence","year":2028,"position":"QB","stars":null,"rating_247":90.0,"committed_to":null,"lat":28.6305,"lng":-82.4497,"hometown_city":"Plantation","hometown_state":"FL"},{"name":"Lukas Prock","year":2028,"position":"QB","stars":null,"rating_247":90.0,"committed_to":null,"lat":40.1907,"lng":-74.6728,"hometown_city":"Princeton","hometown_state":"NJ"},{"name":"Trey Tagliaferri","year":2028,"position":"QB","stars":null,"rating_247":89.0,"committed_to":null,"lat":40.1907,"lng":-74.6728,"hometown_city":"Oradell","hometown_state":"NJ"},{"name":"Gavin Hampton","year":2028,"position":"QB","stars":null,"rating_247":89.0,"committed_to":null,"lat":35.858,"lng":-86.3505,"hometown_city":"Murfreesboro","hometown_state":"TN"},{"name":"Owen Herrick","year":2028,"position":"QB","stars":null,"rating_247":88.0,"committed_to":null,"lat":40.8781,"lng":-77.7996,"hometown_city":"Pittsburgh","hometown_state":"PA"},{"name":"Oscar Sloan","year":2028,"position":"QB","stars":null,"rating_247":87.0,"committed_to":null,"lat":39.8942,"lng":-86.2816,"hometown_city":"Greenwood","hometown_state":"IN"},{"name":"Brycen Marbrey","year":2028,"position":"QB","stars":null,"rating_247":86.0,"committed_to":null,"lat":28.6305,"lng":-82.4497,"hometown_city":"Winter Park","hometown_state":"FL"},{"name":"Carter Hanson","year":2028,"position":"RB","stars":null,"rating_247":90.0,"committed_to":null,"lat":37.1841,"lng":-119.4696,"hometown_city":"Bakersfield","hometown_state":"CA"},{"name":"Taihj Moore","year":2028,"position":"RB","stars":null,"rating_247":89.0,"committed_to":null,"lat":28.6305,"lng":-82.4497,"hometown_city":"DeLand","hometown_state":"FL"},{"name":"Ammar Banire","year":2028,"position":"RB","stars":null,"rating_247":null,"committed_to":null,"lat":40.0417,"lng":-89.1965,"hometown_city":"Oswego","hometown_state":"IL"},{"name":"Jamar Lewis","year":2028,"position":"RB","stars":null,"rating_247":null,"committed_to":null,"lat":40.0417,"lng":-89.1965,"hometown_city":"Chicago","hometown_state":"IL"},{"name":"Terriel Harmon","year":2028,"position":"RB","stars":null,"rating_247":null,"committed_to":null,"lat":28.6305,"lng":-82.4497,"hometown_city":"Boca Raton","hometown_state":"FL"},{"name":"Caiden Bellard","year":2028,"position":"RB","stars":null,"rating_247":null,"committed_to":null,"lat":31.0689,"lng":-91.9968,"hometown_city":"Lafayette","hometown_state":"LA"},{"name":"Deandre Bidden","year":2028,"position":"WR","stars":null,"rating_247":92.0,"committed_to":null,"lat":44.3467,"lng":-85.4102,"hometown_city":"Harper Woods","hometown_state":"MI"},{"name":"Lorenzo McMullen Jr.","year":2028,"position":"WR","stars":null,"rating_247":90.0,"committed_to":null,"lat":40.2862,"lng":-82.7937,"hometown_city":"Cincinnati","hometown_state":"OH"},{"name":"Damarion Mays","year":2028,"position":"WR","stars":null,"rating_247":90.0,"committed_to":null,"lat":31.4757,"lng":-99.3312,"hometown_city":"Fort Worth","hometown_state":"TX"},{"name":"Jeramy Laster Jr.","year":2028,"position":"WR","stars":null,"rating_247":90.0,"committed_to":null,"lat":35.858,"lng":-86.3505,"hometown_city":"Hendersonville","hometown_state":"TN"},{"name":"David Forster","year":2028,"position":"WR","stars":null,"rating_247":90.0,"committed_to":null,"lat":40.1907,"lng":-74.6728,"hometown_city":"Montvale","hometown_state":"NJ"},{"name":"Jaden Jones","year":2028,"position":"WR","stars":null,"rating_247":90.0,"committed_to":null,"lat":40.8781,"lng":-77.7996,"hometown_city":"Pittsburgh","hometown_state":"PA"},{"name":"Marshaun Thornton","year":2028,"position":"WR","stars":null,"rating_247":89.0,"committed_to":null,"lat":40.0417,"lng":-89.1965,"hometown_city":"Chicago","hometown_state":"IL"},{"name":"Brendyn Jackson","year":2028,"position":"WR","stars":null,"rating_247":89.0,"committed_to":null,"lat":31.4757,"lng":-99.3312,"hometown_city":"Midlothian","hometown_state":"TX"},{"name":"Mylan Griggs","year":2028,"position":"WR","stars":null,"rating_247":88.0,"committed_to":null,"lat":44.3467,"lng":-85.4102,"hometown_city":"Detroit","hometown_state":"MI"},{"name":"Corderro Bennett","year":2028,"position":"WR","stars":null,"rating_247":88.0,"committed_to":null,"lat":39.8942,"lng":-86.2816,"hometown_city":"Hammond","hometown_state":"IN"},{"name":"Seven Rashad","year":2028,"position":"WR","stars":null,"rating_247":87.0,"committed_to":null,"lat":32.6415,"lng":-83.4426,"hometown_city":"Buford","hometown_state":"GA"},{"name":"Caleb Choice","year":2028,"position":"WR","stars":null,"rating_247":null,"committed_to":null,"lat":31.4757,"lng":-99.3312,"hometown_city":"Lancaster","hometown_state":"TX"},{"name":"Kade Smith","year":2028,"position":"WR","stars":null,"rating_247":null,"committed_to":null,"lat":31.4757,"lng":-99.3312,"hometown_city":"Fort Worth","hometown_state":"TX"},{"name":"Dez Bryant Jr.","year":2028,"position":"WR","stars":null,"rating_247":null,"committed_to":null,"lat":31.4757,"lng":-99.3312,"hometown_city":"Southlake","hometown_state":"TX"},{"name":"Travarous Bain","year":2028,"position":"WR","stars":null,"rating_247":null,"committed_to":null,"lat":28.6305,"lng":-82.4497,"hometown_city":"Miami","hometown_state":"FL"},{"name":"Avery Thompson","year":2028,"position":"WR","stars":null,"rating_247":null,"committed_to":null,"lat":37.5347,"lng":-85.3021,"hometown_city":"Paducah","hometown_state":"KY"},{"name":"Ryan Wiley","year":2028,"position":"WR","stars":null,"rating_247":null,"committed_to":null,"lat":31.4757,"lng":-99.3312,"hometown_city":"Rockwall","hometown_state":"TX"},{"name":"Jevyn Severson","year":2028,"position":"TE","stars":null,"rating_247":90.0,"committed_to":null,"lat":42.0751,"lng":-93.496,"hometown_city":"Madrid","hometown_state":"IA"},{"name":"Jack McNamara","year":2028,"position":"TE","stars":null,"rating_247":89.0,"committed_to":null,"lat":40.0417,"lng":-89.1965,"hometown_city":"Oak Lawn","hometown_state":"IL"},{"name":"Jordan McKinley","year":2028,"position":"TE","stars":null,"rating_247":88.0,"committed_to":null,"lat":40.0417,"lng":-89.1965,"hometown_city":"Wilmette","hometown_state":"IL"},{"name":"Theo Schott","year":2028,"position":"TE","stars":null,"rating_247":88.0,"committed_to":null,"lat":39.8942,"lng":-86.2816,"hometown_city":"Zionsville","hometown_state":"IN"},{"name":"Tre Oiler","year":2028,"position":"TE","stars":null,"rating_247":87.0,"committed_to":null,"lat":44.6243,"lng":-89.9941,"hometown_city":"Hartland","hometown_state":"WI"},{"name":"Jaxson Fort","year":2028,"position":"TE","stars":null,"rating_247":null,"committed_to":null,"lat":31.4757,"lng":-99.3312,"hometown_city":"Forney","hometown_state":"TX"},{"name":"Bennett Conyers","year":2028,"position":"TE","stars":null,"rating_247":null,"committed_to":null,"lat":35.858,"lng":-86.3505,"hometown_city":"Nashville","hometown_state":"TN"},{"name":"Nation Farmer","year":2028,"position":"OT","stars":null,"rating_247":91.0,"committed_to":null,"lat":28.6305,"lng":-82.4497,"hometown_city":"Bradenton","hometown_state":"FL"},{"name":"Joseph Frierdich","year":2028,"position":"OT","stars":null,"rating_247":90.0,"committed_to":null,"lat":40.0417,"lng":-89.1965,"hometown_city":"Carbondale","hometown_state":"IL"},{"name":"Antijuan Wilkes","year":2028,"position":"OT","stars":null,"rating_247":90.0,"committed_to":null,"lat":44.3467,"lng":-85.4102,"hometown_city":"Detroit","hometown_state":"MI"},{"name":"Wyatt VanBoening","year":2028,"position":"OT","stars":null,"rating_247":90.0,"committed_to":null,"lat":40.0417,"lng":-89.1965,"hometown_city":"Mundelein","hometown_state":"IL"},{"name":"Jackson Snelling","year":2028,"position":"OT","stars":null,"rating_247":90.0,"committed_to":null,"lat":28.6305,"lng":-82.4497,"hometown_city":"Sarasota","hometown_state":"FL"},{"name":"Eytan D'oleo","year":2028,"position":"OT","stars":null,"rating_247":90.0,"committed_to":null,"lat":40.1907,"lng":-74.6728,"hometown_city":"Camden","hometown_state":"NJ"},{"name":"Ben Coleman","year":2028,"position":"OT","stars":null,"rating_247":90.0,"committed_to":null,"lat":40.0417,"lng":-89.1965,"hometown_city":"New Lenox","hometown_state":"IL"},{"name":"Kavon Blackmon","year":2028,"position":"OT","stars":null,"rating_247":null,"committed_to":null,"lat":40.2862,"lng":-82.7937,"hometown_city":"Springfield","hometown_state":"OH"},{"name":"Ashton Coles","year":2028,"position":"IOL","stars":null,"rating_247":null,"committed_to":null,"lat":35.858,"lng":-86.3505,"hometown_city":"Nashville","hometown_state":"TN"},{"name":"George Perez","year":2028,"position":"IOL","stars":null,"rating_247":null,"committed_to":null,"lat":31.4757,"lng":-99.3312,"hometown_city":"Houston","hometown_state":"TX"},{"name":"Antonio Thomas Jr.","year":2028,"position":"Edge","stars":null,"rating_247":93.0,"committed_to":null,"lat":28.6305,"lng":-82.4497,"hometown_city":"Tampa","hometown_state":"FL"},{"name":"Jameer Whyce","year":2028,"position":"Edge","stars":null,"rating_247":91.0,"committed_to":"Ohio State","lat":40.2862,"lng":-82.7937,"hometown_city":"Dayton","hometown_state":"OH"},{"name":"Jayden Bell","year":2028,"position":"Edge","stars":null,"rating_247":90.0,"committed_to":null,"lat":44.3467,"lng":-85.4102,"hometown_city":"Bloomfield Hills","hometown_state":"MI"},{"name":"Jeremiah Figaro","year":2028,"position":"Edge","stars":null,"rating_247":90.0,"committed_to":null,"lat":42.2596,"lng":-71.8083,"hometown_city":"Brookline","hometown_state":"MA"},{"name":"Andre Robinson","year":2028,"position":"Edge","stars":null,"rating_247":89.0,"committed_to":null,"lat":40.1907,"lng":-74.6728,"hometown_city":"Camden","hometown_state":"NJ"},{"name":"Darion Newton","year":2028,"position":"Edge","stars":null,"rating_247":null,"committed_to":null,"lat":32.6415,"lng":-83.4426,"hometown_city":"Locust Grove","hometown_state":"GA"},{"name":"Eliaz Egbe","year":2028,"position":"Edge","stars":null,"rating_247":null,"committed_to":null,"lat":40.0417,"lng":-89.1965,"hometown_city":"Palatine","hometown_state":"IL"},{"name":"Asher Ghioto","year":2028,"position":"DL","stars":null,"rating_247":94.0,"committed_to":null,"lat":28.6305,"lng":-82.4497,"hometown_city":"Jacksonville","hometown_state":"FL"},{"name":"Caleb Tucker","year":2028,"position":"DL","stars":null,"rating_247":90.0,"committed_to":null,"lat":40.0417,"lng":-89.1965,"hometown_city":"Chicago","hometown_state":"IL"},{"name":"Zylen Little","year":2028,"position":"DL","stars":null,"rating_247":90.0,"committed_to":null,"lat":28.6305,"lng":-82.4497,"hometown_city":"Tampa","hometown_state":"FL"},{"name":"Sam Hirschy","year":2028,"position":"DL","stars":null,"rating_247":87.0,"committed_to":null,"lat":39.8942,"lng":-86.2816,"hometown_city":"New Palestine","hometown_state":"IN"},{"name":"Tahj Gray","year":2028,"position":"LB","stars":null,"rating_247":90.0,"committed_to":null,"lat":40.1907,"lng":-74.6728,"hometown_city":"Montvale","hometown_state":"NJ"},{"name":"Jameer Miles","year":2028,"position":"LB","stars":null,"rating_247":90.0,"committed_to":null,"lat":40.0417,"lng":-89.1965,"hometown_city":"Mundelein","hometown_state":"IL"},{"name":"Andre Alexander Jr.","year":2028,"position":"LB","stars":null,"rating_247":90.0,"committed_to":null,"lat":28.6305,"lng":-82.4497,"hometown_city":"Bradenton","hometown_state":"FL"},{"name":"Gabriel Player","year":2028,"position":"LB","stars":null,"rating_247":90.0,"committed_to":null,"lat":28.6305,"lng":-82.4497,"hometown_city":"Melbourne","hometown_state":"FL"},{"name":"Deondre Hill","year":2028,"position":"LB","stars":null,"rating_247":null,"committed_to":null,"lat":44.3467,"lng":-85.4102,"hometown_city":"Bloomfield Hills","hometown_state":"MI"},{"name":"Ja'Merce Johnson","year":2028,"position":"LB","stars":null,"rating_247":null,"committed_to":null,"lat":31.4757,"lng":-99.3312,"hometown_city":"Katy","hometown_state":"TX"},{"name":"Brodie Metzger","year":2028,"position":"LB","stars":null,"rating_247":null,"committed_to":null,"lat":46.2807,"lng":-94.3053,"hometown_city":"Hills","hometown_state":"MN"},{"name":"Phoenix Evans","year":2028,"position":"CB","stars":null,"rating_247":90.0,"committed_to":null,"lat":28.6305,"lng":-82.4497,"hometown_city":"Bradenton","hometown_state":"FL"},{"name":"Quinton Rolle","year":2028,"position":"CB","stars":null,"rating_247":88.0,"committed_to":null,"lat":28.6305,"lng":-82.4497,"hometown_city":"Miami","hometown_state":"FL"},{"name":"Grayden Reid","year":2028,"position":"S","stars":null,"rating_247":90.0,"committed_to":null,"lat":37.5347,"lng":-85.3021,"hometown_city":"Louisville","hometown_state":"KY"},{"name":"Kalen Simmons","year":2028,"position":"S","stars":null,"rating_247":90.0,"committed_to":null,"lat":31.4757,"lng":-99.3312,"hometown_city":"Iowa Colony","hometown_state":"TX"},{"name":"Jayden Evans","year":2028,"position":"S","stars":null,"rating_247":88.0,"committed_to":null,"lat":44.3467,"lng":-85.4102,"hometown_city":"Harper Woods","hometown_state":"MI"},{"name":"Demetrius Ingram","year":2028,"position":"S","stars":null,"rating_247":null,"committed_to":null,"lat":28.6305,"lng":-82.4497,"hometown_city":"Miami","hometown_state":"FL"},{"name":"Kameron McGee","year":2028,"position":"ATH","stars":null,"rating_247":95.0,"committed_to":null,"lat":40.0417,"lng":-89.1965,"hometown_city":"Oak Lawn","hometown_state":"IL"},{"name":"Darieon Prescott","year":2028,"position":"ATH","stars":null,"rating_247":94.0,"committed_to":null,"lat":40.0417,"lng":-89.1965,"hometown_city":"Bolingbrook","hometown_state":"IL"},{"name":"Madoxx Davis","year":2028,"position":"ATH","stars":null,"rating_247":91.0,"committed_to":null,"lat":32.6415,"lng":-83.4426,"hometown_city":"Cartersville","hometown_state":"GA"},{"name":"Logan Thompson","year":2028,"position":"ATH","stars":null,"rating_247":90.0,"committed_to":null,"lat":40.0417,"lng":-89.1965,"hometown_city":"Belleville","hometown_state":"IL"},{"name":"Jaden Hurndon","year":2028,"position":"ATH","stars":null,"rating_247":90.0,"committed_to":null,"lat":31.4757,"lng":-99.3312,"hometown_city":"Longview","hometown_state":"TX"},{"name":"Grant Bowen","year":2028,"position":"ATH","stars":null,"rating_247":90.0,"committed_to":null,"lat":40.0417,"lng":-89.1965,"hometown_city":"Elmhurst","hometown_state":"IL"},{"name":"Ridge Janes","year":2028,"position":"ATH","stars":null,"rating_247":90.0,"committed_to":null,"lat":38.3566,"lng":-92.458,"hometown_city":"St. Louis","hometown_state":"MO"},{"name":"Isaiah Grant","year":2028,"position":"ATH","stars":null,"rating_247":90.0,"committed_to":null,"lat":42.0751,"lng":-93.496,"hometown_city":"Sioux City","hometown_state":"IA"},{"name":"Bo Sutter","year":2028,"position":"ATH","stars":null,"rating_247":88.0,"committed_to":null,"lat":40.0417,"lng":-89.1965,"hometown_city":"Dunlap","hometown_state":"IL"},{"name":"Marquis Ray","year":2028,"position":"ATH","stars":null,"rating_247":null,"committed_to":null,"lat":40.2862,"lng":-82.7937,"hometown_city":"Pickerington","hometown_state":"OH"},{"name":"Kahlil Gabaud","year":2028,"position":"ATH","stars":null,"rating_247":null,"committed_to":null,"lat":28.6305,"lng":-82.4497,"hometown_city":"West Palm Beach","hometown_state":"FL"},{"name":"Antoine Norfleet","year":2028,"position":"ATH","stars":null,"rating_247":null,"committed_to":null,"lat":40.0417,"lng":-89.1965,"hometown_city":"Bolingbrook","hometown_state":"IL"}]}