{"2026":[{"name":"Travis Burgess","year":2026,"position":"QB","stars":4,"rating_247":95.0,"committed_to":"North Carolina","lat":33.8389977,"lng":-83.9007382,"hometown_city":"Loganville","hometown_state":"GA"},{"name":"Rocco Marriott","year":2026,"position":"QB","stars":4,"rating_247":89.0,"committed_to":"UCF","lat":39.3703535,"lng":-94.781086,"hometown_city":"Platte City","hometown_state":"MO"},{"name":"Adam Shaw","year":2026,"position":"QB","stars":3,"rating_247":88.0,"committed_to":"Michigan State","lat":41.0025975,"lng":-74.0404175,"hometown_city":"Hillsdale","hometown_state":"NJ"},{"name":"Femi Babalola","year":2026,"position":"QB","stars":3,"rating_247":87.0,"committed_to":"Boston College","lat":36.0325687,"lng":-86.7825235,"hometown_city":"Brentwood","hometown_state":"TN"},{"name":"Nathan Bernhard","year":2026,"position":"QB","stars":3,"rating_247":87.0,"committed_to":"Maryland","lat":40.8686675,"lng":-82.3182178,"hometown_city":"Ashland","hometown_state":"OH"},{"name":"DJ Bordeaux","year":2026,"position":"QB","stars":null,"rating_247":87.0,"committed_to":"UCLA","lat":38.9972,"lng":-105.5478,"hometown_city":"Parker","hometown_state":"CO"},{"name":"Semaj Beals","year":2026,"position":"QB","stars":3,"rating_247":86.0,"committed_to":"Akron","lat":39.9527237,"lng":-75.1635262,"hometown_city":"Philadelphia","hometown_state":"PA"},{"name":"Darnell Kelly","year":2026,"position":"QB","stars":3,"rating_247":86.0,"committed_to":"Colorado State","lat":33.5670562,"lng":-84.5810418,"hometown_city":"Fairburn","hometown_state":"GA"},{"name":"Aiden Smalls","year":2026,"position":"QB","stars":3,"rating_247":86.0,"committed_to":"North Carolina State","lat":35.650711,"lng":-78.4563914,"hometown_city":"Clayton","hometown_state":"NC"},{"name":"Kane Archer","year":2026,"position":"QB","stars":3,"rating_247":85.0,"committed_to":"Utah","lat":35.2156489,"lng":-94.2557663,"hometown_city":"Greenwood","hometown_state":"AR"},{"name":"Tanner Vibabul","year":2026,"position":"QB","stars":3,"rating_247":82.0,"committed_to":"James Madison","lat":36.1672559,"lng":-115.1485163,"hometown_city":"Las Vegas","hometown_state":"NV"},{"name":"Greyson Miller","year":2026,"position":"QB","stars":null,"rating_247":null,"committed_to":null,"lat":34.8938,"lng":-92.4426,"hometown_city":"West Helena","hometown_state":"AR"},{"name":"Jackson Debe","year":2026,"position":"QB","stars":3,"rating_247":null,"committed_to":null,"lat":35.2272,"lng":-80.843083,"hometown_city":"Charlotte","hometown_state":"NC"},{"name":"Mason Mallory","year":2026,"position":"QB","stars":null,"rating_247":null,"committed_to":null,"lat":28.6305,"lng":-82.4497,"hometown_city":"Fort Lauderdale","hometown_state":"FL"},{"name":"Savion Hiter","year":2026,"position":"RB","stars":5,"rating_247":98.0,"committed_to":"Michigan","lat":38.010695,"lng":-77.9086068,"hometown_city":"Mineral","hometown_state":"VA"},{"name":"Deuce Lawrence","year":2026,"position":"RB","stars":null,"rating_247":89.0,"committed_to":"Wake Forest","lat":32.6415,"lng":-83.4426,"hometown_city":"Thomasville","hometown_state":"GA"},{"name":"CJ Givers","year":2026,"position":"RB","stars":3,"rating_247":88.0,"committed_to":"Duke","lat":34.02332,"lng":-84.360022,"hometown_city":"Roswell","hometown_state":"GA"},{"name":"Sedric Addison","year":2026,"position":"RB","stars":3,"rating_247":88.0,"committed_to":"Boston College","lat":34.0514898,"lng":-84.0712997,"hometown_city":"Suwanee","hometown_state":"GA"},{"name":"Ty Cummings","year":2026,"position":"RB","stars":null,"rating_247":87.0,"committed_to":"Georgia Southern","lat":32.6415,"lng":-83.4426,"hometown_city":"Dublin","hometown_state":"GA"},{"name":"Braydon Johnson","year":2026,"position":"RB","stars":3,"rating_247":87.0,"committed_to":null,"lat":39.3303357,"lng":-84.408275,"hometown_city":"West Chester","hometown_state":"OH"},{"name":"Will Rajecki","year":2026,"position":"RB","stars":3,"rating_247":86.0,"committed_to":"Tennessee","lat":34.2367621,"lng":-84.4907621,"hometown_city":"Canton","hometown_state":"GA"},{"name":"Jayson Franklin","year":2026,"position":"RB","stars":3,"rating_247":86.0,"committed_to":"South Florida","lat":35.0525759,"lng":-78.878292,"hometown_city":"Fayetteville","hometown_state":"NC"},{"name":"Jamal Rule","year":2026,"position":"RB","stars":3,"rating_247":86.0,"committed_to":"Nebraska","lat":35.2272,"lng":-80.843083,"hometown_city":"Charlotte","hometown_state":"NC"},{"name":"Xavier Rucker","year":2026,"position":"RB","stars":3,"rating_247":86.0,"committed_to":"New Mexico State","lat":34.0659329,"lng":-84.6768796,"hometown_city":"Acworth","hometown_state":"GA"},{"name":"Najee Calhoun","year":2026,"position":"RB","stars":3,"rating_247":85.0,"committed_to":"Harvard","lat":40.9543943,"lng":-74.0308504,"hometown_city":"Oradell","hometown_state":"NJ"},{"name":"Cedric Kouemi","year":2026,"position":"RB","stars":3,"rating_247":85.0,"committed_to":"Jacksonville State","lat":39.017936,"lng":-77.2094542,"hometown_city":"Potomac","hometown_state":"MD"},{"name":"Delvecchio Alston II","year":2026,"position":"RB","stars":null,"rating_247":85.0,"committed_to":"Kentucky","lat":32.7794,"lng":-86.8287,"hometown_city":"Trussville","hometown_state":"AL"},{"name":"Li'Darious Pryor","year":2026,"position":"RB","stars":3,"rating_247":84.0,"committed_to":"Jackson State","lat":28.5421109,"lng":-81.3790304,"hometown_city":"Orlando","hometown_state":"FL"},{"name":"Kimauri Farmer","year":2026,"position":"RB","stars":3,"rating_247":84.0,"committed_to":null,"lat":33.5801103,"lng":-85.0766113,"hometown_city":"Carrollton","hometown_state":"GA"},{"name":"Phoenix Donghia","year":2026,"position":"RB","stars":3,"rating_247":82.0,"committed_to":"James Madison","lat":26.715364,"lng":-80.0532942,"hometown_city":"West Palm Beach","hometown_state":"FL"},{"name":"Eric Byrd","year":2026,"position":"RB","stars":null,"rating_247":null,"committed_to":null,"lat":37.5215,"lng":-78.8537,"hometown_city":"Highland Springs","hometown_state":"VA"},{"name":"Kaleb Woods","year":2026,"position":"RB","stars":null,"rating_247":null,"committed_to":null,"lat":28.6305,"lng":-82.4497,"hometown_city":"Newberry","hometown_state":"FL"},{"name":"Jayden Jones","year":2026,"position":"RB","stars":3,"rating_247":null,"committed_to":null,"lat":39.4020593,"lng":-75.0393368,"hometown_city":"Millville","hometown_state":"NJ"},{"name":"Farad Green","year":2026,"position":"RB","stars":null,"rating_247":null,"committed_to":"Army","lat":40.1907,"lng":-74.6728,"hometown_city":"West Orange","hometown_state":"NJ"},{"name":"Milan Parris","year":2026,"position":"WR","stars":4,"rating_247":96.0,"committed_to":"Miami","lat":41.1596261,"lng":-81.4406258,"hometown_city":"Stow","hometown_state":"OH"},{"name":"Aaron Gregory","year":2026,"position":"WR","stars":4,"rating_247":94.0,"committed_to":"Texas A&M","lat":33.7514966,"lng":-84.7477136,"hometown_city":"Douglasville","hometown_state":"GA"},{"name":"Travis Johnson","year":2026,"position":"WR","stars":4,"rating_247":94.0,"committed_to":"Michigan","lat":36.7183708,"lng":-76.2466798,"hometown_city":"Chesapeake","hometown_state":"VA"},{"name":"Chris Tangelo","year":2026,"position":"WR","stars":4,"rating_247":91.0,"committed_to":"Vanderbilt","lat":39.1731621,"lng":-77.2716502,"hometown_city":"Germantown","hometown_state":"MD"},{"name":"Jahsiear Rogers","year":2026,"position":"WR","stars":4,"rating_247":90.0,"committed_to":"Oklahoma","lat":39.4496857,"lng":-75.7166811,"hometown_city":"Middletown","hometown_state":"DE"},{"name":"Dyzier Carter","year":2026,"position":"WR","stars":4,"rating_247":90.0,"committed_to":"Rutgers","lat":38.010695,"lng":-77.9086068,"hometown_city":"Mineral","hometown_state":"VA"},{"name":"Rodney Dunbar","year":2026,"position":"WR","stars":null,"rating_247":89.0,"committed_to":"Pittsburgh","lat":32.6415,"lng":-83.4426,"hometown_city":"Thomasville","hometown_state":"GA"},{"name":"Jordan Crutchfield","year":2026,"position":"WR","stars":3,"rating_247":88.0,"committed_to":"Florida State","lat":27.6387163,"lng":-80.3975399,"hometown_city":"Vero Beach","hometown_state":"FL"},{"name":"Xavier McDonald","year":2026,"position":"WR","stars":4,"rating_247":88.0,"committed_to":"James Madison","lat":32.3537557,"lng":-89.6545171,"hometown_city":"Morton","hometown_state":"MS"},{"name":"Maurice Mathis Jr.","year":2026,"position":"WR","stars":null,"rating_247":88.0,"committed_to":"Alabama","lat":32.6415,"lng":-83.4426,"hometown_city":"Warner Robins","hometown_state":"GA"},{"name":"Darnell Stokes Jr.","year":2026,"position":"WR","stars":null,"rating_247":88.0,"committed_to":"Syracuse","lat":38.9896,"lng":-75.505,"hometown_city":"Frankford","hometown_state":"DE"},{"name":"Tyran Evans","year":2026,"position":"WR","stars":3,"rating_247":87.0,"committed_to":"Miami","lat":35.4817982,"lng":-80.8589501,"hometown_city":"Cornelius","hometown_state":"NC"},{"name":"Jude Hall","year":2026,"position":"WR","stars":3,"rating_247":87.0,"committed_to":"Arkansas","lat":34.851354,"lng":-82.3984882,"hometown_city":"Greenville","hometown_state":"SC"},{"name":"Dawson Quarterman","year":2026,"position":"WR","stars":3,"rating_247":87.0,"committed_to":"East Carolina","lat":33.8389977,"lng":-83.9007382,"hometown_city":"Loganville","hometown_state":"GA"},{"name":"Jojo Johnson","year":2026,"position":"WR","stars":3,"rating_247":87.0,"committed_to":"Purdue","lat":37.5385087,"lng":-77.43428,"hometown_city":"Richmond","hometown_state":"VA"},{"name":"Jayden Griffin-Haynes","year":2026,"position":"WR","stars":3,"rating_247":87.0,"committed_to":"North Carolina","lat":35.9232862,"lng":-78.4573914,"hometown_city":"Rolesville","hometown_state":"NC"},{"name":"Lavar Keys","year":2026,"position":"WR","stars":3,"rating_247":87.0,"committed_to":"Indiana","lat":38.9529442,"lng":-76.9408647,"hometown_city":"Hyattsville","hometown_state":"MD"},{"name":"Ben Whitver","year":2026,"position":"WR","stars":3,"rating_247":87.0,"committed_to":"Penn State","lat":37.5420237,"lng":-77.9190619,"hometown_city":"Powhatan","hometown_state":"VA"},{"name":"Brody Keefe","year":2026,"position":"WR","stars":3,"rating_247":86.0,"committed_to":"Duke","lat":35.2272,"lng":-80.843083,"hometown_city":"Charlotte","hometown_state":"NC"},{"name":"Gavin Waddell","year":2026,"position":"WR","stars":3,"rating_247":86.0,"committed_to":"Louisville","lat":35.9232862,"lng":-78.4573914,"hometown_city":"Rolesville","hometown_state":"NC"},{"name":"Kobe Adeleke-Hokes","year":2026,"position":"WR","stars":3,"rating_247":86.0,"committed_to":"Wake Forest","lat":34.0514898,"lng":-84.0712997,"hometown_city":"Suwanee","hometown_state":"GA"},{"name":"Jaire Richburg","year":2026,"position":"WR","stars":3,"rating_247":86.0,"committed_to":"North Carolina State","lat":36.1198589,"lng":-80.0736533,"hometown_city":"Kernersville","hometown_state":"NC"},{"name":"Rai'Shawn Elmore","year":2026,"position":"WR","stars":3,"rating_247":86.0,"committed_to":"Michigan State","lat":35.0768141,"lng":-80.6692352,"hometown_city":"Indian Trail","hometown_state":"NC"},{"name":"Zion Hudson","year":2026,"position":"WR","stars":3,"rating_247":86.0,"committed_to":"James Madison","lat":32.5537585,"lng":-83.8874084,"hometown_city":"Fort Valley","hometown_state":"GA"},{"name":"Trace Burney","year":2026,"position":"WR","stars":3,"rating_247":85.0,"committed_to":"James Madison","lat":30.1654707,"lng":-81.7016346,"hometown_city":"Orange Park","hometown_state":"FL"},{"name":"Mark Hanniford","year":2026,"position":"WR","stars":3,"rating_247":85.0,"committed_to":"Ball State","lat":26.3586885,"lng":-80.0830984,"hometown_city":"Boca Raton","hometown_state":"FL"},{"name":"Braiden Stevens","year":2026,"position":"WR","stars":3,"rating_247":85.0,"committed_to":"Minnesota","lat":39.3703535,"lng":-94.781086,"hometown_city":"Platte City","hometown_state":"MO"},{"name":"Alex Voss","year":2026,"position":"WR","stars":3,"rating_247":85.0,"committed_to":null,"lat":34.9362535,"lng":-80.75079198523316,"hometown_city":"Waxhaw","hometown_state":"NC"},{"name":"Kadarus Hainsworth","year":2026,"position":"WR","stars":3,"rating_247":85.0,"committed_to":"Coastal Carolina","lat":34.9498007,"lng":-81.9320157,"hometown_city":"Spartanburg","hometown_state":"SC"},{"name":"Kaden Catoe","year":2026,"position":"WR","stars":null,"rating_247":85.0,"committed_to":"Charlotte","lat":35.5557,"lng":-79.3877,"hometown_city":"Greensboro","hometown_state":"NC"},{"name":"Kaleb Smith","year":2026,"position":"WR","stars":null,"rating_247":84.0,"committed_to":"James Madison","lat":28.6305,"lng":-82.4497,"hometown_city":"Tampa","hometown_state":"FL"},{"name":"Elijah Moss-Williams","year":2026,"position":"WR","stars":3,"rating_247":84.0,"committed_to":"James Madison","lat":36.8462923,"lng":-76.2929252,"hometown_city":"Norfolk","hometown_state":"VA"},{"name":"Zach Stair","year":2026,"position":"WR","stars":3,"rating_247":83.0,"committed_to":"Georgia State","lat":33.7490987,"lng":-84.3901849,"hometown_city":"Atlanta","hometown_state":"GA"},{"name":"Donte Nicholson","year":2026,"position":"WR","stars":3,"rating_247":83.0,"committed_to":"Charlotte","lat":35.2272,"lng":-80.843083,"hometown_city":"Charlotte","hometown_state":"NC"},{"name":"Keyon Rice","year":2026,"position":"WR","stars":null,"rating_247":null,"committed_to":null,"lat":39.055,"lng":-76.7909,"hometown_city":"Baltimore","hometown_state":"MD"},{"name":"Marquis Williams","year":2026,"position":"WR","stars":null,"rating_247":null,"committed_to":null,"lat":28.6305,"lng":-82.4497,"hometown_city":"Miami","hometown_state":"FL"},{"name":"Khalil Sutton","year":2026,"position":"WR","stars":null,"rating_247":null,"committed_to":"Monmouth","lat":40.1907,"lng":-74.6728,"hometown_city":"Union City","hometown_state":"NJ"},{"name":"Tyler Ruxer","year":2026,"position":"TE","stars":4,"rating_247":89.0,"committed_to":"Oklahoma","lat":38.1211634,"lng":-86.9986077,"hometown_city":"Lincoln City","hometown_state":"IN"},{"name":"John-Patrick Oates","year":2026,"position":"TE","stars":3,"rating_247":88.0,"committed_to":"Virginia Tech","lat":40.0853435,"lng":-75.19402070907555,"hometown_city":"Wyndmoor","hometown_state":"PA"},{"name":"Tex Vaughn","year":2026,"position":"TE","stars":null,"rating_247":88.0,"committed_to":"North Carolina State","lat":35.5557,"lng":-79.3877,"hometown_city":"Kings Mountain","hometown_state":"NC"},{"name":"Max Roche","year":2026,"position":"TE","stars":3,"rating_247":86.0,"committed_to":"James Madison","lat":30.5168639,"lng":-86.482172,"hometown_city":"Niceville","hometown_state":"FL"},{"name":"Brady Shust","year":2026,"position":"TE","stars":3,"rating_247":86.0,"committed_to":"Wake Forest","lat":41.0467635,"lng":-74.0229173,"hometown_city":"Montvale","hometown_state":"NJ"},{"name":"Brady Owens","year":2026,"position":"TE","stars":3,"rating_247":86.0,"committed_to":"Rutgers","lat":38.8903961,"lng":-77.0841585,"hometown_city":"Arlington","hometown_state":"VA"},{"name":"Adam Land","year":2026,"position":"TE","stars":3,"rating_247":85.0,"committed_to":"Mississippi State","lat":30.2454776,"lng":-85.648261,"hometown_city":"Lynn Haven","hometown_state":"FL"},{"name":"Trent Taylor","year":2026,"position":"TE","stars":3,"rating_247":84.0,"committed_to":"Bowling Green","lat":41.760326,"lng":-81.140932,"hometown_city":"Perry","hometown_state":"OH"},{"name":"Brice Williamson","year":2026,"position":"TE","stars":3,"rating_247":83.0,"committed_to":"Appalachian State","lat":33.949281,"lng":-83.534608,"hometown_city":"Bogart","hometown_state":"GA"},{"name":"Davis Brown","year":2026,"position":"TE","stars":3,"rating_247":81.0,"committed_to":"Florida International","lat":35.9232862,"lng":-78.4573914,"hometown_city":"Rolesville","hometown_state":"NC"},{"name":"Darius Gray","year":2026,"position":"OT","stars":4,"rating_247":98.0,"committed_to":"South Carolina","lat":37.5385087,"lng":-77.43428,"hometown_city":"Richmond","hometown_state":"VA"},{"name":"Ekene Ogboko","year":2026,"position":"OT","stars":5,"rating_247":96.0,"committed_to":"Georgia","lat":35.996653,"lng":-78.9018053,"hometown_city":"Durham","hometown_state":"NC"},{"name":"PJ Dean","year":2026,"position":"OT","stars":null,"rating_247":95.0,"committed_to":"Georgia","lat":35.5557,"lng":-79.3877,"hometown_city":"Clemmons","hometown_state":"NC"},{"name":"Lance Dawson","year":2026,"position":"OT","stars":4,"rating_247":92.0,"committed_to":"Cincinnati","lat":41.4516512,"lng":-82.0350598,"hometown_city":"Avon","hometown_state":"OH"},{"name":"Charlie Thom","year":2026,"position":"OT","stars":4,"rating_247":92.0,"committed_to":"Notre Dame","lat":41.8098209,"lng":-72.8306541,"hometown_city":"Avon","hometown_state":"CT"},{"name":"Kai Pritchard","year":2026,"position":"OT","stars":4,"rating_247":91.0,"committed_to":"Illinois","lat":39.9537359,"lng":-74.1979576,"hometown_city":"Toms River","hometown_state":"NJ"},{"name":"Marlen Bright","year":2026,"position":"OT","stars":4,"rating_247":88.0,"committed_to":"Virginia Tech","lat":40.9491723,"lng":-74.2376802,"hometown_city":"Wayne","hometown_state":"NJ"},{"name":"Buddy Wegdam","year":2026,"position":"OT","stars":3,"rating_247":88.0,"committed_to":"Virginia Tech","lat":35.1668118,"lng":-80.7514585,"hometown_city":"Woodberry Forest","hometown_state":"VA"},{"name":"Brysen Wessell","year":2026,"position":"OT","stars":3,"rating_247":88.0,"committed_to":"Missouri","lat":37.3828316,"lng":-89.6684487,"hometown_city":"Jackson","hometown_state":"MO"},{"name":"Nick Fiumara","year":2026,"position":"OT","stars":3,"rating_247":87.0,"committed_to":"North Carolina","lat":42.3959296,"lng":-71.1786655,"hometown_city":"Belmont","hometown_state":"MA"},{"name":"Karon Spencer","year":2026,"position":"OT","stars":3,"rating_247":87.0,"committed_to":"Temple","lat":39.1532123,"lng":-77.0668408,"hometown_city":"Olney","hometown_state":"MD"},{"name":"Jayden Ross","year":2026,"position":"OT","stars":3,"rating_247":86.0,"committed_to":"Mississippi State","lat":30.4112904,"lng":-88.8279165,"hometown_city":"Ocean Springs","hometown_state":"MS"},{"name":"Ja'Vaughn Hargett","year":2026,"position":"OT","stars":3,"rating_247":86.0,"committed_to":"East Carolina","lat":35.996653,"lng":-78.9018053,"hometown_city":"Durham","hometown_state":"NC"},{"name":"Tre Glover","year":2026,"position":"OT","stars":3,"rating_247":85.0,"committed_to":"Appalachian State","lat":32.6200973,"lng":-83.606568,"hometown_city":"Warner Robins","hometown_state":"GA"},{"name":"Pete Eglitis","year":2026,"position":"OT","stars":3,"rating_247":85.0,"committed_to":"Penn State","lat":39.9622601,"lng":-83.0007065,"hometown_city":"Columbus","hometown_state":"OH"},{"name":"Nick Kashubara","year":2026,"position":"OT","stars":3,"rating_247":85.0,"committed_to":"Appalachian State","lat":36.0726355,"lng":-79.7919754,"hometown_city":"Greensboro","hometown_state":"NC"},{"name":"Brayden Charney","year":2026,"position":"OT","stars":3,"rating_247":84.0,"committed_to":"Syracuse","lat":26.715364,"lng":-80.0532942,"hometown_city":"West Palm Beach","hometown_state":"FL"},{"name":"Mark Holloway","year":2026,"position":"OT","stars":3,"rating_247":84.0,"committed_to":"Bethune-Cookman","lat":27.7703796,"lng":-82.6695085,"hometown_city":"St. Petersburg","hometown_state":"FL"},{"name":"Miles Muldrow","year":2026,"position":"OT","stars":3,"rating_247":84.0,"committed_to":"Delaware","lat":40.2762189,"lng":-74.8490528,"hometown_city":"Somerset","hometown_state":"NJ"},{"name":"Jacob McRae","year":2026,"position":"OT","stars":3,"rating_247":81.0,"committed_to":"Louisiana Tech","lat":33.1031744,"lng":-96.6705503,"hometown_city":"Allen","hometown_state":"TX"},{"name":"Tyler Chukuyem","year":2026,"position":"IOL","stars":4,"rating_247":89.0,"committed_to":"Florida","lat":33.7514966,"lng":-84.7477136,"hometown_city":"Douglasville","hometown_state":"GA"},{"name":"Logan Anthony","year":2026,"position":"IOL","stars":3,"rating_247":89.0,"committed_to":"Rutgers","lat":40.8014826,"lng":-75.6101868,"hometown_city":"Palmerton","hometown_state":"PA"},{"name":"Mason Wilhelm","year":2026,"position":"IOL","stars":3,"rating_247":88.0,"committed_to":"Ohio State","lat":41.4819932,"lng":-81.7981908,"hometown_city":"Lakewood","hometown_state":"OH"},{"name":"Braylon Ellison","year":2026,"position":"IOL","stars":3,"rating_247":88.0,"committed_to":"Missouri","lat":38.9751547,"lng":-92.7440277,"hometown_city":"Boonville","hometown_state":"MO"},{"name":"Ed Baker","year":2026,"position":"IOL","stars":null,"rating_247":88.0,"committed_to":"Tennessee","lat":39.055,"lng":-76.7909,"hometown_city":"Baltimore","hometown_state":"MD"},{"name":"Ben Gula","year":2026,"position":"IOL","stars":3,"rating_247":86.0,"committed_to":"Colorado","lat":26.1223084,"lng":-80.1433786,"hometown_city":"Fort Lauderdale","hometown_state":"FL"},{"name":"Artem Korchagin Jr.","year":2026,"position":"IOL","stars":null,"rating_247":86.0,"committed_to":"South Alabama","lat":32.6415,"lng":-83.4426,"hometown_city":"Thomasville","hometown_state":"GA"},{"name":"Austin Hoane","year":2026,"position":"IOL","stars":3,"rating_247":86.0,"committed_to":"Cincinnati","lat":36.1623886,"lng":-85.4997057,"hometown_city":"Cookeville","hometown_state":"TN"},{"name":"Zayden Walters","year":2026,"position":"IOL","stars":3,"rating_247":86.0,"committed_to":"Western Kentucky","lat":33.857328,"lng":-84.0199108,"hometown_city":"Snellville","hometown_state":"GA"},{"name":"Alexander Brewer","year":2026,"position":"IOL","stars":3,"rating_247":85.0,"committed_to":"Navy","lat":34.2367621,"lng":-84.4907621,"hometown_city":"Canton","hometown_state":"GA"},{"name":"Brendan Alexander","year":2026,"position":"IOL","stars":3,"rating_247":85.0,"committed_to":"Northern Illinois","lat":40.6872885,"lng":-80.2714505,"hometown_city":"Monaca","hometown_state":"PA"},{"name":"Rhett Morris","year":2026,"position":"IOL","stars":3,"rating_247":85.0,"committed_to":"West Virginia","lat":41.0573188,"lng":-74.1409771,"hometown_city":"Ramsey","hometown_state":"NJ"},{"name":"John Curran","year":2026,"position":"IOL","stars":3,"rating_247":85.0,"committed_to":"Pittsburgh","lat":40.6300671,"lng":-79.9695004,"hometown_city":"Gibsonia","hometown_state":"PA"},{"name":"Michael Price","year":2026,"position":"IOL","stars":3,"rating_247":85.0,"committed_to":"UCLA","lat":34.729847,"lng":-86.5859011,"hometown_city":"Huntsville","hometown_state":"AL"},{"name":"Jesse Giddings","year":2026,"position":"IOL","stars":3,"rating_247":85.0,"committed_to":"James Madison","lat":42.2501425,"lng":-71.065573,"hometown_city":"Milton","hometown_state":"MA"},{"name":"Deontavis Cooper","year":2026,"position":"IOL","stars":3,"rating_247":84.0,"committed_to":"Tulane","lat":30.8365815,"lng":-83.9787808,"hometown_city":"Thomasville","hometown_state":"GA"},{"name":"Jack Harris","year":2026,"position":"IOL","stars":3,"rating_247":84.0,"committed_to":"James Madison","lat":40.9543943,"lng":-74.0308504,"hometown_city":"Oradell","hometown_state":"NJ"},{"name":"Hunter Winn","year":2026,"position":"IOL","stars":3,"rating_247":84.0,"committed_to":"Liberty","lat":36.8462923,"lng":-76.2929252,"hometown_city":"Norfolk","hometown_state":"VA"},{"name":"Gregory Maddox","year":2026,"position":"IOL","stars":null,"rating_247":null,"committed_to":null,"lat":39.055,"lng":-76.7909,"hometown_city":"Dundalk","hometown_state":"MD"},{"name":"Brodie Bass","year":2026,"position":"IOL","stars":null,"rating_247":null,"committed_to":"East Tennessee State","lat":32.7364,"lng":-89.6678,"hometown_city":"Ellisville","hometown_state":"MS"},{"name":"Rodney Dunham","year":2026,"position":"Edge","stars":5,"rating_247":98.0,"committed_to":"Notre Dame","lat":35.2272,"lng":-80.843083,"hometown_city":"Charlotte","hometown_state":"NC"},{"name":"Zion Elee","year":2026,"position":"Edge","stars":5,"rating_247":98.0,"committed_to":"Maryland","lat":39.2908816,"lng":-76.610759,"hometown_city":"Baltimore","hometown_state":"MD"},{"name":"Breeze Carter","year":2026,"position":"Edge","stars":null,"rating_247":91.0,"committed_to":"Tennessee","lat":32.6415,"lng":-83.4426,"hometown_city":"Douglasville","hometown_state":"GA"},{"name":"Zavion Griffin-Haynes","year":2026,"position":"Edge","stars":3,"rating_247":89.0,"committed_to":"North Carolina","lat":35.9232862,"lng":-78.4573914,"hometown_city":"Rolesville","hometown_state":"NC"},{"name":"Jace McCallum","year":2026,"position":"Edge","stars":3,"rating_247":89.0,"committed_to":"Vanderbilt","lat":35.3262523,"lng":-80.6446563,"hometown_city":"Harrisburg","hometown_state":"NC"},{"name":"Corey Howard Jr.","year":2026,"position":"Edge","stars":null,"rating_247":89.0,"committed_to":"Alabama","lat":32.6415,"lng":-83.4426,"hometown_city":"Valdosta","hometown_state":"GA"},{"name":"Daniel Norman","year":2026,"position":"Edge","stars":3,"rating_247":88.0,"committed_to":"Oklahoma","lat":26.1223084,"lng":-80.1433786,"hometown_city":"Fort Lauderdale","hometown_state":"FL"},{"name":"Manny Lewis","year":2026,"position":"Edge","stars":3,"rating_247":88.0,"committed_to":"Appalachian State","lat":34.9362535,"lng":-80.75079198523316,"hometown_city":"Waxhaw","hometown_state":"NC"},{"name":"Keysaun Eleazer","year":2026,"position":"Edge","stars":3,"rating_247":88.0,"committed_to":"Stanford","lat":35.7803977,"lng":-78.6390989,"hometown_city":"Raleigh","hometown_state":"NC"},{"name":"Chris Carbin","year":2026,"position":"Edge","stars":3,"rating_247":88.0,"committed_to":"Florida State","lat":33.8595492,"lng":-84.683824,"hometown_city":"Powder Springs","hometown_state":"GA"},{"name":"Demetrius Geathers Jr.","year":2026,"position":"Edge","stars":3,"rating_247":86.0,"committed_to":"South Florida","lat":26.3586885,"lng":-80.0830984,"hometown_city":"Boca Raton","hometown_state":"FL"},{"name":"Douglas Adams III","year":2026,"position":"Edge","stars":null,"rating_247":86.0,"committed_to":"Mississippi State","lat":37.1841,"lng":-119.4696,"hometown_city":"Los Altos","hometown_state":"CA"},{"name":"Lawrence Brown Jr.","year":2026,"position":"Edge","stars":null,"rating_247":85.0,"committed_to":"North Carolina State","lat":32.6415,"lng":-83.4426,"hometown_city":"Loganville","hometown_state":"GA"},{"name":"Seth Clarke","year":2026,"position":"Edge","stars":3,"rating_247":85.0,"committed_to":"Rice","lat":40.3492744,"lng":-74.6592958,"hometown_city":"Princeton","hometown_state":"NJ"},{"name":"Peter Ramil","year":2026,"position":"Edge","stars":3,"rating_247":85.0,"committed_to":"South Florida","lat":33.2442813,"lng":-86.8163773,"hometown_city":"Alabaster","hometown_state":"AL"},{"name":"Kamren Johnson","year":2026,"position":"Edge","stars":3,"rating_247":85.0,"committed_to":"Virginia Tech","lat":36.8529841,"lng":-75.9774183,"hometown_city":"Virginia Beach","hometown_state":"VA"},{"name":"Uyi Igiehon","year":2026,"position":"Edge","stars":3,"rating_247":85.0,"committed_to":"Temple","lat":40.6976019,"lng":-74.2632024,"hometown_city":"Union","hometown_state":"NJ"},{"name":"Kadin Fossung","year":2026,"position":"Edge","stars":3,"rating_247":85.0,"committed_to":"Tulsa","lat":34.2978794,"lng":-83.8240663,"hometown_city":"Gainesville","hometown_state":"GA"},{"name":"Kacey Gilliam","year":2026,"position":"Edge","stars":3,"rating_247":84.0,"committed_to":"James Madison","lat":39.1434406,"lng":-77.2013705,"hometown_city":"Gaithersburg","hometown_state":"MD"},{"name":"Dominic Basrawala","year":2026,"position":"Edge","stars":3,"rating_247":84.0,"committed_to":"Army","lat":35.2272,"lng":-80.843083,"hometown_city":"Charlotte","hometown_state":"NC"},{"name":"JaKambry Brown","year":2026,"position":"Edge","stars":3,"rating_247":84.0,"committed_to":"West Georgia","lat":32.6200973,"lng":-83.606568,"hometown_city":"Warner Robins","hometown_state":"GA"},{"name":"Rob Lange","year":2026,"position":"Edge","stars":3,"rating_247":83.0,"committed_to":null,"lat":35.9556924,"lng":-80.0053176,"hometown_city":"High Point","hometown_state":"NC"},{"name":"Jonah Smith","year":2026,"position":"Edge","stars":3,"rating_247":83.0,"committed_to":"James Madison","lat":39.6292788,"lng":-75.6582628,"hometown_city":"Bear","hometown_state":"DE"},{"name":"Preston Lunsford","year":2026,"position":"Edge","stars":3,"rating_247":81.0,"committed_to":"Buffalo","lat":40.0581205,"lng":-82.4012643,"hometown_city":"Newark","hometown_state":"OH"},{"name":"Aiden Harris","year":2026,"position":"DL","stars":4,"rating_247":95.0,"committed_to":"South Carolina","lat":35.1170873,"lng":-80.723718,"hometown_city":"Matthews","hometown_state":"NC"},{"name":"Keshawn Stancil","year":2026,"position":"DL","stars":4,"rating_247":95.0,"committed_to":"Miami","lat":35.650711,"lng":-78.4563914,"hometown_city":"Clayton","hometown_state":"NC"},{"name":"Noah Clark","year":2026,"position":"DL","stars":4,"rating_247":94.0,"committed_to":"South Carolina","lat":35.996653,"lng":-78.9018053,"hometown_city":"Durham","hometown_state":"NC"},{"name":"Isaac Chukwurah","year":2026,"position":"DL","stars":3,"rating_247":90.0,"committed_to":"Miami","lat":39.6292788,"lng":-75.6582628,"hometown_city":"Bear","hometown_state":"DE"},{"name":"Cameron Brickle II","year":2026,"position":"DL","stars":null,"rating_247":89.0,"committed_to":"Maryland","lat":28.6305,"lng":-82.4497,"hometown_city":"Bradenton","hometown_state":"FL"},{"name":"Jermaine Kinsler","year":2026,"position":"DL","stars":4,"rating_247":89.0,"committed_to":"Texas A&M","lat":40.9543943,"lng":-74.0308504,"hometown_city":"Oradell","hometown_state":"NJ"},{"name":"Carter Luckie","year":2026,"position":"DL","stars":4,"rating_247":89.0,"committed_to":"Georgia","lat":33.9412127,"lng":-84.2135309,"hometown_city":"Norcross","hometown_state":"GA"},{"name":"Ben Boulware","year":2026,"position":"DL","stars":3,"rating_247":89.0,"committed_to":"North Carolina A&T","lat":36.0998131,"lng":-80.2440518,"hometown_city":"Winston Salem","hometown_state":"NC"},{"name":"AJ Lonon Jr.","year":2026,"position":"DL","stars":null,"rating_247":89.0,"committed_to":"Georgia","lat":32.6415,"lng":-83.4426,"hometown_city":"Athens","hometown_state":"GA"},{"name":"Andrew Harris","year":2026,"position":"DL","stars":4,"rating_247":89.0,"committed_to":"South Carolina","lat":35.1170873,"lng":-80.723718,"hometown_city":"Matthews","hometown_state":"NC"},{"name":"Logan Nagle","year":2026,"position":"DL","stars":3,"rating_247":89.0,"committed_to":"Miami","lat":40.9491723,"lng":-74.2376802,"hometown_city":"Wayne","hometown_state":"NJ"},{"name":"T-Ron Richardson Jr.","year":2026,"position":"DL","stars":null,"rating_247":87.0,"committed_to":"Virginia Tech","lat":37.5215,"lng":-78.8537,"hometown_city":"Hopewell","hometown_state":"VA"},{"name":"Ayden Cain","year":2026,"position":"DL","stars":3,"rating_247":87.0,"committed_to":"Duke","lat":34.2978794,"lng":-83.8240663,"hometown_city":"Gainesville","hometown_state":"GA"},{"name":"Marcus Almada","year":2026,"position":"DL","stars":3,"rating_247":87.0,"committed_to":"UCLA","lat":41.7001043,"lng":-70.7628129,"hometown_city":"Marion","hometown_state":"MA"},{"name":"Bull Richardson","year":2026,"position":"DL","stars":null,"rating_247":87.0,"committed_to":"Virginia","lat":37.5215,"lng":-78.8537,"hometown_city":"Richmond","hometown_state":"VA"},{"name":"Lincoln Hoke","year":2026,"position":"DL","stars":3,"rating_247":86.0,"committed_to":"Pittsburgh","lat":40.6264561,"lng":-80.055891,"hometown_city":"Wexford","hometown_state":"PA"},{"name":"Kamdon Gillespie","year":2026,"position":"DL","stars":3,"rating_247":86.0,"committed_to":"East Tennessee State","lat":35.5848596,"lng":-80.8100724,"hometown_city":"Mooresville","hometown_state":"NC"},{"name":"Keon Webb","year":2026,"position":"DL","stars":null,"rating_247":86.0,"committed_to":"Louisville","lat":38.4937,"lng":-98.3804,"hometown_city":"Garden City","hometown_state":"KS"},{"name":"Cory Simon","year":2026,"position":"DL","stars":3,"rating_247":85.0,"committed_to":"James Madison","lat":26.1223084,"lng":-80.1433786,"hometown_city":"Fort Lauderdale","hometown_state":"FL"},{"name":"Cameron McGee","year":2026,"position":"DL","stars":3,"rating_247":85.0,"committed_to":"Boston College","lat":33.8389977,"lng":-83.9007382,"hometown_city":"Loganville","hometown_state":"GA"},{"name":"Christian Corbin","year":2026,"position":"DL","stars":3,"rating_247":84.0,"committed_to":"Delaware","lat":36.9786449,"lng":-76.4321089,"hometown_city":"Newport News","hometown_state":"VA"},{"name":"Courage Osawe Jr.","year":2026,"position":"DL","stars":null,"rating_247":84.0,"committed_to":"North Texas","lat":37.1841,"lng":-119.4696,"hometown_city":"Oroville","hometown_state":"CA"},{"name":"Xavier Reid","year":2026,"position":"DL","stars":3,"rating_247":83.0,"committed_to":"Liberty","lat":26.3586885,"lng":-80.0830984,"hometown_city":"Boca Raton","hometown_state":"FL"},{"name":"Christopher Bispham","year":2026,"position":"DL","stars":3,"rating_247":83.0,"committed_to":"James Madison","lat":34.8785,"lng":-76.9014457,"hometown_city":"Havelock","hometown_state":"NC"},{"name":"Jackson Kraemer","year":2026,"position":"DL","stars":null,"rating_247":82.0,"committed_to":"Villanova","lat":40.8781,"lng":-77.7996,"hometown_city":"Pittsburgh","hometown_state":"PA"},{"name":"Delaney Fludd","year":2026,"position":"DL","stars":null,"rating_247":null,"committed_to":null,"lat":41.6219,"lng":-72.7273,"hometown_city":"Oakdale","hometown_state":"CT"},{"name":"Linkin Zylstra","year":2026,"position":"DL","stars":null,"rating_247":null,"committed_to":"Holy Cross","lat":41.6219,"lng":-72.7273,"hometown_city":"Oakdale","hometown_state":"CT"},{"name":"Ja'Dyn Williams","year":2026,"position":"LB","stars":4,"rating_247":91.0,"committed_to":"Indiana","lat":40.7967244,"lng":-81.5215093,"hometown_city":"Massillon","hometown_state":"OH"},{"name":"Thomas Davis Jr.","year":2026,"position":"LB","stars":4,"rating_247":90.0,"committed_to":"Notre Dame","lat":35.1170873,"lng":-80.723718,"hometown_city":"Matthews","hometown_state":"NC"},{"name":"Billy Weivoda","year":2026,"position":"LB","stars":3,"rating_247":88.0,"committed_to":"Iowa","lat":34.0709576,"lng":-84.2747329,"hometown_city":"Alpharetta","hometown_state":"GA"},{"name":"CJ Gamble","year":2026,"position":"LB","stars":3,"rating_247":87.0,"committed_to":"Georgia Tech","lat":33.5801103,"lng":-85.0766113,"hometown_city":"Carrollton","hometown_state":"GA"},{"name":"Tanner Raymond","year":2026,"position":"LB","stars":3,"rating_247":87.0,"committed_to":"Rutgers","lat":41.4570418,"lng":-72.8231552,"hometown_city":"Wallingford","hometown_state":"CT"},{"name":"Josh Pittman","year":2026,"position":"LB","stars":null,"rating_247":87.0,"committed_to":"Pittsburgh","lat":37.5215,"lng":-78.8537,"hometown_city":"Suffolk","hometown_state":"VA"},{"name":"Max Mohring","year":2026,"position":"LB","stars":3,"rating_247":87.0,"committed_to":"Northwestern","lat":40.034444,"lng":-75.514444,"hometown_city":"Malvern","hometown_state":"PA"},{"name":"Matthew Occhipinti","year":2026,"position":"LB","stars":3,"rating_247":86.0,"committed_to":"UCF","lat":41.0573188,"lng":-74.1409771,"hometown_city":"Ramsey","hometown_state":"NJ"},{"name":"Zay Hall","year":2026,"position":"LB","stars":3,"rating_247":86.0,"committed_to":"Alabama","lat":33.2095614,"lng":-87.5675258,"hometown_city":"Tuscaloosa","hometown_state":"AL"},{"name":"Matthew Jones","year":2026,"position":"LB","stars":3,"rating_247":86.0,"committed_to":"Richmond","lat":40.0131672,"lng":-75.2943516,"hometown_city":"Haverford","hometown_state":"PA"},{"name":"Jameson McCollough","year":2026,"position":"LB","stars":null,"rating_247":86.0,"committed_to":"Jacksonville State","lat":32.6415,"lng":-83.4426,"hometown_city":"Powder Springs","hometown_state":"GA"},{"name":"Westen Ard","year":2026,"position":"LB","stars":3,"rating_247":85.0,"committed_to":"Western Kentucky","lat":32.6200973,"lng":-83.606568,"hometown_city":"Warner Robins","hometown_state":"GA"},{"name":"Noah LaVallee","year":2026,"position":"LB","stars":3,"rating_247":85.0,"committed_to":"Florida State","lat":33.9528472,"lng":-84.5496148,"hometown_city":"Marietta","hometown_state":"GA"},{"name":"Jordan Avinger","year":2026,"position":"LB","stars":3,"rating_247":85.0,"committed_to":"North Carolina","lat":33.4918203,"lng":-80.8556476,"hometown_city":"Orangeburg","hometown_state":"SC"},{"name":"Omari Stephenson","year":2026,"position":"LB","stars":3,"rating_247":85.0,"committed_to":"Kennesaw State","lat":30.8365815,"lng":-83.9787808,"hometown_city":"Thomasville","hometown_state":"GA"},{"name":"Kadan Spratling","year":2026,"position":"LB","stars":3,"rating_247":85.0,"committed_to":"Memphis","lat":33.5801103,"lng":-85.0766113,"hometown_city":"Carrollton","hometown_state":"GA"},{"name":"Josiah Perry","year":2026,"position":"LB","stars":3,"rating_247":84.0,"committed_to":"James Madison","lat":38.7890522,"lng":-77.1870368,"hometown_city":"Springfield","hometown_state":"VA"},{"name":"Anwar Witherspoon Jr.","year":2026,"position":"LB","stars":3,"rating_247":84.0,"committed_to":"Buffalo","lat":40.5382375,"lng":-74.39451734508772,"hometown_city":"Edison","hometown_state":"NJ"},{"name":"Hayes Beaver","year":2026,"position":"LB","stars":3,"rating_247":83.0,"committed_to":"Brown","lat":32.0809263,"lng":-81.0911768,"hometown_city":"Savannah","hometown_state":"GA"},{"name":"Shane Rochelle","year":2026,"position":"LB","stars":null,"rating_247":82.0,"committed_to":"Middle Tennessee","lat":28.6305,"lng":-82.4497,"hometown_city":"Miami","hometown_state":"FL"},{"name":"Braylon Hood","year":2026,"position":"LB","stars":null,"rating_247":null,"committed_to":"Furman","lat":37.5215,"lng":-78.8537,"hometown_city":"Richmond","hometown_state":"VA"},{"name":"Samari Matthews","year":2026,"position":"CB","stars":4,"rating_247":94.0,"committed_to":"Texas","lat":35.4817982,"lng":-80.8589501,"hometown_city":"Cornelius","hometown_state":"NC"},{"name":"Kosci Barnes","year":2026,"position":"CB","stars":4,"rating_247":94.0,"committed_to":"South Carolina","lat":36.0726355,"lng":-79.7919754,"hometown_city":"Greensboro","hometown_state":"NC"},{"name":"Jordan Thomas","year":2026,"position":"CB","stars":4,"rating_247":93.0,"committed_to":"Ohio State","lat":40.9543943,"lng":-74.0308504,"hometown_city":"Oradell","hometown_state":"NJ"},{"name":"Justice Fitzpatrick","year":2026,"position":"CB","stars":4,"rating_247":92.0,"committed_to":"Georgia","lat":26.1223084,"lng":-80.1433786,"hometown_city":"Fort Lauderdale","hometown_state":"FL"},{"name":"Andre Clarke Jr.","year":2026,"position":"CB","stars":4,"rating_247":90.0,"committed_to":"Kentucky","lat":37.5385087,"lng":-77.43428,"hometown_city":"Richmond","hometown_state":"VA"},{"name":"Zaevion Cleveland","year":2026,"position":"CB","stars":3,"rating_247":89.0,"committed_to":"Virginia Tech","lat":36.8529841,"lng":-75.9774183,"hometown_city":"Virginia Beach","hometown_state":"VA"},{"name":"Xavier Jackson","year":2026,"position":"CB","stars":3,"rating_247":88.0,"committed_to":"North Carolina","lat":38.7910374,"lng":-90.7039107,"hometown_city":"O'Fallon","hometown_state":"MO"},{"name":"Kamden Jennings","year":2026,"position":"CB","stars":3,"rating_247":88.0,"committed_to":"James Madison","lat":34.0709576,"lng":-84.2747329,"hometown_city":"Alpharetta","hometown_state":"GA"},{"name":"Da'Ron Barksdale","year":2026,"position":"CB","stars":3,"rating_247":88.0,"committed_to":"Pittsburgh","lat":40.4059025,"lng":-79.9119948,"hometown_city":"Homestead","hometown_state":"PA"},{"name":"Jayden Covil","year":2026,"position":"CB","stars":3,"rating_247":87.0,"committed_to":"Virginia","lat":36.7183708,"lng":-76.2466798,"hometown_city":"Chesapeake","hometown_state":"VA"},{"name":"Jordyn Best","year":2026,"position":"CB","stars":3,"rating_247":87.0,"committed_to":"North Carolina State","lat":34.0007493,"lng":-81.0343313,"hometown_city":"Columbia","hometown_state":"SC"},{"name":"LaRon Dues","year":2026,"position":"CB","stars":3,"rating_247":86.0,"committed_to":"James Madison","lat":27.3364347,"lng":-82.5306527,"hometown_city":"Sarasota","hometown_state":"FL"},{"name":"Xavier Myers","year":2026,"position":"CB","stars":3,"rating_247":86.0,"committed_to":"Boston College","lat":39.2908816,"lng":-76.610759,"hometown_city":"Baltimore","hometown_state":"MD"},{"name":"Jeremiah Favorite","year":2026,"position":"CB","stars":3,"rating_247":86.0,"committed_to":"Michigan State","lat":35.04136,"lng":-81.97882024148419,"hometown_city":"Boiling Springs","hometown_state":"SC"},{"name":"Shawn Church Jr.","year":2026,"position":"CB","stars":3,"rating_247":86.0,"committed_to":"Delaware","lat":36.8529841,"lng":-75.9774183,"hometown_city":"Virginia Beach","hometown_state":"VA"},{"name":"Braylon Peebles","year":2026,"position":"CB","stars":3,"rating_247":86.0,"committed_to":"Furman","lat":35.7803977,"lng":-78.6390989,"hometown_city":"Raleigh","hometown_state":"NC"},{"name":"Jermiyah Douglas","year":2026,"position":"CB","stars":null,"rating_247":85.0,"committed_to":"Western Carolina","lat":28.6305,"lng":-82.4497,"hometown_city":"Fort Lauderdale","hometown_state":"FL"},{"name":"Derrick Nichols III","year":2026,"position":"CB","stars":3,"rating_247":85.0,"committed_to":"South Florida","lat":26.1223084,"lng":-80.1433786,"hometown_city":"Fort Lauderdale","hometown_state":"FL"},{"name":"Simaj Hill","year":2026,"position":"CB","stars":3,"rating_247":85.0,"committed_to":"West Virginia","lat":39.9527237,"lng":-75.1635262,"hometown_city":"Philadelphia","hometown_state":"PA"},{"name":"Javan Allison","year":2026,"position":"CB","stars":3,"rating_247":84.0,"committed_to":"Jacksonville State","lat":25.7742658,"lng":-80.1936589,"hometown_city":"Miami","hometown_state":"FL"},{"name":"Syncere Berry","year":2026,"position":"CB","stars":3,"rating_247":84.0,"committed_to":"Appalachian State","lat":33.7490987,"lng":-84.3901849,"hometown_city":"Atlanta","hometown_state":"GA"},{"name":"Leonzay Merzius","year":2026,"position":"CB","stars":3,"rating_247":84.0,"committed_to":"Western Kentucky","lat":26.0112014,"lng":-80.1494901,"hometown_city":"Hollywood","hometown_state":"FL"},{"name":"Trey Gibson","year":2026,"position":"CB","stars":null,"rating_247":84.0,"committed_to":"James Madison","lat":40.8781,"lng":-77.7996,"hometown_city":"Malvern","hometown_state":"PA"},{"name":"Lagarion Wilson","year":2026,"position":"CB","stars":null,"rating_247":null,"committed_to":"Sacramento State","lat":28.6305,"lng":-82.4497,"hometown_city":"Orlando","hometown_state":"FL"},{"name":"Antonio Turner","year":2026,"position":"CB","stars":null,"rating_247":null,"committed_to":"Hampton","lat":37.5215,"lng":-78.8537,"hometown_city":"Midlothian","hometown_state":"VA"},{"name":"Braylon Peeble","year":2026,"position":"CB","stars":null,"rating_247":null,"committed_to":null,"lat":35.5557,"lng":-79.3877,"hometown_city":"Raleigh","hometown_state":"NC"},{"name":"Chris Hewitt Jr.","year":2026,"position":"S","stars":3,"rating_247":89.0,"committed_to":"Georgia Tech","lat":39.4018552,"lng":-76.602388,"hometown_city":"Towson","hometown_state":"MD"},{"name":"Rihyael Kelley","year":2026,"position":"S","stars":3,"rating_247":89.0,"committed_to":"Alabama","lat":39.1014537,"lng":-84.5124602,"hometown_city":"Cincinnati","hometown_state":"OH"},{"name":"Markell Taylor","year":2026,"position":"S","stars":3,"rating_247":88.0,"committed_to":"Cincinnati","lat":33.9237141,"lng":-84.8407732,"hometown_city":"Dallas","hometown_state":"GA"},{"name":"KJ McClain","year":2026,"position":"S","stars":3,"rating_247":88.0,"committed_to":"Tennessee","lat":41.0467635,"lng":-74.0229173,"hometown_city":"Montvale","hometown_state":"NJ"},{"name":"D'Various Surratt","year":2026,"position":"S","stars":3,"rating_247":88.0,"committed_to":"North Carolina State","lat":35.2919489,"lng":-81.5402112,"hometown_city":"Shelby","hometown_state":"NC"},{"name":"Koby Sarkodie","year":2026,"position":"S","stars":3,"rating_247":88.0,"committed_to":"North Carolina State","lat":39.3265775,"lng":-76.7181764750945,"hometown_city":"Gwynn Oak","hometown_state":"MD"},{"name":"Nick Reddish","year":2026,"position":"S","stars":3,"rating_247":88.0,"committed_to":"Notre Dame","lat":35.2272,"lng":-80.843083,"hometown_city":"Charlotte","hometown_state":"NC"},{"name":"Lyrik Pettis","year":2026,"position":"S","stars":3,"rating_247":88.0,"committed_to":"Duke","lat":35.2919489,"lng":-81.5402112,"hometown_city":"Shelby","hometown_state":"NC"},{"name":"Bradley Brown","year":2026,"position":"S","stars":3,"rating_247":87.0,"committed_to":"Vanderbilt","lat":33.0136764,"lng":-96.6925096,"hometown_city":"Plano","hometown_state":"TX"},{"name":"Christian Askew","year":2026,"position":"S","stars":null,"rating_247":87.0,"committed_to":"Penn State","lat":32.6415,"lng":-83.4426,"hometown_city":"Kathleen","hometown_state":"GA"},{"name":"Micah Williams","year":2026,"position":"S","stars":3,"rating_247":87.0,"committed_to":"Appalachian State","lat":32.0809263,"lng":-81.0911768,"hometown_city":"Savannah","hometown_state":"GA"},{"name":"Brayden Thomas","year":2026,"position":"S","stars":3,"rating_247":87.0,"committed_to":"Michigan State","lat":41.4819932,"lng":-81.7981908,"hometown_city":"Lakewood","hometown_state":"OH"},{"name":"Jordan Rodriguez","year":2026,"position":"S","stars":3,"rating_247":87.0,"committed_to":"Boston College","lat":40.7281575,"lng":-74.0776417,"hometown_city":"Jersey City","hometown_state":"NJ"},{"name":"Cameron Dwyer","year":2026,"position":"S","stars":3,"rating_247":86.0,"committed_to":"West Virginia","lat":26.715364,"lng":-80.0532942,"hometown_city":"West Palm Beach","hometown_state":"FL"},{"name":"Gabe Davis-Ray","year":2026,"position":"S","stars":3,"rating_247":86.0,"committed_to":"Northwestern","lat":39.9622601,"lng":-83.0007065,"hometown_city":"Columbus","hometown_state":"OH"},{"name":"Jax Pope","year":2026,"position":"S","stars":3,"rating_247":85.0,"committed_to":"Coastal Carolina","lat":34.1206564,"lng":-84.0043513,"hometown_city":"Buford","hometown_state":"GA"},{"name":"Jase Rhodes","year":2026,"position":"S","stars":3,"rating_247":85.0,"committed_to":"James Madison","lat":37.270973,"lng":-79.9414313,"hometown_city":"Roanoke","hometown_state":"VA"},{"name":"Jaleel Parker","year":2026,"position":"S","stars":3,"rating_247":84.0,"committed_to":"Liberty","lat":35.0525759,"lng":-78.878292,"hometown_city":"Fayetteville","hometown_state":"NC"},{"name":"Kyle Bynes","year":2026,"position":"S","stars":3,"rating_247":84.0,"committed_to":"James Madison","lat":35.2272,"lng":-80.843083,"hometown_city":"Charlotte","hometown_state":"NC"},{"name":"Jeremiah Deese","year":2026,"position":"S","stars":3,"rating_247":81.0,"committed_to":"Old Dominion","lat":36.1073575,"lng":-79.6586383,"hometown_city":"McLeansville","hometown_state":"NC"},{"name":"Daimir Hicks","year":2026,"position":"S","stars":null,"rating_247":80.0,"committed_to":"UAB","lat":32.6415,"lng":-83.4426,"hometown_city":"Springfield","hometown_state":"GA"},{"name":"Amori McNeil","year":2026,"position":"S","stars":null,"rating_247":null,"committed_to":"Monmouth","lat":40.1907,"lng":-74.6728,"hometown_city":"Jersey City","hometown_state":"NJ"},{"name":"Asharri Charles","year":2026,"position":"ATH","stars":4,"rating_247":95.0,"committed_to":"Miami","lat":27.0999188,"lng":-82.4543597,"hometown_city":"Venice","hometown_state":"FL"},{"name":"Damon Ferguson","year":2026,"position":"ATH","stars":4,"rating_247":93.0,"committed_to":"Pittsburgh","lat":39.2908816,"lng":-76.610759,"hometown_city":"Baltimore","hometown_state":"MD"},{"name":"Sequel Patterson","year":2026,"position":"ATH","stars":4,"rating_247":91.0,"committed_to":"South Carolina","lat":35.0073697,"lng":-80.9450759,"hometown_city":"Fort Mill","hometown_state":"SC"},{"name":"Amare' Gough","year":2026,"position":"ATH","stars":null,"rating_247":90.0,"committed_to":"Syracuse","lat":37.5215,"lng":-78.8537,"hometown_city":"Richmond","hometown_state":"VA"},{"name":"Brayden Reilly","year":2026,"position":"ATH","stars":4,"rating_247":90.0,"committed_to":"Clemson","lat":39.1014537,"lng":-84.5124602,"hometown_city":"Cincinnati","hometown_state":"OH"},{"name":"Javonte Williams","year":2026,"position":"ATH","stars":3,"rating_247":89.0,"committed_to":"Maryland","lat":39.1731621,"lng":-77.2716502,"hometown_city":"Germantown","hometown_state":"MD"},{"name":"Zaiden McDonald","year":2026,"position":"ATH","stars":3,"rating_247":88.0,"committed_to":"Stanford","lat":40.735657,"lng":-74.1723667,"hometown_city":"Newark","hometown_state":"NJ"},{"name":"Amari Sabb","year":2026,"position":"ATH","stars":3,"rating_247":87.0,"committed_to":"Alabama","lat":39.7027677,"lng":-75.1119434,"hometown_city":"Glassboro","hometown_state":"NJ"},{"name":"Steve Klein","year":2026,"position":"ATH","stars":3,"rating_247":87.0,"committed_to":"Boston College","lat":40.9912087,"lng":-74.0326395,"hometown_city":"Westwood","hometown_state":"NJ"},{"name":"Xavier Butler","year":2026,"position":"ATH","stars":3,"rating_247":87.0,"committed_to":"Georgia State","lat":33.7123305,"lng":-84.1051939,"hometown_city":"Lithonia","hometown_state":"GA"},{"name":"Cam Hairston-Taylor","year":2026,"position":"ATH","stars":null,"rating_247":87.0,"committed_to":"Syracuse","lat":37.5215,"lng":-78.8537,"hometown_city":"Roanoke","hometown_state":"VA"},{"name":"David Coleman Jr.","year":2026,"position":"ATH","stars":3,"rating_247":86.0,"committed_to":"East Carolina","lat":30.7999563,"lng":-81.6898261,"hometown_city":"Kingsland","hometown_state":"GA"},{"name":"Arthur Lewis IV","year":2026,"position":"ATH","stars":3,"rating_247":86.0,"committed_to":"UCF","lat":30.3321838,"lng":-81.655651,"hometown_city":"Jacksonville","hometown_state":"FL"},{"name":"Dkwan Thomas","year":2026,"position":"ATH","stars":3,"rating_247":86.0,"committed_to":"James Madison","lat":38.8576128,"lng":-76.8894171,"hometown_city":"District Heights","hometown_state":"MD"},{"name":"Markel Dabney","year":2026,"position":"ATH","stars":3,"rating_247":86.0,"committed_to":"Michigan","lat":37.5385087,"lng":-77.43428,"hometown_city":"Richmond","hometown_state":"VA"},{"name":"LJ Porter","year":2026,"position":"ATH","stars":null,"rating_247":85.0,"committed_to":"East Carolina","lat":35.5557,"lng":-79.3877,"hometown_city":"Cornelius","hometown_state":"NC"},{"name":"Dallas Brannon","year":2026,"position":"ATH","stars":3,"rating_247":85.0,"committed_to":"Virginia","lat":35.2272,"lng":-80.843083,"hometown_city":"Charlotte","hometown_state":"NC"},{"name":"Mason Love","year":2026,"position":"ATH","stars":3,"rating_247":85.0,"committed_to":"Howard","lat":37.5385087,"lng":-77.43428,"hometown_city":"Richmond","hometown_state":"VA"},{"name":"Adam Kirtley","year":2026,"position":"ATH","stars":3,"rating_247":84.0,"committed_to":"Cincinnati","lat":39.1014537,"lng":-84.5124602,"hometown_city":"Cincinnati","hometown_state":"OH"},{"name":"Dylan Abram","year":2026,"position":"ATH","stars":3,"rating_247":84.0,"committed_to":"Temple","lat":39.9527237,"lng":-75.1635262,"hometown_city":"Philadelphia","hometown_state":"PA"},{"name":"David Moore Jr.","year":2026,"position":"ATH","stars":3,"rating_247":84.0,"committed_to":"Massachusetts","lat":40.7987113,"lng":-74.2390353,"hometown_city":"West Orange","hometown_state":"NJ"},{"name":"Jordin Price","year":2026,"position":"ATH","stars":3,"rating_247":83.0,"committed_to":"UAB","lat":30.1654707,"lng":-81.7016346,"hometown_city":"Orange Park","hometown_state":"FL"},{"name":"CJ Jackson III","year":2026,"position":"ATH","stars":3,"rating_247":83.0,"committed_to":"Old Dominion","lat":36.8529841,"lng":-75.9774183,"hometown_city":"Virginia Beach","hometown_state":"VA"},{"name":"Tre'Von Pringle","year":2026,"position":"ATH","stars":null,"rating_247":82.0,"committed_to":"Jacksonville State","lat":32.6415,"lng":-83.4426,"hometown_city":"Thomasville","hometown_state":"GA"},{"name":"Jahvon Wiggins","year":2026,"position":"ATH","stars":null,"rating_247":null,"committed_to":"William & Mary","lat":37.5215,"lng":-78.8537,"hometown_city":"Norfolk","hometown_state":"VA"},{"name":"Clinton Lee","year":2026,"position":"ATH","stars":null,"rating_247":null,"committed_to":"Navy","lat":39.055,"lng":-76.7909,"hometown_city":"Middletown","hometown_state":"MD"}],"2027":[{"name":"Elijah Haven","year":2027,"position":"QB","stars":null,"rating_247":98.0,"committed_to":"Alabama","lat":31.0689,"lng":-91.9968,"hometown_city":"Baton Rouge","hometown_state":"LA"},{"name":"Wonderful Monds IV","year":2027,"position":"QB","stars":null,"rating_247":88.0,"committed_to":"Notre Dame","lat":28.6305,"lng":-82.4497,"hometown_city":"Vero Beach","hometown_state":"FL"},{"name":"Trent Buttles","year":2027,"position":"QB","stars":null,"rating_247":87.0,"committed_to":"Rutgers","lat":42.9538,"lng":-75.5268,"hometown_city":"Hamburg","hometown_state":"NY"},{"name":"Cain Price","year":2027,"position":"QB","stars":null,"rating_247":86.0,"committed_to":"Texas State","lat":34.8938,"lng":-92.4426,"hometown_city":"Stuttgart","hometown_state":"AR"},{"name":"Lonnie Andrews III","year":2027,"position":"QB","stars":null,"rating_247":86.0,"committed_to":"Virginia","lat":37.5215,"lng":-78.8537,"hometown_city":"Chesapeake","hometown_state":"VA"},{"name":"Ethan Royal","year":2027,"position":"QB","stars":null,"rating_247":86.0,"committed_to":null,"lat":35.5557,"lng":-79.3877,"hometown_city":"Cornelius","hometown_state":"NC"},{"name":"Matthew Baer","year":2027,"position":"QB","stars":null,"rating_247":84.0,"committed_to":"James Madison","lat":41.6219,"lng":-72.7273,"hometown_city":"Avon","hometown_state":"CT"},{"name":"Terrance Lewis Jr.","year":2027,"position":"QB","stars":null,"rating_247":null,"committed_to":"Georgia Southern","lat":28.6305,"lng":-82.4497,"hometown_city":"Ocala","hometown_state":"FL"},{"name":"Da'Jon Talley-Rhodes","year":2027,"position":"RB","stars":null,"rating_247":89.0,"committed_to":"Indiana","lat":38.9101,"lng":-77.0147,"hometown_city":"Washington","hometown_state":"DC"},{"name":"Chukwuma Odoh","year":2027,"position":"RB","stars":null,"rating_247":88.0,"committed_to":"Penn State","lat":40.1907,"lng":-74.6728,"hometown_city":"Paramus","hometown_state":"NJ"},{"name":"Lawrence Hewlett","year":2027,"position":"RB","stars":null,"rating_247":88.0,"committed_to":null,"lat":37.5215,"lng":-78.8537,"hometown_city":"Prince George","hometown_state":"VA"},{"name":"Justice Hardy","year":2027,"position":"RB","stars":null,"rating_247":87.0,"committed_to":"Louisville","lat":40.8781,"lng":-77.7996,"hometown_city":"Reading","hometown_state":"PA"},{"name":"Trenton Lynch","year":2027,"position":"RB","stars":null,"rating_247":86.0,"committed_to":"Rutgers","lat":33.9169,"lng":-80.8964,"hometown_city":"Spartanburg","hometown_state":"SC"},{"name":"Caleb Mattison","year":2027,"position":"RB","stars":null,"rating_247":86.0,"committed_to":null,"lat":28.6305,"lng":-82.4497,"hometown_city":"Jacksonville","hometown_state":"FL"},{"name":"Jayven Williams","year":2027,"position":"RB","stars":null,"rating_247":85.0,"committed_to":null,"lat":33.9169,"lng":-80.8964,"hometown_city":"Summerville","hometown_state":"SC"},{"name":"Tayshawn Branche","year":2027,"position":"RB","stars":null,"rating_247":null,"committed_to":null,"lat":37.5215,"lng":-78.8537,"hometown_city":"Norfolk","hometown_state":"VA"},{"name":"Roman Coney","year":2027,"position":"RB","stars":null,"rating_247":null,"committed_to":null,"lat":40.1907,"lng":-74.6728,"hometown_city":"Richland","hometown_state":"NJ"},{"name":"Amare Patterson","year":2027,"position":"WR","stars":null,"rating_247":90.0,"committed_to":null,"lat":33.9169,"lng":-80.8964,"hometown_city":"Bluffton","hometown_state":"SC"},{"name":"Bennett Konkey","year":2027,"position":"WR","stars":null,"rating_247":90.0,"committed_to":null,"lat":40.0417,"lng":-89.1965,"hometown_city":"Geneva","hometown_state":"IL"},{"name":"Matthew Gregory","year":2027,"position":"WR","stars":null,"rating_247":90.0,"committed_to":null,"lat":40.8781,"lng":-77.7996,"hometown_city":"Pottstown","hometown_state":"PA"},{"name":"Javien Robinson","year":2027,"position":"WR","stars":null,"rating_247":90.0,"committed_to":"South Carolina","lat":40.8781,"lng":-77.7996,"hometown_city":"McKeesport","hometown_state":"PA"},{"name":"Chuck Alexander","year":2027,"position":"WR","stars":null,"rating_247":89.0,"committed_to":"Louisville","lat":40.2862,"lng":-82.7937,"hometown_city":"Cincinnati","hometown_state":"OH"},{"name":"Iveon Lewis","year":2027,"position":"WR","stars":null,"rating_247":89.0,"committed_to":"Kentucky","lat":37.5215,"lng":-78.8537,"hometown_city":"Richmond","hometown_state":"VA"},{"name":"Jaiden Kelly-Murray","year":2027,"position":"WR","stars":null,"rating_247":89.0,"committed_to":"Colorado","lat":33.9169,"lng":-80.8964,"hometown_city":"Mount Pleasant","hometown_state":"SC"},{"name":"Carlos Ferguson","year":2027,"position":"WR","stars":null,"rating_247":89.0,"committed_to":"Minnesota","lat":39.055,"lng":-76.7909,"hometown_city":"Owings Mills","hometown_state":"MD"},{"name":"Jamar Taylor","year":2027,"position":"WR","stars":null,"rating_247":89.0,"committed_to":"Rutgers","lat":38.9896,"lng":-75.505,"hometown_city":"Wilmington","hometown_state":"DE"},{"name":"Arnold Mugerwa","year":2027,"position":"WR","stars":null,"rating_247":89.0,"committed_to":"Rutgers","lat":40.8781,"lng":-77.7996,"hometown_city":"Johnstown","hometown_state":"PA"},{"name":"Majay Thompson","year":2027,"position":"WR","stars":null,"rating_247":88.0,"committed_to":null,"lat":35.5557,"lng":-79.3877,"hometown_city":"Shelby","hometown_state":"NC"},{"name":"Sheldon Isaac","year":2027,"position":"WR","stars":null,"rating_247":88.0,"committed_to":null,"lat":32.7364,"lng":-89.6678,"hometown_city":"McComb","hometown_state":"MS"},{"name":"James Branch","year":2027,"position":"WR","stars":null,"rating_247":88.0,"committed_to":null,"lat":39.055,"lng":-76.7909,"hometown_city":"Baltimore","hometown_state":"MD"},{"name":"Anthony Roberts","year":2027,"position":"WR","stars":null,"rating_247":88.0,"committed_to":"Virginia Tech","lat":35.5557,"lng":-79.3877,"hometown_city":"Rolesville","hometown_state":"NC"},{"name":"Isaiah Alvarez","year":2027,"position":"WR","stars":null,"rating_247":88.0,"committed_to":null,"lat":40.1907,"lng":-74.6728,"hometown_city":"Ramsey","hometown_state":"NJ"},{"name":"Brody Knowles","year":2027,"position":"WR","stars":null,"rating_247":87.0,"committed_to":null,"lat":31.4757,"lng":-99.3312,"hometown_city":"Southlake","hometown_state":"TX"},{"name":"Maleek Miller","year":2027,"position":"WR","stars":null,"rating_247":87.0,"committed_to":null,"lat":33.9169,"lng":-80.8964,"hometown_city":"Irmo","hometown_state":"SC"},{"name":"Donte Dent Jr.","year":2027,"position":"WR","stars":null,"rating_247":87.0,"committed_to":"James Madison","lat":37.5215,"lng":-78.8537,"hometown_city":"Chesapeake","hometown_state":"VA"},{"name":"Brien Walker","year":2027,"position":"WR","stars":null,"rating_247":87.0,"committed_to":null,"lat":42.9538,"lng":-75.5268,"hometown_city":"Rochester","hometown_state":"NY"},{"name":"Jordan Burns","year":2027,"position":"WR","stars":null,"rating_247":87.0,"committed_to":null,"lat":37.5215,"lng":-78.8537,"hometown_city":"Lynchburg","hometown_state":"VA"},{"name":"Braelan Lang","year":2027,"position":"WR","stars":null,"rating_247":86.0,"committed_to":null,"lat":32.6415,"lng":-83.4426,"hometown_city":"Conyers","hometown_state":"GA"},{"name":"Malik Ratliff","year":2027,"position":"WR","stars":null,"rating_247":86.0,"committed_to":null,"lat":33.9169,"lng":-80.8964,"hometown_city":"Rock Hill","hometown_state":"SC"},{"name":"Camden Simmons","year":2027,"position":"WR","stars":null,"rating_247":86.0,"committed_to":"James Madison","lat":37.5215,"lng":-78.8537,"hometown_city":"Springfield","hometown_state":"VA"},{"name":"Anthony Henderson","year":2027,"position":"WR","stars":null,"rating_247":86.0,"committed_to":"Maryland","lat":37.5215,"lng":-78.8537,"hometown_city":"Suffolk","hometown_state":"VA"},{"name":"Jailyn Moore","year":2027,"position":"WR","stars":null,"rating_247":86.0,"committed_to":null,"lat":35.5557,"lng":-79.3877,"hometown_city":"Clemmons","hometown_state":"NC"},{"name":"Eisa Nealy","year":2027,"position":"WR","stars":null,"rating_247":86.0,"committed_to":"James Madison","lat":40.8781,"lng":-77.7996,"hometown_city":"Philadelphia","hometown_state":"PA"},{"name":"Eli Ferguson","year":2027,"position":"WR","stars":null,"rating_247":86.0,"committed_to":null,"lat":35.858,"lng":-86.3505,"hometown_city":"Brentwood","hometown_state":"TN"},{"name":"Austin Busso","year":2027,"position":"WR","stars":null,"rating_247":86.0,"committed_to":"South Florida","lat":40.1907,"lng":-74.6728,"hometown_city":"Oradell","hometown_state":"NJ"},{"name":"Dae'Sean Graves","year":2027,"position":"WR","stars":null,"rating_247":86.0,"committed_to":"Connecticut","lat":41.6219,"lng":-72.7273,"hometown_city":"Waterbury","hometown_state":"CT"},{"name":"Aaron Smith","year":2027,"position":"WR","stars":null,"rating_247":86.0,"committed_to":"Wake Forest","lat":37.5215,"lng":-78.8537,"hometown_city":"Virginia Beach","hometown_state":"VA"},{"name":"Landon Hicks","year":2027,"position":"WR","stars":null,"rating_247":85.0,"committed_to":"Virginia","lat":37.5215,"lng":-78.8537,"hometown_city":"Richmond","hometown_state":"VA"},{"name":"Trayvis Hunter","year":2027,"position":"WR","stars":null,"rating_247":84.0,"committed_to":null,"lat":32.6415,"lng":-83.4426,"hometown_city":"Springfield","hometown_state":"GA"},{"name":"Kaiden Drinkwater","year":2027,"position":"WR","stars":null,"rating_247":84.0,"committed_to":"Holy Cross","lat":42.2596,"lng":-71.8083,"hometown_city":"Marion","hometown_state":"MA"},{"name":"Jayden Cawthon","year":2027,"position":"WR","stars":null,"rating_247":null,"committed_to":null,"lat":40.0417,"lng":-89.1965,"hometown_city":"Plainfield","hometown_state":"IL"},{"name":"John Johnson","year":2027,"position":"WR","stars":null,"rating_247":null,"committed_to":"Bowling Green","lat":40.2862,"lng":-82.7937,"hometown_city":"Akron","hometown_state":"OH"},{"name":"Jaerron Johnson","year":2027,"position":"WR","stars":null,"rating_247":null,"committed_to":null,"lat":37.5215,"lng":-78.8537,"hometown_city":"Richmond","hometown_state":"VA"},{"name":"Xavier Brown","year":2027,"position":"WR","stars":null,"rating_247":null,"committed_to":null,"lat":39.055,"lng":-76.7909,"hometown_city":"Forestville","hometown_state":"MD"},{"name":"Zakai Murphy","year":2027,"position":"WR","stars":null,"rating_247":null,"committed_to":null,"lat":40.1907,"lng":-74.6728,"hometown_city":"Ramsey","hometown_state":"NJ"},{"name":"Ethan Singletary","year":2027,"position":"WR","stars":null,"rating_247":null,"committed_to":null,"lat":33.9169,"lng":-80.8964,"hometown_city":"Columbia","hometown_state":"SC"},{"name":"Kadin Vassel","year":2027,"position":"WR","stars":null,"rating_247":null,"committed_to":null,"lat":33.9169,"lng":-80.8964,"hometown_city":"Rock Hill","hometown_state":"SC"},{"name":"Jackson Ballinger","year":2027,"position":"TE","stars":null,"rating_247":89.0,"committed_to":"Florida","lat":40.2862,"lng":-82.7937,"hometown_city":"Centerburg","hometown_state":"OH"},{"name":"Joey Hunter","year":2027,"position":"TE","stars":null,"rating_247":87.0,"committed_to":"Nebraska","lat":32.6415,"lng":-83.4426,"hometown_city":"Loganville","hometown_state":"GA"},{"name":"Charlie Fowler","year":2027,"position":"TE","stars":null,"rating_247":87.0,"committed_to":"Boston College","lat":40.0417,"lng":-89.1965,"hometown_city":"Wilmette","hometown_state":"IL"},{"name":"Phoenix Barnes","year":2027,"position":"TE","stars":null,"rating_247":null,"committed_to":null,"lat":35.5557,"lng":-79.3877,"hometown_city":"Fayetteville","hometown_state":"NC"},{"name":"Michael Glover","year":2027,"position":"TE","stars":null,"rating_247":null,"committed_to":null,"lat":40.8781,"lng":-77.7996,"hometown_city":"Reading","hometown_state":"PA"},{"name":"Owen Matela","year":2027,"position":"TE","stars":null,"rating_247":null,"committed_to":"Miami (OH)","lat":40.0417,"lng":-89.1965,"hometown_city":"La Grange","hometown_state":"IL"},{"name":"Hayes Brawner","year":2027,"position":"TE","stars":null,"rating_247":null,"committed_to":"James Madison","lat":35.5557,"lng":-79.3877,"hometown_city":"Raleigh","hometown_state":"NC"},{"name":"Dominic Black","year":2027,"position":"OT","stars":null,"rating_247":91.0,"committed_to":"Kentucky","lat":40.2862,"lng":-82.7937,"hometown_city":"New Madison","hometown_state":"OH"},{"name":"Dylan Latell","year":2027,"position":"OT","stars":null,"rating_247":91.0,"committed_to":"Virginia Tech","lat":40.2862,"lng":-82.7937,"hometown_city":"Girard","hometown_state":"OH"},{"name":"Elijah Hutcheson","year":2027,"position":"OT","stars":null,"rating_247":91.0,"committed_to":"Florida","lat":37.5215,"lng":-78.8537,"hometown_city":"Roanoke","hometown_state":"VA"},{"name":"Kal-El Johnson","year":2027,"position":"OT","stars":null,"rating_247":90.0,"committed_to":null,"lat":40.2862,"lng":-82.7937,"hometown_city":"Cincinnati","hometown_state":"OH"},{"name":"Q'Mari Hudson","year":2027,"position":"OT","stars":null,"rating_247":89.0,"committed_to":null,"lat":37.5215,"lng":-78.8537,"hometown_city":"Chesapeake","hometown_state":"VA"},{"name":"Reed Gerken","year":2027,"position":"OT","stars":null,"rating_247":88.0,"committed_to":"Kentucky","lat":40.2862,"lng":-82.7937,"hometown_city":"Perrysburg","hometown_state":"OH"},{"name":"Abram Eisenhower","year":2027,"position":"OT","stars":null,"rating_247":88.0,"committed_to":"Georgia","lat":32.6415,"lng":-83.4426,"hometown_city":"Valdosta","hometown_state":"GA"},{"name":"Gavin Milton","year":2027,"position":"OT","stars":null,"rating_247":88.0,"committed_to":"Duke","lat":35.5557,"lng":-79.3877,"hometown_city":"Greensboro","hometown_state":"NC"},{"name":"Ryan Robbins","year":2027,"position":"OT","stars":null,"rating_247":88.0,"committed_to":"Penn State","lat":40.8781,"lng":-77.7996,"hometown_city":"Upper St. Clair","hometown_state":"PA"},{"name":"Patrick O'Brien","year":2027,"position":"OT","stars":null,"rating_247":87.0,"committed_to":"Purdue","lat":40.2862,"lng":-82.7937,"hometown_city":"Cincinnati","hometown_state":"OH"},{"name":"Luke Wilson","year":2027,"position":"OT","stars":null,"rating_247":87.0,"committed_to":"Oklahoma","lat":31.4757,"lng":-99.3312,"hometown_city":"Southlake","hometown_state":"TX"},{"name":"Tyler Graham","year":2027,"position":"OT","stars":null,"rating_247":87.0,"committed_to":"Duke","lat":40.8781,"lng":-77.7996,"hometown_city":"Malvern","hometown_state":"PA"},{"name":"Jamail Sewell","year":2027,"position":"OT","stars":null,"rating_247":86.0,"committed_to":"Minnesota","lat":44.6243,"lng":-89.9941,"hometown_city":"Milwaukee","hometown_state":"WI"},{"name":"Moreno Fisher","year":2027,"position":"OT","stars":null,"rating_247":86.0,"committed_to":"Virginia","lat":35.5557,"lng":-79.3877,"hometown_city":"Cornelius","hometown_state":"NC"},{"name":"Kendon Bauer","year":2027,"position":"OT","stars":null,"rating_247":null,"committed_to":null,"lat":39.055,"lng":-76.7909,"hometown_city":"Frederick","hometown_state":"MD"},{"name":"AJ Southard","year":2027,"position":"OT","stars":null,"rating_247":null,"committed_to":"Rutgers","lat":37.5215,"lng":-78.8537,"hometown_city":"Springfield","hometown_state":"VA"},{"name":"Tyler Maddock","year":2027,"position":"OT","stars":null,"rating_247":null,"committed_to":"James Madison","lat":37.5215,"lng":-78.8537,"hometown_city":"Yorktown","hometown_state":"VA"},{"name":"Calvin Brooks","year":2027,"position":"OT","stars":null,"rating_247":null,"committed_to":null,"lat":33.9169,"lng":-80.8964,"hometown_city":"Gaffney","hometown_state":"SC"},{"name":"Andrew Davalla","year":2027,"position":"OT","stars":null,"rating_247":null,"committed_to":null,"lat":40.2862,"lng":-82.7937,"hometown_city":"Cleveland","hometown_state":"OH"},{"name":"Aden Norris","year":2027,"position":"OT","stars":null,"rating_247":null,"committed_to":"Connecticut","lat":40.2862,"lng":-82.7937,"hometown_city":"Louisville","hometown_state":"OH"},{"name":"AJ Coleman","year":2027,"position":"OT","stars":null,"rating_247":null,"committed_to":null,"lat":40.0417,"lng":-89.1965,"hometown_city":"Sterling","hometown_state":"IL"},{"name":"Josiah Guiro-Scretching","year":2027,"position":"OT","stars":null,"rating_247":null,"committed_to":"James Madison","lat":38.9896,"lng":-75.505,"hometown_city":"Middletown","hometown_state":"DE"},{"name":"Owen Reilly","year":2027,"position":"IOL","stars":null,"rating_247":88.0,"committed_to":"Penn State","lat":39.055,"lng":-76.7909,"hometown_city":"Bel Air","hometown_state":"MD"},{"name":"Kenny Fairley","year":2027,"position":"IOL","stars":null,"rating_247":87.0,"committed_to":"Colorado","lat":32.6415,"lng":-83.4426,"hometown_city":"Fairburn","hometown_state":"GA"},{"name":"Jaiden Lindsay","year":2027,"position":"IOL","stars":null,"rating_247":86.0,"committed_to":"Colorado","lat":39.055,"lng":-76.7909,"hometown_city":"Olney","hometown_state":"MD"},{"name":"Charles Butler","year":2027,"position":"IOL","stars":null,"rating_247":86.0,"committed_to":"Rutgers","lat":40.8781,"lng":-77.7996,"hometown_city":"Pittsburgh","hometown_state":"PA"},{"name":"Alijah Jones","year":2027,"position":"IOL","stars":null,"rating_247":85.0,"committed_to":"Rutgers","lat":42.9538,"lng":-75.5268,"hometown_city":"Rochester","hometown_state":"NY"},{"name":"Greg Thomas II","year":2027,"position":"IOL","stars":null,"rating_247":85.0,"committed_to":null,"lat":40.1907,"lng":-74.6728,"hometown_city":"Princeton","hometown_state":"NJ"},{"name":"Nori White","year":2027,"position":"IOL","stars":null,"rating_247":85.0,"committed_to":null,"lat":35.5557,"lng":-79.3877,"hometown_city":"Cornelius","hometown_state":"NC"},{"name":"Chase Clark","year":2027,"position":"IOL","stars":null,"rating_247":85.0,"committed_to":"Oklahoma State","lat":40.0417,"lng":-89.1965,"hometown_city":"Chicago","hometown_state":"IL"},{"name":"Jared Taylor","year":2027,"position":"IOL","stars":null,"rating_247":null,"committed_to":null,"lat":39.055,"lng":-76.7909,"hometown_city":"Hyattsville","hometown_state":"MD"},{"name":"Bryce Johnson","year":2027,"position":"IOL","stars":null,"rating_247":null,"committed_to":null,"lat":35.5557,"lng":-79.3877,"hometown_city":"Matthews","hometown_state":"NC"},{"name":"Reed Paolucci","year":2027,"position":"IOL","stars":null,"rating_247":null,"committed_to":null,"lat":33.9169,"lng":-80.8964,"hometown_city":"Blythewood","hometown_state":"SC"},{"name":"McCoy Richardson","year":2027,"position":"IOL","stars":null,"rating_247":null,"committed_to":null,"lat":42.2596,"lng":-71.8083,"hometown_city":"Springfield","hometown_state":"MA"},{"name":"Chandler Moore","year":2027,"position":"IOL","stars":null,"rating_247":null,"committed_to":"Miami (OH)","lat":40.2862,"lng":-82.7937,"hometown_city":"Dayton","hometown_state":"OH"},{"name":"Abraham Sesay","year":2027,"position":"Edge","stars":null,"rating_247":98.0,"committed_to":null,"lat":40.8781,"lng":-77.7996,"hometown_city":"Exton","hometown_state":"PA"},{"name":"Chris Whitehead","year":2027,"position":"Edge","stars":null,"rating_247":94.0,"committed_to":null,"lat":37.5215,"lng":-78.8537,"hometown_city":"Chesterfield","hometown_state":"VA"},{"name":"King Kalama","year":2027,"position":"Edge","stars":null,"rating_247":89.0,"committed_to":"Duke","lat":35.5557,"lng":-79.3877,"hometown_city":"Pfafftown","hometown_state":"NC"},{"name":"Jayden Broadie","year":2027,"position":"Edge","stars":null,"rating_247":89.0,"committed_to":null,"lat":35.5557,"lng":-79.3877,"hometown_city":"Rolesville","hometown_state":"NC"},{"name":"Chaz Gray","year":2027,"position":"Edge","stars":null,"rating_247":89.0,"committed_to":"Washington","lat":40.1907,"lng":-74.6728,"hometown_city":"Montvale","hometown_state":"NJ"},{"name":"Andrew Rogers","year":2027,"position":"Edge","stars":null,"rating_247":89.0,"committed_to":null,"lat":35.5557,"lng":-79.3877,"hometown_city":"Greensboro","hometown_state":"NC"},{"name":"Adekunbi Adetayo","year":2027,"position":"Edge","stars":null,"rating_247":89.0,"committed_to":null,"lat":40.1907,"lng":-74.6728,"hometown_city":"Newark","hometown_state":"NJ"},{"name":"Rion Jackson","year":2027,"position":"Edge","stars":null,"rating_247":88.0,"committed_to":"Auburn","lat":39.055,"lng":-76.7909,"hometown_city":"Annapolis","hometown_state":"MD"},{"name":"Josiah Sturdivant","year":2027,"position":"Edge","stars":null,"rating_247":88.0,"committed_to":"Rutgers","lat":35.5557,"lng":-79.3877,"hometown_city":"Wake Forest","hometown_state":"NC"},{"name":"Roy Price","year":2027,"position":"Edge","stars":null,"rating_247":87.0,"committed_to":"Minnesota","lat":40.2862,"lng":-82.7937,"hometown_city":"Newark","hometown_state":"OH"},{"name":"Esa Wittingburg","year":2027,"position":"Edge","stars":null,"rating_247":87.0,"committed_to":null,"lat":40.1907,"lng":-74.6728,"hometown_city":"East Orange","hometown_state":"NJ"},{"name":"Dominic Letlow","year":2027,"position":"Edge","stars":null,"rating_247":87.0,"committed_to":"Pittsburgh","lat":40.2862,"lng":-82.7937,"hometown_city":"Youngstown","hometown_state":"OH"},{"name":"Cam Aime","year":2027,"position":"Edge","stars":null,"rating_247":87.0,"committed_to":"Pittsburgh","lat":40.1907,"lng":-74.6728,"hometown_city":"Montvale","hometown_state":"NJ"},{"name":"Hans Emery Julien","year":2027,"position":"Edge","stars":null,"rating_247":86.0,"committed_to":null,"lat":35.858,"lng":-86.3505,"hometown_city":"Chattanooga","hometown_state":"TN"},{"name":"Lamier Wade","year":2027,"position":"Edge","stars":null,"rating_247":86.0,"committed_to":"Connecticut","lat":40.8781,"lng":-77.7996,"hometown_city":"Pittsburgh","hometown_state":"PA"},{"name":"Austin Wright","year":2027,"position":"Edge","stars":null,"rating_247":null,"committed_to":"Eastern Michigan","lat":40.8781,"lng":-77.7996,"hometown_city":"Philadelphia","hometown_state":"PA"},{"name":"Sammy Dantonka","year":2027,"position":"Edge","stars":null,"rating_247":null,"committed_to":null,"lat":40.8781,"lng":-77.7996,"hometown_city":"Springfield","hometown_state":"PA"},{"name":"Dallas Ward","year":2027,"position":"Edge","stars":null,"rating_247":null,"committed_to":null,"lat":32.6415,"lng":-83.4426,"hometown_city":"Peachtree City","hometown_state":"GA"},{"name":"Damion King","year":2027,"position":"Edge","stars":null,"rating_247":null,"committed_to":null,"lat":40.2862,"lng":-82.7937,"hometown_city":"Westerville","hometown_state":"OH"},{"name":"Xzavier Pfister","year":2027,"position":"Edge","stars":null,"rating_247":null,"committed_to":null,"lat":32.6415,"lng":-83.4426,"hometown_city":"Snellville","hometown_state":"GA"},{"name":"Andy Stedem","year":2027,"position":"Edge","stars":null,"rating_247":null,"committed_to":null,"lat":41.6219,"lng":-72.7273,"hometown_city":"Avon","hometown_state":"CT"},{"name":"Antwan Hollman","year":2027,"position":"Edge","stars":null,"rating_247":null,"committed_to":"Buffalo","lat":40.2862,"lng":-82.7937,"hometown_city":"Columbus","hometown_state":"OH"},{"name":"Stanley Montgomery","year":2027,"position":"DL","stars":null,"rating_247":94.0,"committed_to":"Penn State","lat":40.8781,"lng":-77.7996,"hometown_city":"Philadelphia","hometown_state":"PA"},{"name":"Reinaldo Perez","year":2027,"position":"DL","stars":null,"rating_247":89.0,"committed_to":"Indiana","lat":40.2862,"lng":-82.7937,"hometown_city":"Columbus","hometown_state":"OH"},{"name":"Kadin Fife","year":2027,"position":"DL","stars":null,"rating_247":89.0,"committed_to":"Tennessee","lat":32.6415,"lng":-83.4426,"hometown_city":"Summerville","hometown_state":"GA"},{"name":"Dennis Glenn Jr.","year":2027,"position":"DL","stars":null,"rating_247":89.0,"committed_to":"Rutgers","lat":33.9169,"lng":-80.8964,"hometown_city":"Boiling Springs","hometown_state":"SC"},{"name":"Raymond Hudson","year":2027,"position":"DL","stars":null,"rating_247":88.0,"committed_to":null,"lat":37.5215,"lng":-78.8537,"hometown_city":"Richmond","hometown_state":"VA"},{"name":"Sean Saint Fleur","year":2027,"position":"DL","stars":null,"rating_247":88.0,"committed_to":null,"lat":39.055,"lng":-76.7909,"hometown_city":"Hyattsville","hometown_state":"MD"},{"name":"Chris Hector","year":2027,"position":"DL","stars":null,"rating_247":88.0,"committed_to":null,"lat":32.6415,"lng":-83.4426,"hometown_city":"Decatur","hometown_state":"GA"},{"name":"Jayden Travers","year":2027,"position":"DL","stars":null,"rating_247":88.0,"committed_to":"Nebraska","lat":39.055,"lng":-76.7909,"hometown_city":"Baltimore","hometown_state":"MD"},{"name":"Peyton Bishop","year":2027,"position":"DL","stars":null,"rating_247":88.0,"committed_to":null,"lat":33.9169,"lng":-80.8964,"hometown_city":"Irmo","hometown_state":"SC"},{"name":"Wesley Gover","year":2027,"position":"DL","stars":null,"rating_247":88.0,"committed_to":"Purdue","lat":32.7794,"lng":-86.8287,"hometown_city":"Alabaster","hometown_state":"AL"},{"name":"Jaheim Bond","year":2027,"position":"DL","stars":null,"rating_247":88.0,"committed_to":"Pittsburgh","lat":39.055,"lng":-76.7909,"hometown_city":"Gaithersburg","hometown_state":"MD"},{"name":"Brock Frisby","year":2027,"position":"DL","stars":null,"rating_247":87.0,"committed_to":"Virginia Tech","lat":39.055,"lng":-76.7909,"hometown_city":"Severn","hometown_state":"MD"},{"name":"Jesiah Fields","year":2027,"position":"DL","stars":null,"rating_247":87.0,"committed_to":"Louisville","lat":35.5557,"lng":-79.3877,"hometown_city":"Charlotte","hometown_state":"NC"},{"name":"Xzaiver Whittington","year":2027,"position":"DL","stars":null,"rating_247":87.0,"committed_to":null,"lat":39.055,"lng":-76.7909,"hometown_city":"Aberdeen","hometown_state":"MD"},{"name":"Joshua Simmons","year":2027,"position":"DL","stars":null,"rating_247":87.0,"committed_to":null,"lat":42.9538,"lng":-75.5268,"hometown_city":"New Rochelle","hometown_state":"NY"},{"name":"DaJour Webb","year":2027,"position":"DL","stars":null,"rating_247":87.0,"committed_to":"West Virginia","lat":28.6305,"lng":-82.4497,"hometown_city":"Orlando","hometown_state":"FL"},{"name":"Zai'Vion Meads","year":2027,"position":"DL","stars":null,"rating_247":86.0,"committed_to":"West Virginia","lat":37.5347,"lng":-85.3021,"hometown_city":"Louisville","hometown_state":"KY"},{"name":"Josiah Ampofo","year":2027,"position":"DL","stars":null,"rating_247":86.0,"committed_to":null,"lat":38.9101,"lng":-77.0147,"hometown_city":"Washington","hometown_state":"DC"},{"name":"Amir Moore","year":2027,"position":"DL","stars":null,"rating_247":86.0,"committed_to":"North Carolina State","lat":35.5557,"lng":-79.3877,"hometown_city":"Harrells","hometown_state":"NC"},{"name":"Julius LaRosa III","year":2027,"position":"DL","stars":null,"rating_247":86.0,"committed_to":"North Carolina State","lat":28.6305,"lng":-82.4497,"hometown_city":"Jacksonville","hometown_state":"FL"},{"name":"Lorenzo Tartamella","year":2027,"position":"DL","stars":null,"rating_247":85.0,"committed_to":"Navy","lat":40.1907,"lng":-74.6728,"hometown_city":"Red Bank","hometown_state":"NJ"},{"name":"Michael Gibbs","year":2027,"position":"DL","stars":null,"rating_247":84.0,"committed_to":"James Madison","lat":37.5215,"lng":-78.8537,"hometown_city":"Richmond","hometown_state":"VA"},{"name":"Simeon Jones Jr.","year":2027,"position":"DL","stars":null,"rating_247":null,"committed_to":null,"lat":33.9169,"lng":-80.8964,"hometown_city":"North Augusta","hometown_state":"SC"},{"name":"Kavarris Duncan","year":2027,"position":"DL","stars":null,"rating_247":null,"committed_to":"Tulane","lat":32.7794,"lng":-86.8287,"hometown_city":"Alpine","hometown_state":"AL"},{"name":"Jacaryous Holzendorf","year":2027,"position":"DL","stars":null,"rating_247":null,"committed_to":"Charlotte","lat":28.6305,"lng":-82.4497,"hometown_city":"Orlando","hometown_state":"FL"},{"name":"Josiah McKee","year":2027,"position":"DL","stars":null,"rating_247":null,"committed_to":"Oregon State","lat":37.5347,"lng":-85.3021,"hometown_city":"Versailles","hometown_state":"KY"},{"name":"Aroson Randle Jr.","year":2027,"position":"LB","stars":null,"rating_247":94.0,"committed_to":"Miami","lat":35.5557,"lng":-79.3877,"hometown_city":"Garner","hometown_state":"NC"},{"name":"Mikahi Allen","year":2027,"position":"LB","stars":null,"rating_247":90.0,"committed_to":null,"lat":40.1907,"lng":-74.6728,"hometown_city":"Ramsey","hometown_state":"NJ"},{"name":"Tasheem Butler","year":2027,"position":"LB","stars":null,"rating_247":87.0,"committed_to":"North Carolina","lat":40.1907,"lng":-74.6728,"hometown_city":"Glassboro","hometown_state":"NJ"},{"name":"Wesley Flamer","year":2027,"position":"LB","stars":null,"rating_247":87.0,"committed_to":"West Virginia","lat":37.5215,"lng":-78.8537,"hometown_city":"Springfield","hometown_state":"VA"},{"name":"Michael Griffin Jr.","year":2027,"position":"LB","stars":null,"rating_247":86.0,"committed_to":null,"lat":35.5557,"lng":-79.3877,"hometown_city":"Cornelius","hometown_state":"NC"},{"name":"Minikon Johnson","year":2027,"position":"LB","stars":null,"rating_247":86.0,"committed_to":"Connecticut","lat":40.8781,"lng":-77.7996,"hometown_city":"Pittsburgh","hometown_state":"PA"},{"name":"Rick Brown","year":2027,"position":"LB","stars":null,"rating_247":86.0,"committed_to":"West Virginia","lat":40.8781,"lng":-77.7996,"hometown_city":"Harrisburg","hometown_state":"PA"},{"name":"Mamadee Sangaray","year":2027,"position":"LB","stars":null,"rating_247":86.0,"committed_to":"Boston College","lat":42.9538,"lng":-75.5268,"hometown_city":"New Rochelle","hometown_state":"NY"},{"name":"Olrick Johnson III","year":2027,"position":"LB","stars":null,"rating_247":86.0,"committed_to":null,"lat":32.6415,"lng":-83.4426,"hometown_city":"Kennesaw","hometown_state":"GA"},{"name":"Roman Thompson","year":2027,"position":"LB","stars":null,"rating_247":85.0,"committed_to":null,"lat":40.8781,"lng":-77.7996,"hometown_city":"Pittsburgh","hometown_state":"PA"},{"name":"Dylan Wafle","year":2027,"position":"LB","stars":null,"rating_247":85.0,"committed_to":null,"lat":41.6219,"lng":-72.7273,"hometown_city":"Avon","hometown_state":"CT"},{"name":"Praise Chane","year":2027,"position":"LB","stars":null,"rating_247":null,"committed_to":null,"lat":32.6415,"lng":-83.4426,"hometown_city":"Rabun Gap","hometown_state":"GA"},{"name":"Mekhi Corbin","year":2027,"position":"LB","stars":null,"rating_247":null,"committed_to":"Delaware","lat":38.9896,"lng":-75.505,"hometown_city":"Middletown","hometown_state":"DE"},{"name":"Baum Hogge","year":2027,"position":"LB","stars":null,"rating_247":null,"committed_to":"Old Dominion","lat":37.5215,"lng":-78.8537,"hometown_city":"Williamsburg","hometown_state":"VA"},{"name":"Monsanna Torbert Jr.","year":2027,"position":"CB","stars":null,"rating_247":93.0,"committed_to":null,"lat":40.2862,"lng":-82.7937,"hometown_city":"Cincinnati","hometown_state":"OH"},{"name":"Gabe Jenkins","year":2027,"position":"CB","stars":null,"rating_247":90.0,"committed_to":"Colorado","lat":40.8781,"lng":-77.7996,"hometown_city":"Pittsburgh","hometown_state":"PA"},{"name":"Austin Barrett","year":2027,"position":"CB","stars":null,"rating_247":89.0,"committed_to":"Virginia Tech","lat":40.1907,"lng":-74.6728,"hometown_city":"Paramus","hometown_state":"NJ"},{"name":"Emerson Lewis","year":2027,"position":"CB","stars":null,"rating_247":88.0,"committed_to":null,"lat":32.6415,"lng":-83.4426,"hometown_city":"Savannah","hometown_state":"GA"},{"name":"Akedran Crumel","year":2027,"position":"CB","stars":null,"rating_247":88.0,"committed_to":null,"lat":35.5557,"lng":-79.3877,"hometown_city":"Clayton","hometown_state":"NC"},{"name":"Taylor Daniels","year":2027,"position":"CB","stars":null,"rating_247":88.0,"committed_to":"Minnesota","lat":40.1907,"lng":-74.6728,"hometown_city":"West Orange","hometown_state":"NJ"},{"name":"Zachary Gleason Jr.","year":2027,"position":"CB","stars":null,"rating_247":88.0,"committed_to":"Penn State","lat":40.8781,"lng":-77.7996,"hometown_city":"Pittsburgh","hometown_state":"PA"},{"name":"Carl Jones Jr.","year":2027,"position":"CB","stars":null,"rating_247":87.0,"committed_to":null,"lat":28.6305,"lng":-82.4497,"hometown_city":"Tampa","hometown_state":"FL"},{"name":"Trey Hopkins","year":2027,"position":"CB","stars":null,"rating_247":87.0,"committed_to":"UCLA","lat":40.8781,"lng":-77.7996,"hometown_city":"Wyndmoor","hometown_state":"PA"},{"name":"Silas Nuckles","year":2027,"position":"CB","stars":null,"rating_247":87.0,"committed_to":null,"lat":32.6415,"lng":-83.4426,"hometown_city":"Buford","hometown_state":"GA"},{"name":"Elijah Burns-Crump","year":2027,"position":"CB","stars":null,"rating_247":87.0,"committed_to":"Duke","lat":37.5347,"lng":-85.3021,"hometown_city":"Louisville","hometown_state":"KY"},{"name":"Stanley Peters Jr.","year":2027,"position":"CB","stars":null,"rating_247":87.0,"committed_to":null,"lat":32.7364,"lng":-89.6678,"hometown_city":"Seminary","hometown_state":"MS"},{"name":"Brexton Bell","year":2027,"position":"CB","stars":null,"rating_247":86.0,"committed_to":null,"lat":32.6415,"lng":-83.4426,"hometown_city":"Savannah","hometown_state":"GA"},{"name":"Sa Rex","year":2027,"position":"CB","stars":null,"rating_247":86.0,"committed_to":null,"lat":37.5215,"lng":-78.8537,"hometown_city":"Richmond","hometown_state":"VA"},{"name":"Jacquari Parks","year":2027,"position":"CB","stars":null,"rating_247":86.0,"committed_to":null,"lat":28.6305,"lng":-82.4497,"hometown_city":"Jacksonville","hometown_state":"FL"},{"name":"Khalid Rainer","year":2027,"position":"CB","stars":null,"rating_247":86.0,"committed_to":null,"lat":37.5215,"lng":-78.8537,"hometown_city":"Richmond","hometown_state":"VA"},{"name":"Masiia Acrey","year":2027,"position":"CB","stars":null,"rating_247":86.0,"committed_to":"Syracuse","lat":40.8781,"lng":-77.7996,"hometown_city":"Philadelphia","hometown_state":"PA"},{"name":"Jett Watson","year":2027,"position":"CB","stars":null,"rating_247":86.0,"committed_to":"Boston College","lat":32.6415,"lng":-83.4426,"hometown_city":"Loganville","hometown_state":"GA"},{"name":"Kaiden Watkins","year":2027,"position":"CB","stars":null,"rating_247":86.0,"committed_to":null,"lat":33.9169,"lng":-80.8964,"hometown_city":"Rock Hill","hometown_state":"SC"},{"name":"Larry Morgan III","year":2027,"position":"CB","stars":null,"rating_247":86.0,"committed_to":"South Florida","lat":28.6305,"lng":-82.4497,"hometown_city":"Boca Raton","hometown_state":"FL"},{"name":"Rilee Drew","year":2027,"position":"CB","stars":null,"rating_247":85.0,"committed_to":"Wake Forest","lat":32.6415,"lng":-83.4426,"hometown_city":"Loganville","hometown_state":"GA"},{"name":"Dontrell Young","year":2027,"position":"CB","stars":null,"rating_247":85.0,"committed_to":"Iowa State","lat":40.0417,"lng":-89.1965,"hometown_city":"Oswego","hometown_state":"IL"},{"name":"Ramir Harris-Dupree","year":2027,"position":"CB","stars":null,"rating_247":null,"committed_to":null,"lat":35.5557,"lng":-79.3877,"hometown_city":"Greensboro","hometown_state":"NC"},{"name":"Tacori Allen","year":2027,"position":"CB","stars":null,"rating_247":null,"committed_to":"Florida International","lat":28.6305,"lng":-82.4497,"hometown_city":"Lake City","hometown_state":"FL"},{"name":"Ace Clements","year":2027,"position":"CB","stars":null,"rating_247":null,"committed_to":null,"lat":35.5557,"lng":-79.3877,"hometown_city":"Matthews","hometown_state":"NC"},{"name":"Brayden Oshode","year":2027,"position":"CB","stars":null,"rating_247":null,"committed_to":"James Madison","lat":37.5215,"lng":-78.8537,"hometown_city":"Aldie","hometown_state":"VA"},{"name":"Kenaz Sullivan","year":2027,"position":"S","stars":null,"rating_247":90.0,"committed_to":null,"lat":37.5215,"lng":-78.8537,"hometown_city":"Springfield","hometown_state":"VA"},{"name":"Seth Williams","year":2027,"position":"S","stars":null,"rating_247":90.0,"committed_to":null,"lat":32.6415,"lng":-83.4426,"hometown_city":"Atlanta","hometown_state":"GA"},{"name":"Knyair Crumb","year":2027,"position":"S","stars":null,"rating_247":88.0,"committed_to":null,"lat":39.055,"lng":-76.7909,"hometown_city":"Hyattsville","hometown_state":"MD"},{"name":"Rico Jackson","year":2027,"position":"S","stars":null,"rating_247":87.0,"committed_to":"Indiana","lat":39.055,"lng":-76.7909,"hometown_city":"Gaithersburg","hometown_state":"MD"},{"name":"Eltonino Hicks","year":2027,"position":"S","stars":null,"rating_247":86.0,"committed_to":"Connecticut","lat":37.5215,"lng":-78.8537,"hometown_city":"Springfield","hometown_state":"VA"},{"name":"Jordan Crider","year":2027,"position":"S","stars":null,"rating_247":86.0,"committed_to":"Iowa State","lat":40.2862,"lng":-82.7937,"hometown_city":"Middletown","hometown_state":"OH"},{"name":"Amari Oquendo","year":2027,"position":"S","stars":null,"rating_247":85.0,"committed_to":"Florida International","lat":28.6305,"lng":-82.4497,"hometown_city":"Melbourne","hometown_state":"FL"},{"name":"Ty'ire Clark","year":2027,"position":"S","stars":null,"rating_247":85.0,"committed_to":"Michigan State","lat":40.1907,"lng":-74.6728,"hometown_city":"Jersey City","hometown_state":"NJ"},{"name":"Evander Davis","year":2027,"position":"S","stars":null,"rating_247":null,"committed_to":"James Madison","lat":35.5557,"lng":-79.3877,"hometown_city":"Greensboro","hometown_state":"NC"},{"name":"Vincent Hill","year":2027,"position":"S","stars":null,"rating_247":null,"committed_to":null,"lat":37.5215,"lng":-78.8537,"hometown_city":"Leesburg","hometown_state":"VA"},{"name":"Isiah Osby","year":2027,"position":"S","stars":null,"rating_247":null,"committed_to":null,"lat":32.6415,"lng":-83.4426,"hometown_city":"Hampton","hometown_state":"GA"},{"name":"Xavier Sabb","year":2027,"position":"ATH","stars":null,"rating_247":94.0,"committed_to":null,"lat":40.1907,"lng":-74.6728,"hometown_city":"Glassboro","hometown_state":"NJ"},{"name":"Brayton Feister","year":2027,"position":"ATH","stars":null,"rating_247":91.0,"committed_to":null,"lat":40.2862,"lng":-82.7937,"hometown_city":"Massillon","hometown_state":"OH"},{"name":"Marcus Turpin","year":2027,"position":"ATH","stars":null,"rating_247":89.0,"committed_to":null,"lat":39.055,"lng":-76.7909,"hometown_city":"Baltimore","hometown_state":"MD"},{"name":"Brian Dillard","year":2027,"position":"ATH","stars":null,"rating_247":88.0,"committed_to":null,"lat":28.6305,"lng":-82.4497,"hometown_city":"Orlando","hometown_state":"FL"},{"name":"Logan Steele","year":2027,"position":"ATH","stars":null,"rating_247":88.0,"committed_to":"Wake Forest","lat":40.8781,"lng":-77.7996,"hometown_city":"Coal Township","hometown_state":"PA"},{"name":"Ka'ron Ceaser","year":2027,"position":"ATH","stars":null,"rating_247":87.0,"committed_to":"Penn State","lat":40.1907,"lng":-74.6728,"hometown_city":"Atco","hometown_state":"NJ"},{"name":"Cain Van Norden","year":2027,"position":"ATH","stars":null,"rating_247":87.0,"committed_to":"Florida","lat":39.055,"lng":-76.7909,"hometown_city":"Forestville","hometown_state":"MD"},{"name":"Tyson Washington","year":2027,"position":"ATH","stars":null,"rating_247":87.0,"committed_to":null,"lat":37.5215,"lng":-78.8537,"hometown_city":"Springfield","hometown_state":"VA"},{"name":"Kyle Davis","year":2027,"position":"ATH","stars":null,"rating_247":87.0,"committed_to":null,"lat":39.055,"lng":-76.7909,"hometown_city":"North Bethesda","hometown_state":"MD"},{"name":"Chase Guers","year":2027,"position":"ATH","stars":null,"rating_247":87.0,"committed_to":null,"lat":40.8781,"lng":-77.7996,"hometown_city":"Schuylkill Haven","hometown_state":"PA"},{"name":"Ian McDuffie","year":2027,"position":"ATH","stars":null,"rating_247":87.0,"committed_to":"Syracuse","lat":40.1907,"lng":-74.6728,"hometown_city":"Wayne","hometown_state":"NJ"},{"name":"Qualteau Hawkins","year":2027,"position":"ATH","stars":null,"rating_247":86.0,"committed_to":null,"lat":35.5557,"lng":-79.3877,"hometown_city":"Cramerton","hometown_state":"NC"},{"name":"Marcus Sales Jr.","year":2027,"position":"ATH","stars":null,"rating_247":86.0,"committed_to":"Ohio","lat":35.5557,"lng":-79.3877,"hometown_city":"Concord","hometown_state":"NC"},{"name":"Amir Hogans","year":2027,"position":"ATH","stars":null,"rating_247":86.0,"committed_to":"Northwestern","lat":40.1907,"lng":-74.6728,"hometown_city":"Princeton","hometown_state":"NJ"},{"name":"Chris Bradley","year":2027,"position":"ATH","stars":null,"rating_247":86.0,"committed_to":null,"lat":40.2862,"lng":-82.7937,"hometown_city":"Cincinnati","hometown_state":"OH"},{"name":"DeAnthony Crittenden","year":2027,"position":"ATH","stars":null,"rating_247":85.0,"committed_to":null,"lat":40.2862,"lng":-82.7937,"hometown_city":"Cleveland","hometown_state":"OH"},{"name":"James Westervelt","year":2027,"position":"ATH","stars":null,"rating_247":85.0,"committed_to":"Virginia","lat":39.055,"lng":-76.7909,"hometown_city":"Bel Air","hometown_state":"MD"},{"name":"Vermont Carmack","year":2027,"position":"ATH","stars":null,"rating_247":85.0,"committed_to":null,"lat":35.5557,"lng":-79.3877,"hometown_city":"Greensboro","hometown_state":"NC"},{"name":"Jalen Moseley","year":2027,"position":"ATH","stars":null,"rating_247":null,"committed_to":null,"lat":41.6762,"lng":-71.5562,"hometown_city":"Providence","hometown_state":"RI"},{"name":"Kayden Edwards","year":2027,"position":"ATH","stars":null,"rating_247":null,"committed_to":null,"lat":40.2862,"lng":-82.7937,"hometown_city":"Ironton","hometown_state":"OH"},{"name":"Shon Pone","year":2027,"position":"ATH","stars":null,"rating_247":null,"committed_to":null,"lat":35.5557,"lng":-79.3877,"hometown_city":"Fayetteville","hometown_state":"NC"},{"name":"Mikey McQueen","year":2027,"position":"ATH","stars":null,"rating_247":null,"committed_to":"Temple","lat":40.1907,"lng":-74.6728,"hometown_city":"Mount Holly","hometown_state":"NJ"},{"name":"Deylen Jones","year":2027,"position":"ATH","stars":null,"rating_247":null,"committed_to":null,"lat":37.5215,"lng":-78.8537,"hometown_city":"Vienna","hometown_state":"VA"},{"name":"Braylon Davis","year":2027,"position":"ATH","stars":null,"rating_247":null,"committed_to":null,"lat":31.4757,"lng":-99.3312,"hometown_city":"Waxahachie","hometown_state":"TX"},{"name":"Zion Walker","year":2027,"position":"ATH","stars":null,"rating_247":null,"committed_to":null,"lat":32.6415,"lng":-83.4426,"hometown_city":"Valdosta","hometown_state":"GA"},{"name":"Ronnie Taylor Jr.","year":2027,"position":"ATH","stars":null,"rating_247":null,"committed_to":"Akron","lat":40.2862,"lng":-82.7937,"hometown_city":"Cleveland","hometown_state":"OH"}],"2028":[{"name":"Jeremiah McGowan","year":2028,"position":"OT","stars":null,"rating_247":null,"committed_to":null,"lat":33.9169,"lng":-80.8964,"hometown_city":"Irmo","hometown_state":"SC"},{"name":"Kayce Jordan","year":2028,"position":"LB","stars":null,"rating_247":null,"committed_to":null,"lat":37.5215,"lng":-78.8537,"hometown_city":"Chesapeake","hometown_state":"VA"},{"name":"Bryson Hazley","year":2028,"position":"CB","stars":null,"rating_247":90.0,"committed_to":null,"lat":32.6415,"lng":-83.4426,"hometown_city":"East Dublin","hometown_state":"GA"},{"name":"Major Floyd","year":2028,"position":"S","stars":null,"rating_247":90.0,"committed_to":null,"lat":32.6415,"lng":-83.4426,"hometown_city":"East Dublin","hometown_state":"GA"},{"name":"Caleb Smoot","year":2028,"position":"ATH","stars":null,"rating_247":null,"committed_to":null,"lat":37.5215,"lng":-78.8537,"hometown_city":"Leesburg","hometown_state":"VA"}]}