{"2026":[{"name":"Jared Curtis","year":2026,"position":"QB","stars":5,"rating_247":99.0,"committed_to":"Vanderbilt","lat":36.1622296,"lng":-86.7743531,"hometown_city":"Nashville","hometown_state":"TN"},{"name":"Jamarion Vincent","year":2026,"position":"QB","stars":4,"rating_247":93.0,"committed_to":"Michigan","lat":31.549333,"lng":-97.1466695,"hometown_city":"Waco","hometown_state":"TX"},{"name":"Gavin Owens","year":2026,"position":"QB","stars":3,"rating_247":85.0,"committed_to":"Memphis","lat":34.97479,"lng":-83.30549,"hometown_city":"Rabun Gap","hometown_state":"GA"},{"name":"Brock Bradley","year":2026,"position":"QB","stars":3,"rating_247":85.0,"committed_to":"Clemson","lat":33.5206824,"lng":-86.8024326,"hometown_city":"Birmingham","hometown_state":"AL"},{"name":"Kelvin Perkins","year":2026,"position":"QB","stars":3,"rating_247":84.0,"committed_to":"Austin Peay","lat":35.1490215,"lng":-90.0516285,"hometown_city":"Memphis","hometown_state":"TN"},{"name":"Sabby Meassick","year":2026,"position":"QB","stars":null,"rating_247":null,"committed_to":null,"lat":28.6305,"lng":-82.4497,"hometown_city":"Kissimmee","hometown_state":"FL"},{"name":"La\u00e2\u20ac\u2122Darius Simmons","year":2026,"position":"QB","stars":null,"rating_247":null,"committed_to":null,"lat":28.6305,"lng":-82.4497,"hometown_city":"Palm Coast","hometown_state":"FL"},{"name":"Carsyn Baker","year":2026,"position":"RB","stars":4,"rating_247":90.0,"committed_to":"Texas A&M","lat":33.5670562,"lng":-84.5810418,"hometown_city":"Fairburn","hometown_state":"GA"},{"name":"Amari Latimer","year":2026,"position":"RB","stars":4,"rating_247":90.0,"committed_to":"West Virginia","lat":33.4713249,"lng":-84.5972005,"hometown_city":"Tyrone","hometown_state":"GA"},{"name":"Qwantavius Wiggins","year":2026,"position":"RB","stars":3,"rating_247":89.0,"committed_to":"Georgia State","lat":33.5670562,"lng":-84.5810418,"hometown_city":"Fairburn","hometown_state":"GA"},{"name":"Jamarcea Plater","year":2026,"position":"RB","stars":3,"rating_247":89.0,"committed_to":"Tulsa","lat":32.5221828,"lng":-93.7651944,"hometown_city":"Shreveport","hometown_state":"LA"},{"name":"Ja'Michael Jones","year":2026,"position":"RB","stars":3,"rating_247":88.0,"committed_to":"Mississippi","lat":32.3669656,"lng":-86.3006485,"hometown_city":"Montgomery","hometown_state":"AL"},{"name":"CJ Givers","year":2026,"position":"RB","stars":3,"rating_247":88.0,"committed_to":"Duke","lat":34.02332,"lng":-84.360022,"hometown_city":"Roswell","hometown_state":"GA"},{"name":"Jaeden Hill","year":2026,"position":"RB","stars":3,"rating_247":87.0,"committed_to":"Mississippi State","lat":34.2576067,"lng":-88.7033859,"hometown_city":"Tupelo","hometown_state":"MS"},{"name":"Lance McGee","year":2026,"position":"RB","stars":3,"rating_247":87.0,"committed_to":"Washington State","lat":47.22131,"lng":-122.2326539,"hometown_city":"Sumner","hometown_state":"WA"},{"name":"Chris Talley","year":2026,"position":"RB","stars":null,"rating_247":87.0,"committed_to":"West Virginia","lat":35.858,"lng":-86.3505,"hometown_city":"Memphis","hometown_state":"TN"},{"name":"Jayreon Campbell","year":2026,"position":"RB","stars":3,"rating_247":86.0,"committed_to":"Indiana","lat":33.8595492,"lng":-84.683824,"hometown_city":"Powder Springs","hometown_state":"GA"},{"name":"Will Rajecki","year":2026,"position":"RB","stars":3,"rating_247":86.0,"committed_to":"Tennessee","lat":34.2367621,"lng":-84.4907621,"hometown_city":"Canton","hometown_state":"GA"},{"name":"Josiah Lucas","year":2026,"position":"RB","stars":3,"rating_247":86.0,"committed_to":"San Diego State","lat":32.657368000000005,"lng":-97.02846624175038,"hometown_city":"Grand Prairie","hometown_state":"TX"},{"name":"Dylan McCoy","year":2026,"position":"RB","stars":3,"rating_247":86.0,"committed_to":"North Carolina State","lat":34.1206564,"lng":-84.0043513,"hometown_city":"Buford","hometown_state":"GA"},{"name":"Jayson Franklin","year":2026,"position":"RB","stars":3,"rating_247":86.0,"committed_to":"South Florida","lat":35.0525759,"lng":-78.878292,"hometown_city":"Fayetteville","hometown_state":"NC"},{"name":"Zamarcus Lindley","year":2026,"position":"RB","stars":3,"rating_247":85.0,"committed_to":"Samford","lat":33.7514966,"lng":-84.7477136,"hometown_city":"Douglasville","hometown_state":"GA"},{"name":"Jordan Thompson","year":2026,"position":"RB","stars":3,"rating_247":85.0,"committed_to":"Memphis","lat":26.2378597,"lng":-80.1247667,"hometown_city":"Pompano Beach","hometown_state":"FL"},{"name":"Cedric Kouemi","year":2026,"position":"RB","stars":3,"rating_247":85.0,"committed_to":"Jacksonville State","lat":39.017936,"lng":-77.2094542,"hometown_city":"Potomac","hometown_state":"MD"},{"name":"Ronde Baker","year":2026,"position":"RB","stars":3,"rating_247":85.0,"committed_to":null,"lat":32.0962633,"lng":-90.2942566,"hometown_city":"Terry","hometown_state":"MS"},{"name":"Izayah Lee","year":2026,"position":"RB","stars":3,"rating_247":85.0,"committed_to":"Vanderbilt","lat":32.5920798,"lng":-96.7561083,"hometown_city":"Lancaster","hometown_state":"TX"},{"name":"TJ Ward Jr.","year":2026,"position":"RB","stars":3,"rating_247":85.0,"committed_to":null,"lat":36.1622296,"lng":-86.7743531,"hometown_city":"Nashville","hometown_state":"TN"},{"name":"Jayzon Thompson","year":2026,"position":"RB","stars":3,"rating_247":85.0,"committed_to":"Cincinnati","lat":35.9603948,"lng":-83.9210261,"hometown_city":"Knoxville","hometown_state":"TN"},{"name":"Eric Perry","year":2026,"position":"RB","stars":3,"rating_247":85.0,"committed_to":"Memphis","lat":34.9889818,"lng":-90.0125913,"hometown_city":"Southaven","hometown_state":"MS"},{"name":"Delvecchio Alston II","year":2026,"position":"RB","stars":null,"rating_247":85.0,"committed_to":"Kentucky","lat":32.7794,"lng":-86.8287,"hometown_city":"Trussville","hometown_state":"AL"},{"name":"TK Davis","year":2026,"position":"RB","stars":null,"rating_247":85.0,"committed_to":"Massachusetts","lat":38.9101,"lng":-77.0147,"hometown_city":"Washington","hometown_state":"DC"},{"name":"Javion Garrett","year":2026,"position":"RB","stars":null,"rating_247":null,"committed_to":null,"lat":31.4757,"lng":-99.3312,"hometown_city":"Katy","hometown_state":"TX"},{"name":"Corey Barber Jr.","year":2026,"position":"WR","stars":null,"rating_247":96.0,"committed_to":"Louisiana State","lat":32.7794,"lng":-86.8287,"hometown_city":"Pinson","hometown_state":"AL"},{"name":"Craig Dandridge","year":2026,"position":"WR","stars":4,"rating_247":95.0,"committed_to":"Georgia","lat":34.0709576,"lng":-84.2747329,"hometown_city":"Alpharetta","hometown_state":"GA"},{"name":"Aaron Gregory","year":2026,"position":"WR","stars":4,"rating_247":94.0,"committed_to":"Texas A&M","lat":33.7514966,"lng":-84.7477136,"hometown_city":"Douglasville","hometown_state":"GA"},{"name":"Jayden Warren","year":2026,"position":"WR","stars":4,"rating_247":92.0,"committed_to":"Texas A&M","lat":29.3521203,"lng":-95.460341,"hometown_city":"Rosharon","hometown_state":"TX"},{"name":"Zay Anderson","year":2026,"position":"WR","stars":4,"rating_247":91.0,"committed_to":"Tennessee","lat":36.1631575,"lng":-82.8309861,"hometown_city":"Greeneville","hometown_state":"TN"},{"name":"Kohen Brown","year":2026,"position":"WR","stars":3,"rating_247":90.0,"committed_to":"Texas","lat":32.3944908,"lng":-96.8439365,"hometown_city":"Waxahachie","hometown_state":"TX"},{"name":"Bubba Frazier","year":2026,"position":"WR","stars":4,"rating_247":90.0,"committed_to":"Notre Dame","lat":32.0809263,"lng":-81.0911768,"hometown_city":"Savannah","hometown_state":"GA"},{"name":"Tyreek King","year":2026,"position":"WR","stars":4,"rating_247":90.0,"committed_to":"Tennessee","lat":35.9603948,"lng":-83.9210261,"hometown_city":"Knoxville","hometown_state":"TN"},{"name":"Aljour Miles II","year":2026,"position":"WR","stars":null,"rating_247":90.0,"committed_to":"SMU","lat":31.4757,"lng":-99.3312,"hometown_city":"Kaufman","hometown_state":"TX"},{"name":"Zayion Cotton","year":2026,"position":"WR","stars":4,"rating_247":90.0,"committed_to":"Mississippi State","lat":33.7690049,"lng":-89.8084192,"hometown_city":"Grenada","hometown_state":"MS"},{"name":"Jonah Winston","year":2026,"position":"WR","stars":3,"rating_247":89.0,"committed_to":"Florida State","lat":33.3848933,"lng":-86.8070484,"hometown_city":"Hoover","hometown_state":"AL"},{"name":"Rodney Dunbar","year":2026,"position":"WR","stars":null,"rating_247":89.0,"committed_to":"Pittsburgh","lat":32.6415,"lng":-83.4426,"hometown_city":"Thomasville","hometown_state":"GA"},{"name":"Amiri Acker","year":2026,"position":"WR","stars":null,"rating_247":89.0,"committed_to":"North Carolina State","lat":33.9169,"lng":-80.8964,"hometown_city":"Iva","hometown_state":"SC"},{"name":"Zion Crumpton","year":2026,"position":"WR","stars":3,"rating_247":89.0,"committed_to":"Mississippi State","lat":32.3669656,"lng":-86.3006485,"hometown_city":"Montgomery","hometown_state":"AL"},{"name":"Julius Miles","year":2026,"position":"WR","stars":4,"rating_247":88.0,"committed_to":"Louisville","lat":30.4982516,"lng":-86.1360517,"hometown_city":"Freeport","hometown_state":"FL"},{"name":"Maurice Mathis Jr.","year":2026,"position":"WR","stars":null,"rating_247":88.0,"committed_to":"Alabama","lat":32.6415,"lng":-83.4426,"hometown_city":"Warner Robins","hometown_state":"GA"},{"name":"Dylan Cope","year":2026,"position":"WR","stars":3,"rating_247":88.0,"committed_to":"Virginia","lat":33.626629,"lng":-86.5549335251678,"hometown_city":"Trussville","hometown_state":"AL"},{"name":"Ace Theus","year":2026,"position":"WR","stars":null,"rating_247":88.0,"committed_to":"Texas Christian","lat":31.4757,"lng":-99.3312,"hometown_city":"Duncanville","hometown_state":"TX"},{"name":"Brady Marchese","year":2026,"position":"WR","stars":4,"rating_247":88.0,"committed_to":"Auburn","lat":34.1650972,"lng":-84.7999383,"hometown_city":"Cartersville","hometown_state":"GA"},{"name":"DeShawn Spencer","year":2026,"position":"WR","stars":3,"rating_247":88.0,"committed_to":"Auburn","lat":30.820742,"lng":-88.0705556,"hometown_city":"Saraland","hometown_state":"AL"},{"name":"Xavier Green","year":2026,"position":"WR","stars":3,"rating_247":88.0,"committed_to":"Tulsa","lat":33.0890094,"lng":-96.8863922,"hometown_city":"The Colony","hometown_state":"TX"},{"name":"James Scott","year":2026,"position":"WR","stars":3,"rating_247":87.0,"committed_to":"Texas Christian","lat":30.3118769,"lng":-95.4560512,"hometown_city":"Conroe","hometown_state":"TX"},{"name":"Zach Washington","year":2026,"position":"WR","stars":null,"rating_247":87.0,"committed_to":"Michigan State","lat":40.0417,"lng":-89.1965,"hometown_city":"Wheaton","hometown_state":"IL"},{"name":"Nalin Scott","year":2026,"position":"WR","stars":3,"rating_247":87.0,"committed_to":"Nebraska","lat":33.8595492,"lng":-84.683824,"hometown_city":"Powder Springs","hometown_state":"GA"},{"name":"Kavon Conciauro","year":2026,"position":"WR","stars":3,"rating_247":87.0,"committed_to":"Duke","lat":32.6200973,"lng":-83.606568,"hometown_city":"Warner Robins","hometown_state":"GA"},{"name":"Xavier Stinson","year":2026,"position":"WR","stars":3,"rating_247":87.0,"committed_to":"Iowa","lat":27.6387163,"lng":-80.3975399,"hometown_city":"Vero Beach","hometown_state":"FL"},{"name":"Devyon Hill-Lomax","year":2026,"position":"WR","stars":3,"rating_247":87.0,"committed_to":"Missouri","lat":38.8114364,"lng":-89.953157,"hometown_city":"Edwardsville","hometown_state":"IL"},{"name":"Jude Hall","year":2026,"position":"WR","stars":3,"rating_247":87.0,"committed_to":"Arkansas","lat":34.851354,"lng":-82.3984882,"hometown_city":"Greenville","hometown_state":"SC"},{"name":"Kentrell Davis","year":2026,"position":"WR","stars":3,"rating_247":87.0,"committed_to":"Georgia Tech","lat":33.5206824,"lng":-86.8024326,"hometown_city":"Birmingham","hometown_state":"AL"},{"name":"Rhys Dorsey","year":2026,"position":"WR","stars":3,"rating_247":87.0,"committed_to":"Louisville","lat":34.6928726,"lng":-86.7511427,"hometown_city":"Madison","hometown_state":"AL"},{"name":"Josiah Dozier","year":2026,"position":"WR","stars":3,"rating_247":87.0,"committed_to":"Minnesota","lat":33.5909365,"lng":-86.4908168,"hometown_city":"Moody","hometown_state":"AL"},{"name":"Lavar Keys","year":2026,"position":"WR","stars":3,"rating_247":87.0,"committed_to":"Indiana","lat":38.9529442,"lng":-76.9408647,"hometown_city":"Hyattsville","hometown_state":"MD"},{"name":"Zechariah Jenkins","year":2026,"position":"WR","stars":3,"rating_247":86.0,"committed_to":"Memphis","lat":31.74096,"lng":-89.13382003619111,"hometown_city":"Laurel","hometown_state":"MS"},{"name":"Tre'von McGory","year":2026,"position":"WR","stars":3,"rating_247":86.0,"committed_to":"Western Kentucky","lat":35.0867577,"lng":-89.8100858,"hometown_city":"Germantown","hometown_state":"TN"},{"name":"Christian Ward","year":2026,"position":"WR","stars":3,"rating_247":86.0,"committed_to":"Colorado","lat":27.4989278,"lng":-82.5748194,"hometown_city":"Bradenton","hometown_state":"FL"},{"name":"BJ Bedgood","year":2026,"position":"WR","stars":3,"rating_247":86.0,"committed_to":"Old Dominion","lat":32.944012,"lng":-85.9538532,"hometown_city":"Alexander City","hometown_state":"AL"},{"name":"Jaylin Taylor","year":2026,"position":"WR","stars":3,"rating_247":86.0,"committed_to":"Memphis","lat":33.5853695,"lng":-85.91428175037092,"hometown_city":"Oxford","hometown_state":"AL"},{"name":"Chan Lumpkin","year":2026,"position":"WR","stars":3,"rating_247":86.0,"committed_to":"Tulane","lat":32.5570898,"lng":-84.2382482,"hometown_city":"Butler","hometown_state":"GA"},{"name":"Jeremiah Tabb","year":2026,"position":"WR","stars":3,"rating_247":86.0,"committed_to":"Kennesaw State","lat":33.3848933,"lng":-86.8070484,"hometown_city":"Hoover","hometown_state":"AL"},{"name":"Deion Thomas","year":2026,"position":"WR","stars":3,"rating_247":86.0,"committed_to":"Missouri State","lat":33.7490987,"lng":-84.3901849,"hometown_city":"Atlanta","hometown_state":"GA"},{"name":"Jonathan Stafford Jr.","year":2026,"position":"WR","stars":3,"rating_247":86.0,"committed_to":"Western Kentucky","lat":33.8389977,"lng":-83.9007382,"hometown_city":"Loganville","hometown_state":"GA"},{"name":"J.J. Winston","year":2026,"position":"WR","stars":null,"rating_247":86.0,"committed_to":"Georgia Tech","lat":32.6415,"lng":-83.4426,"hometown_city":"Rome","hometown_state":"GA"},{"name":"Bryson Maddox","year":2026,"position":"WR","stars":3,"rating_247":86.0,"committed_to":"Middle Tennessee","lat":36.1034126,"lng":-84.1318632,"hometown_city":"Clinton","hometown_state":"TN"},{"name":"Peyton Zachary","year":2026,"position":"WR","stars":3,"rating_247":85.0,"committed_to":"Nevada, Las Vegas","lat":33.9528472,"lng":-84.5496148,"hometown_city":"Marietta","hometown_state":"GA"},{"name":"Imari Jehiel","year":2026,"position":"WR","stars":3,"rating_247":85.0,"committed_to":"Texas Tech","lat":32.747893,"lng":-96.4719289,"hometown_city":"Forney","hometown_state":"TX"},{"name":"Jaylen Pile","year":2026,"position":"WR","stars":3,"rating_247":85.0,"committed_to":"Michigan","lat":32.7762719,"lng":-96.7968559,"hometown_city":"Dallas","hometown_state":"TX"},{"name":"Kei'Maurii Miles","year":2026,"position":"WR","stars":3,"rating_247":85.0,"committed_to":null,"lat":32.4609764,"lng":-84.9877094,"hometown_city":"Columbus","hometown_state":"GA"},{"name":"Kabran Paul","year":2026,"position":"WR","stars":3,"rating_247":85.0,"committed_to":"Appalachian State","lat":30.4380832,"lng":-84.2809332,"hometown_city":"Tallahassee","hometown_state":"FL"},{"name":"Dylan Denson","year":2026,"position":"WR","stars":null,"rating_247":84.0,"committed_to":"Troy","lat":28.6305,"lng":-82.4497,"hometown_city":"Plantation","hometown_state":"FL"},{"name":"Eric Paul Jr.","year":2026,"position":"WR","stars":3,"rating_247":84.0,"committed_to":null,"lat":33.5670562,"lng":-84.5810418,"hometown_city":"Fairburn","hometown_state":"GA"},{"name":"Joshua Joseph","year":2026,"position":"WR","stars":3,"rating_247":84.0,"committed_to":"Memphis","lat":25.7742658,"lng":-80.1936589,"hometown_city":"Miami","hometown_state":"FL"},{"name":"Greg Wilfred","year":2026,"position":"WR","stars":3,"rating_247":84.0,"committed_to":"West Virginia","lat":29.9499323,"lng":-90.0701156,"hometown_city":"New Orleans","hometown_state":"LA"},{"name":"Courtney Lewis Jr.","year":2026,"position":"WR","stars":null,"rating_247":84.0,"committed_to":"Tulsa","lat":31.4757,"lng":-99.3312,"hometown_city":"Katy","hometown_state":"TX"},{"name":"Dameon Crowe","year":2026,"position":"WR","stars":3,"rating_247":83.0,"committed_to":"Texas State","lat":32.9481789,"lng":-96.7297206,"hometown_city":"Richardson","hometown_state":"TX"},{"name":"Ty Sexton","year":2026,"position":"WR","stars":null,"rating_247":83.0,"committed_to":"Sam Houston","lat":31.4757,"lng":-99.3312,"hometown_city":"Fulshear","hometown_state":"TX"},{"name":"Ryan Nero","year":2026,"position":"WR","stars":3,"rating_247":82.0,"committed_to":null,"lat":33.9170444,"lng":-117.8888557,"hometown_city":"Brea","hometown_state":"CA"},{"name":"Steele Ingram","year":2026,"position":"WR","stars":null,"rating_247":null,"committed_to":null,"lat":32.6415,"lng":-83.4426,"hometown_city":"Kennesaw","hometown_state":"GA"},{"name":"Marcus Adam Carter Jr.","year":2026,"position":"WR","stars":null,"rating_247":null,"committed_to":null,"lat":32.6415,"lng":-83.4426,"hometown_city":"Douglasville","hometown_state":"GA"},{"name":"Malachi Augustus","year":2026,"position":"WR","stars":null,"rating_247":null,"committed_to":null,"lat":31.4757,"lng":-99.3312,"hometown_city":"Houston","hometown_state":"TX"},{"name":"Malachi Thomas","year":2026,"position":"WR","stars":null,"rating_247":null,"committed_to":null,"lat":35.5557,"lng":-79.3877,"hometown_city":"Raleigh","hometown_state":"NC"},{"name":"Juwaan Woodbury","year":2026,"position":"WR","stars":null,"rating_247":null,"committed_to":null,"lat":31.4757,"lng":-99.3312,"hometown_city":"Galveston","hometown_state":"TX"},{"name":"Jayvion Todd","year":2026,"position":"WR","stars":null,"rating_247":null,"committed_to":null,"lat":40.0417,"lng":-89.1965,"hometown_city":"Carol Stream","hometown_state":"IL"},{"name":"Gavin Mueller","year":2026,"position":"TE","stars":4,"rating_247":94.0,"committed_to":"Miami","lat":41.9941938,"lng":-88.2922996,"hometown_city":"South Elgin","hometown_state":"IL"},{"name":"Xavier Tiller","year":2026,"position":"TE","stars":4,"rating_247":90.0,"committed_to":"Florida State","lat":33.5670562,"lng":-84.5810418,"hometown_city":"Fairburn","hometown_state":"GA"},{"name":"Jaivion Martin","year":2026,"position":"TE","stars":3,"rating_247":89.0,"committed_to":"Houston","lat":30.4241219,"lng":-95.4796587,"hometown_city":"Willis","hometown_state":"TX"},{"name":"Jack Richerson","year":2026,"position":"TE","stars":3,"rating_247":89.0,"committed_to":"Georgia Tech","lat":33.7490987,"lng":-84.3901849,"hometown_city":"Atlanta","hometown_state":"GA"},{"name":"Corbyn Fordham","year":2026,"position":"TE","stars":3,"rating_247":88.0,"committed_to":"Florida State","lat":30.3321838,"lng":-81.655651,"hometown_city":"Jacksonville","hometown_state":"FL"},{"name":"Ar'Mari Towns","year":2026,"position":"TE","stars":null,"rating_247":88.0,"committed_to":"Purdue","lat":32.7794,"lng":-86.8287,"hometown_city":"Selma","hometown_state":"AL"},{"name":"Kekua Aumua","year":2026,"position":"TE","stars":3,"rating_247":88.0,"committed_to":"Washington","lat":21.679124,"lng":-157.94838,"hometown_city":"Kahuku","hometown_state":"HI"},{"name":"Adam Gehm","year":2026,"position":"TE","stars":3,"rating_247":87.0,"committed_to":"Vanderbilt","lat":40.8027772,"lng":-80.1280528,"hometown_city":"Harmony","hometown_state":"PA"},{"name":"Kevin Sullivan","year":2026,"position":"TE","stars":3,"rating_247":87.0,"committed_to":"Kansas","lat":39.100105,"lng":-94.5781416,"hometown_city":"Kansas City","hometown_state":"MO"},{"name":"Benjamin Moseley","year":2026,"position":"TE","stars":null,"rating_247":87.0,"committed_to":"Duke","lat":32.7794,"lng":-86.8287,"hometown_city":"Centre","hometown_state":"AL"},{"name":"Jack Utz","year":2026,"position":"TE","stars":3,"rating_247":86.0,"committed_to":"Kansas","lat":39.3703535,"lng":-94.781086,"hometown_city":"Platte City","hometown_state":"MO"},{"name":"Julius Mathis","year":2026,"position":"TE","stars":3,"rating_247":85.0,"committed_to":"South Alabama","lat":33.1131834,"lng":-90.0531408,"hometown_city":"Lexington","hometown_state":"MS"},{"name":"Garrett Essner","year":2026,"position":"TE","stars":3,"rating_247":85.0,"committed_to":"Memphis","lat":38.951883,"lng":-92.3337366,"hometown_city":"Columbia","hometown_state":"MO"},{"name":"Braden Bach","year":2026,"position":"TE","stars":3,"rating_247":85.0,"committed_to":"Texas Christian","lat":33.110156,"lng":-97.17940980147037,"hometown_city":"Argyle","hometown_state":"TX"},{"name":"Jude Cascone","year":2026,"position":"TE","stars":3,"rating_247":85.0,"committed_to":"Alabama","lat":33.9528472,"lng":-84.5496148,"hometown_city":"Marietta","hometown_state":"GA"},{"name":"Rowen Walsh","year":2026,"position":"TE","stars":3,"rating_247":84.0,"committed_to":"Delaware","lat":39.1532123,"lng":-77.0668408,"hometown_city":"Olney","hometown_state":"MD"},{"name":"Dre Walker","year":2026,"position":"TE","stars":3,"rating_247":84.0,"committed_to":"Central Arkansas","lat":35.7847949,"lng":-89.1172883,"hometown_city":"Alamo","hometown_state":"TN"},{"name":"William Mayes","year":2026,"position":"TE","stars":3,"rating_247":84.0,"committed_to":"Louisiana Tech","lat":29.7857853,"lng":-95.8243956,"hometown_city":"Katy","hometown_state":"TX"},{"name":"Chase Tatum","year":2026,"position":"TE","stars":3,"rating_247":80.0,"committed_to":"Kennesaw State","lat":34.1650972,"lng":-84.7999383,"hometown_city":"Cartersville","hometown_state":"GA"},{"name":"Felix Ojo","year":2026,"position":"OT","stars":5,"rating_247":98.0,"committed_to":"Texas Tech","lat":32.5631924,"lng":-97.1416768,"hometown_city":"Mansfield","hometown_state":"TX"},{"name":"Daniel McMorris","year":2026,"position":"OT","stars":4,"rating_247":95.0,"committed_to":"California","lat":35.2225717,"lng":-97.4394816,"hometown_city":"Norman","hometown_state":"OK"},{"name":"Kamari Blair","year":2026,"position":"OT","stars":4,"rating_247":95.0,"committed_to":"Tennessee","lat":36.5277607,"lng":-87.3588703,"hometown_city":"Clarksville","hometown_state":"TN"},{"name":"Bryce Gilmore","year":2026,"position":"OT","stars":4,"rating_247":93.0,"committed_to":"Texas Tech","lat":33.2385763,"lng":-96.7866058,"hometown_city":"Prosper","hometown_state":"TX"},{"name":"Bryson Cooley","year":2026,"position":"OT","stars":4,"rating_247":92.0,"committed_to":"Alabama","lat":31.74096,"lng":-89.13382003619111,"hometown_city":"Laurel","hometown_state":"MS"},{"name":"Joel Ervin","year":2026,"position":"OT","stars":4,"rating_247":92.0,"committed_to":"Miami","lat":26.640628,"lng":-81.8723084,"hometown_city":"Fort Myers","hometown_state":"FL"},{"name":"Tyreek Jemison","year":2026,"position":"OT","stars":4,"rating_247":91.0,"committed_to":"Georgia","lat":33.9237141,"lng":-84.8407732,"hometown_city":"Dallas","hometown_state":"GA"},{"name":"Evan Goodwin","year":2026,"position":"OT","stars":4,"rating_247":90.0,"committed_to":"SMU","lat":34.5556489,"lng":-92.5212702,"hometown_city":"Bauxite","hometown_state":"AR"},{"name":"Emanuel Tucker","year":2026,"position":"OT","stars":4,"rating_247":90.0,"committed_to":"Mississippi","lat":34.4942683,"lng":-89.0078418,"hometown_city":"New Albany","hometown_state":"MS"},{"name":"Cortavious Tisaby","year":2026,"position":"OT","stars":3,"rating_247":90.0,"committed_to":"Arizona State","lat":32.7762719,"lng":-96.7968559,"hometown_city":"Dallas","hometown_state":"TX"},{"name":"Wilson Zierer","year":2026,"position":"OT","stars":4,"rating_247":89.0,"committed_to":"Auburn","lat":34.97479,"lng":-83.30549,"hometown_city":"Rabun Gap","hometown_state":"GA"},{"name":"Vincent Johnson Jr.","year":2026,"position":"OT","stars":4,"rating_247":89.0,"committed_to":"Texas Christian","lat":33.1384886,"lng":-95.6010143,"hometown_city":"Sulphur Springs","hometown_state":"TX"},{"name":"Charlie Edgeworth","year":2026,"position":"OT","stars":3,"rating_247":88.0,"committed_to":"Louisville","lat":35.0457219,"lng":-85.3094883,"hometown_city":"Chattanooga","hometown_state":"TN"},{"name":"Jack Fuchs","year":2026,"position":"OT","stars":3,"rating_247":88.0,"committed_to":"Northwestern","lat":36.3049177,"lng":-86.621443,"hometown_city":"Hendersonville","hometown_state":"TN"},{"name":"Marlen Bright","year":2026,"position":"OT","stars":4,"rating_247":88.0,"committed_to":"Virginia Tech","lat":40.9491723,"lng":-74.2376802,"hometown_city":"Wayne","hometown_state":"NJ"},{"name":"Kole Seaton","year":2026,"position":"OT","stars":3,"rating_247":88.0,"committed_to":"Oklahoma State","lat":32.7666103,"lng":-96.599472,"hometown_city":"Mesquite","hometown_state":"TX"},{"name":"Max Wright","year":2026,"position":"OT","stars":3,"rating_247":88.0,"committed_to":"SMU","lat":33.2860549,"lng":-96.5725952,"hometown_city":"Melissa","hometown_state":"TX"},{"name":"Mitchell Smith","year":2026,"position":"OT","stars":3,"rating_247":88.0,"committed_to":"Vanderbilt","lat":30.5254692,"lng":-89.6795084,"hometown_city":"Picayune","hometown_state":"MS"},{"name":"Avery Morcho","year":2026,"position":"OT","stars":3,"rating_247":87.0,"committed_to":"Texas A&M","lat":29.6185669,"lng":-95.5377215,"hometown_city":"Missouri City","hometown_state":"TX"},{"name":"Kaden Moody","year":2026,"position":"OT","stars":3,"rating_247":87.0,"committed_to":"Kansas","lat":36.0525993,"lng":-95.7908195,"hometown_city":"Broken Arrow","hometown_state":"OK"},{"name":"Richard Thigpen","year":2026,"position":"OT","stars":3,"rating_247":87.0,"committed_to":"Memphis","lat":36.1622296,"lng":-86.7743531,"hometown_city":"Nashville","hometown_state":"TN"},{"name":"Dalton Toothman","year":2026,"position":"OT","stars":3,"rating_247":87.0,"committed_to":"Mississippi State","lat":30.4112904,"lng":-88.8279165,"hometown_city":"Ocean Springs","hometown_state":"MS"},{"name":"Casey Thomann","year":2026,"position":"OT","stars":3,"rating_247":87.0,"committed_to":"Illinois","lat":38.7296538,"lng":-88.0846891,"hometown_city":"Olney","hometown_state":"IL"},{"name":"Jacob Crow","year":2026,"position":"OT","stars":3,"rating_247":87.0,"committed_to":"Texas Tech","lat":35.7895271,"lng":-83.9737935,"hometown_city":"Alcoa","hometown_state":"TN"},{"name":"Jayden Ross","year":2026,"position":"OT","stars":3,"rating_247":86.0,"committed_to":"Mississippi State","lat":30.4112904,"lng":-88.8279165,"hometown_city":"Ocean Springs","hometown_state":"MS"},{"name":"Charles Humphrey","year":2026,"position":"OT","stars":3,"rating_247":86.0,"committed_to":"Southern","lat":35.9603948,"lng":-83.9210261,"hometown_city":"Knoxville","hometown_state":"TN"},{"name":"Hugh Smith","year":2026,"position":"OT","stars":3,"rating_247":86.0,"committed_to":"Arkansas","lat":29.6185669,"lng":-95.5377215,"hometown_city":"Missouri City","hometown_state":"TX"},{"name":"Tucker Young","year":2026,"position":"OT","stars":3,"rating_247":86.0,"committed_to":"Arkansas","lat":34.5038393,"lng":-93.0552437,"hometown_city":"Hot Springs","hometown_state":"AR"},{"name":"Ben Corhei","year":2026,"position":"OT","stars":null,"rating_247":86.0,"committed_to":"Louisville","lat":32.6415,"lng":-83.4426,"hometown_city":"Valdosta","hometown_state":"GA"},{"name":"Tre Glover","year":2026,"position":"OT","stars":3,"rating_247":85.0,"committed_to":"Appalachian State","lat":32.6200973,"lng":-83.606568,"hometown_city":"Warner Robins","hometown_state":"GA"},{"name":"Grant Kitchens","year":2026,"position":"OT","stars":3,"rating_247":85.0,"committed_to":"Southern Mississippi","lat":33.1237377,"lng":-89.0550624,"hometown_city":"Louisville","hometown_state":"MS"},{"name":"Hudson Reed","year":2026,"position":"OT","stars":3,"rating_247":85.0,"committed_to":"UAB","lat":33.5206824,"lng":-86.8024326,"hometown_city":"Birmingham","hometown_state":"AL"},{"name":"Jake Palucki","year":2026,"position":"OT","stars":3,"rating_247":84.0,"committed_to":"Toledo","lat":41.7003302,"lng":-88.0717708,"hometown_city":"Bolingbrook","hometown_state":"IL"},{"name":"Michael Bowens Jr.","year":2026,"position":"OT","stars":3,"rating_247":83.0,"committed_to":"Louisiana","lat":31.1051779,"lng":-87.0721918,"hometown_city":"Brewton","hometown_state":"AL"},{"name":"Dawson Matthews","year":2026,"position":"OT","stars":3,"rating_247":83.0,"committed_to":"Tulsa","lat":34.7743383,"lng":-96.6783651,"hometown_city":"Ada","hometown_state":"OK"},{"name":"Jacob McRae","year":2026,"position":"OT","stars":3,"rating_247":81.0,"committed_to":"Louisiana Tech","lat":33.1031744,"lng":-96.6705503,"hometown_city":"Allen","hometown_state":"TX"},{"name":"Tylan George","year":2026,"position":"IOL","stars":3,"rating_247":92.0,"committed_to":"Tulane","lat":32.5184775,"lng":-92.1476353,"hometown_city":"West Monroe","hometown_state":"LA"},{"name":"Zaden Krempin","year":2026,"position":"IOL","stars":4,"rating_247":90.0,"committed_to":"Texas A&M","lat":33.2385763,"lng":-96.7866058,"hometown_city":"Prosper","hometown_state":"TX"},{"name":"Jared Smith","year":2026,"position":"IOL","stars":4,"rating_247":89.0,"committed_to":"Rutgers","lat":33.5442781,"lng":-84.2338093,"hometown_city":"Stockbridge","hometown_state":"GA"},{"name":"Drew Evers","year":2026,"position":"IOL","stars":4,"rating_247":89.0,"committed_to":"SMU","lat":33.0283854,"lng":-97.0867203,"hometown_city":"Flower Mound","hometown_state":"TX"},{"name":"Brandon Anderson","year":2026,"position":"IOL","stars":3,"rating_247":89.0,"committed_to":"Missouri","lat":34.0234337,"lng":-84.6154897,"hometown_city":"Kennesaw","hometown_state":"GA"},{"name":"Noah Best","year":2026,"position":"IOL","stars":3,"rating_247":89.0,"committed_to":"Oklahoma","lat":32.482361,"lng":-96.9944489,"hometown_city":"Midlothian","hometown_state":"TX"},{"name":"Tyler Chukuyem","year":2026,"position":"IOL","stars":4,"rating_247":89.0,"committed_to":"Florida","lat":33.7514966,"lng":-84.7477136,"hometown_city":"Douglasville","hometown_state":"GA"},{"name":"Donel Robinson","year":2026,"position":"IOL","stars":4,"rating_247":89.0,"committed_to":"Baylor","lat":33.1131834,"lng":-90.0531408,"hometown_city":"Lexington","hometown_state":"MS"},{"name":"Ryan Miret","year":2026,"position":"IOL","stars":3,"rating_247":88.0,"committed_to":"Louisiana State","lat":25.7742658,"lng":-80.1936589,"hometown_city":"Miami","hometown_state":"FL"},{"name":"Jarvis Strickland","year":2026,"position":"IOL","stars":4,"rating_247":88.0,"committed_to":"Louisville","lat":37.0833893,"lng":-88.6000478,"hometown_city":"Paducah","hometown_state":"KY"},{"name":"Sam Utu","year":2026,"position":"IOL","stars":4,"rating_247":88.0,"committed_to":"SMU","lat":33.7872568,"lng":-117.8503088,"hometown_city":"Orange","hometown_state":"CA"},{"name":"Zach Lewis","year":2026,"position":"IOL","stars":null,"rating_247":88.0,"committed_to":"Georgia","lat":32.6415,"lng":-83.4426,"hometown_city":"Suwanee","hometown_state":"GA"},{"name":"Parker Pritchett","year":2026,"position":"IOL","stars":3,"rating_247":88.0,"committed_to":"Auburn","lat":32.4609764,"lng":-84.9877094,"hometown_city":"Columbus","hometown_state":"GA"},{"name":"Nicolas Robertson","year":2026,"position":"IOL","stars":4,"rating_247":88.0,"committed_to":"Texas","lat":30.0798826,"lng":-95.4172549,"hometown_city":"Spring","hometown_state":"TX"},{"name":"Devan Robison","year":2026,"position":"IOL","stars":3,"rating_247":88.0,"committed_to":"Texas Christian","lat":29.6910625,"lng":-95.2091006,"hometown_city":"Pasadena","hometown_state":"TX"},{"name":"Jakobe Green","year":2026,"position":"IOL","stars":3,"rating_247":87.0,"committed_to":"Florida State","lat":30.5871948,"lng":-84.5832619,"hometown_city":"Quincy","hometown_state":"FL"},{"name":"Aaron Wolford","year":2026,"position":"IOL","stars":3,"rating_247":87.0,"committed_to":"Houston","lat":29.9913244,"lng":-93.9585067,"hometown_city":"Port Neches","hometown_state":"TX"},{"name":"Moussa Seck","year":2026,"position":"IOL","stars":3,"rating_247":87.0,"committed_to":"Samford","lat":35.0457219,"lng":-85.3094883,"hometown_city":"Chattanooga","hometown_state":"TN"},{"name":"JJ Sparks","year":2026,"position":"IOL","stars":3,"rating_247":86.0,"committed_to":"Miami","lat":30.3321838,"lng":-81.655651,"hometown_city":"Jacksonville","hometown_state":"FL"},{"name":"Aydan Newell","year":2026,"position":"IOL","stars":3,"rating_247":86.0,"committed_to":"South Alabama","lat":32.2731475,"lng":-89.9868058,"hometown_city":"Brandon","hometown_state":"MS"},{"name":"Dylan Biehl","year":2026,"position":"IOL","stars":3,"rating_247":86.0,"committed_to":"Virginia","lat":34.0514898,"lng":-84.0712997,"hometown_city":"Suwanee","hometown_state":"GA"},{"name":"Landen Von Seggern","year":2026,"position":"IOL","stars":3,"rating_247":86.0,"committed_to":"Illinois","lat":41.2587459,"lng":-95.9383758,"hometown_city":"Omaha","hometown_state":"NE"},{"name":"Austin Hoane","year":2026,"position":"IOL","stars":3,"rating_247":86.0,"committed_to":"Cincinnati","lat":36.1623886,"lng":-85.4997057,"hometown_city":"Cookeville","hometown_state":"TN"},{"name":"Cam'Ron Thompson","year":2026,"position":"IOL","stars":3,"rating_247":86.0,"committed_to":"South Alabama","lat":30.6255617,"lng":-84.4153769,"hometown_city":"Havana","hometown_state":"FL"},{"name":"Cody Taylor","year":2026,"position":"IOL","stars":3,"rating_247":86.0,"committed_to":"Charlotte","lat":35.2156489,"lng":-94.2557663,"hometown_city":"Greenwood","hometown_state":"AR"},{"name":"Zayden Walters","year":2026,"position":"IOL","stars":3,"rating_247":86.0,"committed_to":"Western Kentucky","lat":33.857328,"lng":-84.0199108,"hometown_city":"Snellville","hometown_state":"GA"},{"name":"Luke Hatfield","year":2026,"position":"IOL","stars":3,"rating_247":86.0,"committed_to":"Virginia","lat":38.8121398,"lng":-77.6368038,"hometown_city":"Haymarket","hometown_state":"VA"},{"name":"Bear McWhorter","year":2026,"position":"IOL","stars":null,"rating_247":85.0,"committed_to":"Auburn","lat":32.6415,"lng":-83.4426,"hometown_city":"White","hometown_state":"GA"},{"name":"Alexander Brewer","year":2026,"position":"IOL","stars":3,"rating_247":85.0,"committed_to":"Navy","lat":34.2367621,"lng":-84.4907621,"hometown_city":"Canton","hometown_state":"GA"},{"name":"Trinton Pritchett","year":2026,"position":"IOL","stars":3,"rating_247":85.0,"committed_to":"Troy","lat":32.6550905,"lng":-85.50364346309962,"hometown_city":"Auburn","hometown_state":"AL"},{"name":"Jayvon Perry","year":2026,"position":"IOL","stars":3,"rating_247":85.0,"committed_to":"Georgia Southern","lat":33.5670562,"lng":-84.5810418,"hometown_city":"Fairburn","hometown_state":"GA"},{"name":"Michael Price","year":2026,"position":"IOL","stars":3,"rating_247":85.0,"committed_to":"UCLA","lat":34.729847,"lng":-86.5859011,"hometown_city":"Huntsville","hometown_state":"AL"},{"name":"Eddie Alford","year":2026,"position":"IOL","stars":3,"rating_247":85.0,"committed_to":"Memphis","lat":33.7514966,"lng":-84.7477136,"hometown_city":"Douglasville","hometown_state":"GA"},{"name":"Camden Goforth","year":2026,"position":"IOL","stars":3,"rating_247":85.0,"committed_to":"West Virginia","lat":35.4428864,"lng":-84.5930113,"hometown_city":"Athens","hometown_state":"TN"},{"name":"Jacob Rathbone","year":2026,"position":"IOL","stars":3,"rating_247":85.0,"committed_to":"Central Arkansas","lat":35.925193,"lng":-86.8689365,"hometown_city":"Franklin","hometown_state":"TN"},{"name":"Carey Clayton","year":2026,"position":"IOL","stars":3,"rating_247":85.0,"committed_to":"Arkansas","lat":32.9412363,"lng":-97.1341783,"hometown_city":"Southlake","hometown_state":"TX"},{"name":"Langston Hogg","year":2026,"position":"IOL","stars":3,"rating_247":84.0,"committed_to":"Wake Forest","lat":34.1650972,"lng":-84.7999383,"hometown_city":"Cartersville","hometown_state":"GA"},{"name":"Ryley Kester","year":2026,"position":"IOL","stars":3,"rating_247":84.0,"committed_to":"Tulsa","lat":36.0228734,"lng":-95.9683278,"hometown_city":"Jenks","hometown_state":"OK"},{"name":"Nick Witherspoon","year":2026,"position":"IOL","stars":3,"rating_247":84.0,"committed_to":"Tulane","lat":33.2095614,"lng":-87.5675258,"hometown_city":"Tuscaloosa","hometown_state":"AL"},{"name":"Gunnar Goodwin","year":2026,"position":"IOL","stars":3,"rating_247":84.0,"committed_to":"Louisiana","lat":34.9343599,"lng":-88.5223353,"hometown_city":"Corinth","hometown_state":"MS"},{"name":"Chadrick Windham","year":2026,"position":"IOL","stars":3,"rating_247":84.0,"committed_to":"Jackson State","lat":33.1054039,"lng":-88.5608767,"hometown_city":"Macon","hometown_state":"MS"},{"name":"Cooper Sherrod","year":2026,"position":"IOL","stars":3,"rating_247":83.0,"committed_to":"Arkansas State","lat":35.042036,"lng":-89.6645266,"hometown_city":"Collierville","hometown_state":"TN"},{"name":"Kendarius Blair","year":2026,"position":"IOL","stars":3,"rating_247":82.0,"committed_to":"Jacksonville State","lat":33.5206824,"lng":-86.8024326,"hometown_city":"Birmingham","hometown_state":"AL"},{"name":"Brody McLeod","year":2026,"position":"IOL","stars":null,"rating_247":null,"committed_to":"Dartmouth","lat":28.6305,"lng":-82.4497,"hometown_city":"Ponte Vedra Beach","hometown_state":"FL"},{"name":"LaDamion Guyton","year":2026,"position":"Edge","stars":5,"rating_247":97.0,"committed_to":"Texas Tech","lat":32.0809263,"lng":-81.0911768,"hometown_city":"Savannah","hometown_state":"GA"},{"name":"Jamarion Matthews","year":2026,"position":"Edge","stars":4,"rating_247":96.0,"committed_to":"Alabama","lat":34.2978794,"lng":-83.8240663,"hometown_city":"Gainesville","hometown_state":"GA"},{"name":"Landon Barnes","year":2026,"position":"Edge","stars":4,"rating_247":94.0,"committed_to":"Mississippi","lat":32.6518004,"lng":-96.9083366,"hometown_city":"Duncanville","hometown_state":"TX"},{"name":"KJ Ford","year":2026,"position":"Edge","stars":4,"rating_247":92.0,"committed_to":"Florida","lat":32.6518004,"lng":-96.9083366,"hometown_city":"Duncanville","hometown_state":"TX"},{"name":"Zach Groves","year":2026,"position":"Edge","stars":4,"rating_247":92.0,"committed_to":"Tennessee","lat":36.5486597,"lng":-86.6961102,"hometown_city":"Cross Plains","hometown_state":"TN"},{"name":"Dre Quinn","year":2026,"position":"Edge","stars":4,"rating_247":91.0,"committed_to":"Ohio State","lat":34.1206564,"lng":-84.0043513,"hometown_city":"Buford","hometown_state":"GA"},{"name":"Breeze Carter","year":2026,"position":"Edge","stars":null,"rating_247":91.0,"committed_to":"Tennessee","lat":32.6415,"lng":-83.4426,"hometown_city":"Douglasville","hometown_state":"GA"},{"name":"Jalen Anderson","year":2026,"position":"Edge","stars":null,"rating_247":90.0,"committed_to":"Florida State","lat":32.7364,"lng":-89.6678,"hometown_city":"Poplarville","hometown_state":"MS"},{"name":"Darryl Rivers","year":2026,"position":"Edge","stars":3,"rating_247":89.0,"committed_to":"Tennessee","lat":33.8595492,"lng":-84.683824,"hometown_city":"Powder Springs","hometown_state":"GA"},{"name":"Tariq Boney","year":2026,"position":"Edge","stars":3,"rating_247":89.0,"committed_to":"Michigan","lat":38.8949855,"lng":-77.0365708,"hometown_city":"Washington","hometown_state":"DC"},{"name":"Hudson Woods","year":2026,"position":"Edge","stars":3,"rating_247":89.0,"committed_to":"SMU","lat":29.885073249999998,"lng":-98.4196833729311,"hometown_city":"Spring Branch","hometown_state":"TX"},{"name":"Mhari Johnson","year":2026,"position":"Edge","stars":null,"rating_247":88.0,"committed_to":"Alabama","lat":32.7794,"lng":-86.8287,"hometown_city":"Muscle Shoals","hometown_state":"AL"},{"name":"Cam Brooks","year":2026,"position":"Edge","stars":3,"rating_247":88.0,"committed_to":"Florida State","lat":30.8365815,"lng":-83.9787808,"hometown_city":"Thomasville","hometown_state":"GA"},{"name":"Jaylen Stewart","year":2026,"position":"Edge","stars":3,"rating_247":88.0,"committed_to":"Illinois","lat":29.5639758,"lng":-95.2864299,"hometown_city":"Pearland","hometown_state":"TX"},{"name":"Chris Carbin","year":2026,"position":"Edge","stars":3,"rating_247":88.0,"committed_to":"Florida State","lat":33.8595492,"lng":-84.683824,"hometown_city":"Powder Springs","hometown_state":"GA"},{"name":"Tristan Lyles","year":2026,"position":"Edge","stars":3,"rating_247":88.0,"committed_to":"Jacksonville State","lat":32.4709761,"lng":-85.0007653,"hometown_city":"Phenix City","hometown_state":"AL"},{"name":"Josh Warren Jr.","year":2026,"position":"Edge","stars":null,"rating_247":88.0,"committed_to":"North Carolina State","lat":32.6415,"lng":-83.4426,"hometown_city":"Milledgeville","hometown_state":"GA"},{"name":"Tucker Ashford","year":2026,"position":"Edge","stars":3,"rating_247":87.0,"committed_to":"Kansas State","lat":32.8342952,"lng":-97.2289029,"hometown_city":"North Richland Hills","hometown_state":"TX"},{"name":"Cory House","year":2026,"position":"Edge","stars":3,"rating_247":87.0,"committed_to":"Michigan State","lat":35.1490215,"lng":-90.0516285,"hometown_city":"Memphis","hometown_state":"TN"},{"name":"Amontre Harris","year":2026,"position":"Edge","stars":3,"rating_247":87.0,"committed_to":"SMU","lat":29.9988312,"lng":-95.2621553,"hometown_city":"Humble","hometown_state":"TX"},{"name":"Katrell Webb","year":2026,"position":"Edge","stars":3,"rating_247":87.0,"committed_to":"Purdue","lat":34.0514898,"lng":-84.0712997,"hometown_city":"Suwanee","hometown_state":"GA"},{"name":"Evan Harvey","year":2026,"position":"Edge","stars":3,"rating_247":87.0,"committed_to":"Memphis","lat":33.4713249,"lng":-84.5972005,"hometown_city":"Tyrone","hometown_state":"GA"},{"name":"Carter Kessler","year":2026,"position":"Edge","stars":3,"rating_247":87.0,"committed_to":"West Virginia","lat":40.8814452,"lng":-82.6618424,"hometown_city":"Shelby","hometown_state":"OH"},{"name":"Garrett Witherington","year":2026,"position":"Edge","stars":3,"rating_247":87.0,"committed_to":"Virginia Tech","lat":33.5206824,"lng":-86.8024326,"hometown_city":"Birmingham","hometown_state":"AL"},{"name":"Darius Wiley","year":2026,"position":"Edge","stars":null,"rating_247":87.0,"committed_to":"West Virginia","lat":38.4937,"lng":-98.3804,"hometown_city":"Hutchinson","hometown_state":"KS"},{"name":"Aiden Parker","year":2026,"position":"Edge","stars":3,"rating_247":86.0,"committed_to":"Coastal Carolina","lat":32.6550905,"lng":-85.50364346309962,"hometown_city":"Auburn","hometown_state":"AL"},{"name":"Gary Green","year":2026,"position":"Edge","stars":null,"rating_247":86.0,"committed_to":"Memphis","lat":32.6415,"lng":-83.4426,"hometown_city":"Warner Robins","hometown_state":"GA"},{"name":"Sager Quinn","year":2026,"position":"Edge","stars":null,"rating_247":85.0,"committed_to":"South Florida","lat":32.6415,"lng":-83.4426,"hometown_city":"Calhoun","hometown_state":"GA"},{"name":"Connor Coxwell","year":2026,"position":"Edge","stars":3,"rating_247":85.0,"committed_to":"Kennesaw State","lat":34.0514898,"lng":-84.0712997,"hometown_city":"Suwanee","hometown_state":"GA"},{"name":"Kacey Gilliam","year":2026,"position":"Edge","stars":3,"rating_247":84.0,"committed_to":"James Madison","lat":39.1434406,"lng":-77.2013705,"hometown_city":"Gaithersburg","hometown_state":"MD"},{"name":"Kijon Braxton","year":2026,"position":"Edge","stars":3,"rating_247":84.0,"committed_to":"Eastern Michigan","lat":33.5670562,"lng":-84.5810418,"hometown_city":"Fairburn","hometown_state":"GA"},{"name":"JaKambry Brown","year":2026,"position":"Edge","stars":3,"rating_247":84.0,"committed_to":"West Georgia","lat":32.6200973,"lng":-83.606568,"hometown_city":"Warner Robins","hometown_state":"GA"},{"name":"Montra Sanford","year":2026,"position":"Edge","stars":null,"rating_247":84.0,"committed_to":"Kennesaw State","lat":32.7364,"lng":-89.6678,"hometown_city":"Senatobia","hometown_state":"MS"},{"name":"Ryder Barnes","year":2026,"position":"Edge","stars":null,"rating_247":null,"committed_to":"Cal Poly","lat":37.1841,"lng":-119.4696,"hometown_city":"Irvine","hometown_state":"CA"},{"name":"Jaimeon Winfield","year":2026,"position":"DL","stars":4,"rating_247":98.0,"committed_to":"Southern California","lat":32.9481789,"lng":-96.7297206,"hometown_city":"Richardson","hometown_state":"TX"},{"name":"Deuce Geralds","year":2026,"position":"DL","stars":4,"rating_247":96.0,"committed_to":"Louisiana State","lat":34.0514898,"lng":-84.0712997,"hometown_city":"Suwanee","hometown_state":"GA"},{"name":"Aiden Harris","year":2026,"position":"DL","stars":4,"rating_247":95.0,"committed_to":"South Carolina","lat":35.1170873,"lng":-80.723718,"hometown_city":"Matthews","hometown_state":"NC"},{"name":"Nolan Wilson","year":2026,"position":"DL","stars":4,"rating_247":95.0,"committed_to":"Alabama","lat":30.5254692,"lng":-89.6795084,"hometown_city":"Picayune","hometown_state":"MS"},{"name":"Alister Vallejo","year":2026,"position":"DL","stars":4,"rating_247":94.0,"committed_to":"Michigan","lat":30.6649119,"lng":-97.9225161,"hometown_city":"Liberty Hill","hometown_state":"TX"},{"name":"Danny Beale III","year":2026,"position":"DL","stars":null,"rating_247":94.0,"committed_to":"Arkansas","lat":34.8938,"lng":-92.4426,"hometown_city":"Cherry Valley","hometown_state":"AR"},{"name":"Emanuel Ruffin","year":2026,"position":"DL","stars":4,"rating_247":93.0,"committed_to":"Ohio State","lat":33.3823635,"lng":-86.91720475,"hometown_city":"Bessemer","hometown_state":"AL"},{"name":"Vodney Cleveland","year":2026,"position":"DL","stars":4,"rating_247":92.0,"committed_to":"North Carolina","lat":33.5206824,"lng":-86.8024326,"hometown_city":"Birmingham","hometown_state":"AL"},{"name":"Earnest Rankins","year":2026,"position":"DL","stars":4,"rating_247":91.0,"committed_to":"Florida State","lat":33.7737582,"lng":-84.296069,"hometown_city":"Decatur","hometown_state":"GA"},{"name":"Dereon Albert","year":2026,"position":"DL","stars":4,"rating_247":91.0,"committed_to":"Tennessee","lat":32.2990384,"lng":-90.1847691,"hometown_city":"Jackson","hometown_state":"MS"},{"name":"Djidjou Bah","year":2026,"position":"DL","stars":3,"rating_247":90.0,"committed_to":"Wisconsin","lat":35.0867577,"lng":-89.8100858,"hometown_city":"Germantown","hometown_state":"TN"},{"name":"JaReylan McCoy","year":2026,"position":"DL","stars":4,"rating_247":89.0,"committed_to":"Florida","lat":34.2576067,"lng":-88.7033859,"hometown_city":"Tupelo","hometown_state":"MS"},{"name":"Carter Luckie","year":2026,"position":"DL","stars":4,"rating_247":89.0,"committed_to":"Georgia","lat":33.9412127,"lng":-84.2135309,"hometown_city":"Norcross","hometown_state":"GA"},{"name":"Andrew Harris","year":2026,"position":"DL","stars":4,"rating_247":89.0,"committed_to":"South Carolina","lat":35.1170873,"lng":-80.723718,"hometown_city":"Matthews","hometown_state":"NC"},{"name":"Tico Crittendon Jr.","year":2026,"position":"DL","stars":null,"rating_247":89.0,"committed_to":"Mississippi State","lat":32.6415,"lng":-83.4426,"hometown_city":"Lithonia","hometown_state":"GA"},{"name":"Jesse Ford","year":2026,"position":"DL","stars":4,"rating_247":88.0,"committed_to":"Texas Christian","lat":32.701938999999996,"lng":-97.10562379033699,"hometown_city":"Arlington","hometown_state":"TX"},{"name":"Daryl Campbell","year":2026,"position":"DL","stars":3,"rating_247":88.0,"committed_to":"Vanderbilt","lat":29.7857853,"lng":-95.8243956,"hometown_city":"Katy","hometown_state":"TX"},{"name":"Yahya Gaad","year":2026,"position":"DL","stars":3,"rating_247":88.0,"committed_to":"Wisconsin","lat":35.8028453,"lng":-88.7747808,"hometown_city":"Medina","hometown_state":"TN"},{"name":"Kam Cody","year":2026,"position":"DL","stars":null,"rating_247":88.0,"committed_to":"Clemson","lat":32.6415,"lng":-83.4426,"hometown_city":"Savannah","hometown_state":"GA"},{"name":"Jayden Curtis","year":2026,"position":"DL","stars":3,"rating_247":88.0,"committed_to":"Mississippi","lat":30.4112904,"lng":-88.8279165,"hometown_city":"Ocean Springs","hometown_state":"MS"},{"name":"Carnell Jackson","year":2026,"position":"DL","stars":3,"rating_247":88.0,"committed_to":"Kansas State","lat":32.6550905,"lng":-85.50364346309962,"hometown_city":"Auburn","hometown_state":"AL"},{"name":"Isaiah Broughton","year":2026,"position":"DL","stars":3,"rating_247":88.0,"committed_to":"Houston","lat":29.7589382,"lng":-95.3676974,"hometown_city":"Houston","hometown_state":"TX"},{"name":"Kirt Vakalahi","year":2026,"position":"DL","stars":null,"rating_247":88.0,"committed_to":"Arizona State","lat":34.4071,"lng":-106.1126,"hometown_city":"Roswell","hometown_state":"NM"},{"name":"Brian Harris","year":2026,"position":"DL","stars":3,"rating_247":87.0,"committed_to":"Oklahoma","lat":27.3027501,"lng":-80.4026589,"hometown_city":"St. Johns","hometown_state":"FL"},{"name":"Jake Johnson","year":2026,"position":"DL","stars":3,"rating_247":87.0,"committed_to":"Southern California","lat":33.2385763,"lng":-96.7866058,"hometown_city":"Prosper","hometown_state":"TX"},{"name":"Kordae Houston","year":2026,"position":"DL","stars":3,"rating_247":87.0,"committed_to":"Syracuse","lat":32.7762719,"lng":-96.7968559,"hometown_city":"Dallas","hometown_state":"TX"},{"name":"Blake Smythe","year":2026,"position":"DL","stars":3,"rating_247":87.0,"committed_to":"Indiana","lat":39.4806056,"lng":-86.0549863,"hometown_city":"Franklin","hometown_state":"IN"},{"name":"Cam Mallory","year":2026,"position":"DL","stars":null,"rating_247":87.0,"committed_to":"West Virginia","lat":32.7794,"lng":-86.8287,"hometown_city":"Moody","hometown_state":"AL"},{"name":"Marshall Smith","year":2026,"position":"DL","stars":3,"rating_247":87.0,"committed_to":"Memphis","lat":35.042036,"lng":-89.6645266,"hometown_city":"Collierville","hometown_state":"TN"},{"name":"Jaylen Thomas","year":2026,"position":"DL","stars":null,"rating_247":87.0,"committed_to":"West Virginia","lat":32.7364,"lng":-89.6678,"hometown_city":"Senatobia","hometown_state":"MS"},{"name":"Tyson Bacon","year":2026,"position":"DL","stars":3,"rating_247":86.0,"committed_to":"Miami","lat":33.3848933,"lng":-86.8070484,"hometown_city":"Hoover","hometown_state":"AL"},{"name":"Kaleb Morris","year":2026,"position":"DL","stars":3,"rating_247":86.0,"committed_to":"Mississippi State","lat":30.778688,"lng":-88.2588427,"hometown_city":"Semmes","hometown_state":"AL"},{"name":"Iverson Garcia-Ponce","year":2026,"position":"DL","stars":3,"rating_247":86.0,"committed_to":"South Florida","lat":36.0317472,"lng":-84.0279677,"hometown_city":"Powell","hometown_state":"TN"},{"name":"Jowhar Franklin","year":2026,"position":"DL","stars":null,"rating_247":86.0,"committed_to":null,"lat":38.4937,"lng":-98.3804,"hometown_city":"Dodge City","hometown_state":"KS"},{"name":"Darrius Simmons","year":2026,"position":"DL","stars":3,"rating_247":85.0,"committed_to":"Cincinnati","lat":30.6255617,"lng":-84.4153769,"hometown_city":"Havana","hometown_state":"FL"},{"name":"Jvon Hatcher","year":2026,"position":"DL","stars":3,"rating_247":85.0,"committed_to":"Northern Illinois","lat":26.4614625,"lng":-80.0728201,"hometown_city":"Delray Beach","hometown_state":"FL"},{"name":"Jamarion Owens","year":2026,"position":"DL","stars":3,"rating_247":85.0,"committed_to":"Mississippi","lat":32.033488,"lng":-89.5222911,"hometown_city":"Raleigh","hometown_state":"MS"},{"name":"Zakir Abdul-Salaam","year":2026,"position":"DL","stars":3,"rating_247":85.0,"committed_to":"Kennesaw State","lat":33.8595492,"lng":-84.683824,"hometown_city":"Powder Springs","hometown_state":"GA"},{"name":"Antonio Sandel-Bascomb","year":2026,"position":"DL","stars":null,"rating_247":85.0,"committed_to":"Arkansas","lat":38.4937,"lng":-98.3804,"hometown_city":"Coffeyville","hometown_state":"KS"},{"name":"James Morrow","year":2026,"position":"DL","stars":null,"rating_247":84.0,"committed_to":"Murray State","lat":28.6305,"lng":-82.4497,"hometown_city":"Bradenton","hometown_state":"FL"},{"name":"Jayden Arenas-Michel","year":2026,"position":"DL","stars":3,"rating_247":84.0,"committed_to":"Middle Tennessee","lat":35.0457219,"lng":-85.3094883,"hometown_city":"Chattanooga","hometown_state":"TN"},{"name":"Carson Dempsey","year":2026,"position":"DL","stars":3,"rating_247":83.0,"committed_to":"Tulsa","lat":32.69900905,"lng":-97.60396629774493,"hometown_city":"Aledo","hometown_state":"TX"},{"name":"Tyrone Fitten","year":2026,"position":"DL","stars":3,"rating_247":81.0,"committed_to":"Colorado State","lat":33.1731769,"lng":-84.914936,"hometown_city":"Hogansville","hometown_state":"GA"},{"name":"Mathaias Kalepo","year":2026,"position":"DL","stars":null,"rating_247":null,"committed_to":null,"lat":47.3826,"lng":-120.4472,"hometown_city":"Bellevue","hometown_state":"WA"},{"name":"Brysen Maxwell-Steele","year":2026,"position":"DL","stars":null,"rating_247":null,"committed_to":"Stephen F. Austin","lat":31.4757,"lng":-99.3312,"hometown_city":"Marlin","hometown_state":"TX"},{"name":"TJ White","year":2026,"position":"LB","stars":4,"rating_247":97.0,"committed_to":"Tennessee","lat":32.2990384,"lng":-90.1847691,"hometown_city":"Jackson","hometown_state":"MS"},{"name":"Tyler Atkinson","year":2026,"position":"LB","stars":5,"rating_247":97.0,"committed_to":"Texas","lat":33.8389977,"lng":-83.9007382,"hometown_city":"Loganville","hometown_state":"GA"},{"name":"Kosi Okpala","year":2026,"position":"LB","stars":4,"rating_247":96.0,"committed_to":"Texas","lat":29.7589382,"lng":-95.3676974,"hometown_city":"Houston","hometown_state":"TX"},{"name":"Qui Beck","year":2026,"position":"LB","stars":null,"rating_247":91.0,"committed_to":"Texas A&M","lat":31.4757,"lng":-99.3312,"hometown_city":"Carthage","hometown_state":"TX"},{"name":"Thomas Davis Jr.","year":2026,"position":"LB","stars":4,"rating_247":90.0,"committed_to":"Notre Dame","lat":35.1170873,"lng":-80.723718,"hometown_city":"Matthews","hometown_state":"NC"},{"name":"JJ Bush","year":2026,"position":"LB","stars":4,"rating_247":90.0,"committed_to":"Missouri","lat":30.547295,"lng":-88.18020367595204,"hometown_city":"Theodore","hometown_state":"AL"},{"name":"Shadarius Toodle","year":2026,"position":"LB","stars":4,"rating_247":90.0,"committed_to":"Auburn","lat":30.6943566,"lng":-88.0430541,"hometown_city":"Mobile","hometown_state":"AL"},{"name":"Calvin Thomas","year":2026,"position":"LB","stars":4,"rating_247":89.0,"committed_to":"North Carolina","lat":29.9691116,"lng":-95.6971686,"hometown_city":"Cypress","hometown_state":"TX"},{"name":"Monroe Partin","year":2026,"position":"LB","stars":3,"rating_247":89.0,"committed_to":"Wake Forest","lat":30.6035255,"lng":-87.9036047,"hometown_city":"Daphne","hometown_state":"AL"},{"name":"Ant Davis","year":2026,"position":"LB","stars":null,"rating_247":88.0,"committed_to":"Mississippi","lat":32.6415,"lng":-83.4426,"hometown_city":"Loganville","hometown_state":"GA"},{"name":"Billy Weivoda","year":2026,"position":"LB","stars":3,"rating_247":88.0,"committed_to":"Iowa","lat":34.0709576,"lng":-84.2747329,"hometown_city":"Alpharetta","hometown_state":"GA"},{"name":"Jakore Smith","year":2026,"position":"LB","stars":3,"rating_247":87.0,"committed_to":"Arkansas","lat":34.5959265,"lng":-92.4890469,"hometown_city":"Bryant","hometown_state":"AR"},{"name":"CJ Gamble","year":2026,"position":"LB","stars":3,"rating_247":87.0,"committed_to":"Georgia Tech","lat":33.5801103,"lng":-85.0766113,"hometown_city":"Carrollton","hometown_state":"GA"},{"name":"Ellis Alloway","year":2026,"position":"LB","stars":3,"rating_247":86.0,"committed_to":"Liberty","lat":30.4057552,"lng":-86.618842,"hometown_city":"Fort Walton Beach","hometown_state":"FL"},{"name":"Zay Hall","year":2026,"position":"LB","stars":3,"rating_247":86.0,"committed_to":"Alabama","lat":33.2095614,"lng":-87.5675258,"hometown_city":"Tuscaloosa","hometown_state":"AL"},{"name":"Kaden Catchings","year":2026,"position":"LB","stars":3,"rating_247":86.0,"committed_to":"Michigan","lat":32.3095903,"lng":-90.1389757,"hometown_city":"Flowood","hometown_state":"MS"},{"name":"Elijah Fernandez","year":2026,"position":"LB","stars":3,"rating_247":86.0,"committed_to":"Memphis","lat":35.925193,"lng":-86.8689365,"hometown_city":"Franklin","hometown_state":"TN"},{"name":"Jameson McCollough","year":2026,"position":"LB","stars":null,"rating_247":86.0,"committed_to":"Jacksonville State","lat":32.6415,"lng":-83.4426,"hometown_city":"Powder Springs","hometown_state":"GA"},{"name":"Rocky Dunn","year":2026,"position":"LB","stars":3,"rating_247":85.0,"committed_to":"Boise State","lat":33.2860549,"lng":-96.5725952,"hometown_city":"Melissa","hometown_state":"TX"},{"name":"Noah LaVallee","year":2026,"position":"LB","stars":3,"rating_247":85.0,"committed_to":"Florida State","lat":33.9528472,"lng":-84.5496148,"hometown_city":"Marietta","hometown_state":"GA"},{"name":"Omari Stephenson","year":2026,"position":"LB","stars":3,"rating_247":85.0,"committed_to":"Kennesaw State","lat":30.8365815,"lng":-83.9787808,"hometown_city":"Thomasville","hometown_state":"GA"},{"name":"Caleb Gordon","year":2026,"position":"LB","stars":3,"rating_247":85.0,"committed_to":"North Carolina State","lat":35.2622158,"lng":-81.1838794,"hometown_city":"Gastonia","hometown_state":"NC"},{"name":"Kadan Spratling","year":2026,"position":"LB","stars":3,"rating_247":85.0,"committed_to":"Memphis","lat":33.5801103,"lng":-85.0766113,"hometown_city":"Carrollton","hometown_state":"GA"},{"name":"Malachi Character","year":2026,"position":"LB","stars":null,"rating_247":85.0,"committed_to":"UAB","lat":32.6415,"lng":-83.4426,"hometown_city":"Thomaston","hometown_state":"GA"},{"name":"Japrei Wafer","year":2026,"position":"LB","stars":3,"rating_247":84.0,"committed_to":"Texas-El Paso","lat":33.1031744,"lng":-96.6705503,"hometown_city":"Allen","hometown_state":"TX"},{"name":"Amarion Jones","year":2026,"position":"LB","stars":3,"rating_247":84.0,"committed_to":"Kennesaw State","lat":33.5670562,"lng":-84.5810418,"hometown_city":"Fairburn","hometown_state":"GA"},{"name":"Desmond Cox","year":2026,"position":"LB","stars":3,"rating_247":83.0,"committed_to":"Memphis","lat":32.5117104,"lng":-96.80836332870047,"hometown_city":"Red Oak","hometown_state":"TX"},{"name":"JJ Clayton","year":2026,"position":"LB","stars":null,"rating_247":null,"committed_to":"Memphis","lat":38.4937,"lng":-98.3804,"hometown_city":"Garden City","hometown_state":"KS"},{"name":"Michael Dent III","year":2026,"position":"LB","stars":null,"rating_247":null,"committed_to":"Lafayette","lat":31.4757,"lng":-99.3312,"hometown_city":"Pflugerville","hometown_state":"TX"},{"name":"Joshua Madison","year":2026,"position":"LB","stars":null,"rating_247":null,"committed_to":null,"lat":40.0417,"lng":-89.1965,"hometown_city":"Olympia Fields","hometown_state":"IL"},{"name":"Kingston Dunagan","year":2026,"position":"LB","stars":null,"rating_247":null,"committed_to":null,"lat":40.0417,"lng":-89.1965,"hometown_city":"Joliet","hometown_state":"IL"},{"name":"Jorden Edmonds","year":2026,"position":"CB","stars":5,"rating_247":98.0,"committed_to":"Alabama","lat":33.9528472,"lng":-84.5496148,"hometown_city":"Marietta","hometown_state":"GA"},{"name":"Caden Harris","year":2026,"position":"CB","stars":4,"rating_247":95.0,"committed_to":"Georgia","lat":35.5939671,"lng":-89.262291,"hometown_city":"Brownsville","hometown_state":"TN"},{"name":"Dylan Purter","year":2026,"position":"CB","stars":4,"rating_247":92.0,"committed_to":"Florida","lat":32.4240286,"lng":-85.6916195,"hometown_city":"Tuskegee","hometown_state":"AL"},{"name":"Chaz Smith","year":2026,"position":"CB","stars":null,"rating_247":91.0,"committed_to":"Notre Dame","lat":35.858,"lng":-86.3505,"hometown_city":"Knoxville","hometown_state":"TN"},{"name":"Trae Stevenson Jr.","year":2026,"position":"CB","stars":null,"rating_247":90.0,"committed_to":"Georgia Tech","lat":32.6415,"lng":-83.4426,"hometown_city":"Quitman","hometown_state":"GA"},{"name":"Donovan Webb","year":2026,"position":"CB","stars":4,"rating_247":90.0,"committed_to":"Texas Tech","lat":33.1506744,"lng":-96.8236116,"hometown_city":"Frisco","hometown_state":"TX"},{"name":"Dorian Barney","year":2026,"position":"CB","stars":4,"rating_247":90.0,"committed_to":"Mississippi","lat":33.5801103,"lng":-85.0766113,"hometown_city":"Carrollton","hometown_state":"GA"},{"name":"Justin Hopkins","year":2026,"position":"CB","stars":3,"rating_247":89.0,"committed_to":"Minnesota","lat":36.1622296,"lng":-86.7743531,"hometown_city":"Nashville","hometown_state":"TN"},{"name":"Zach Taylor","year":2026,"position":"CB","stars":null,"rating_247":89.0,"committed_to":"Texas Christian","lat":31.4757,"lng":-99.3312,"hometown_city":"Fulshear","hometown_state":"TX"},{"name":"Kealan Jones","year":2026,"position":"CB","stars":3,"rating_247":89.0,"committed_to":"Georgia Tech","lat":33.9528472,"lng":-84.5496148,"hometown_city":"Marietta","hometown_state":"GA"},{"name":"Kaiden Hall","year":2026,"position":"CB","stars":4,"rating_247":88.0,"committed_to":"Florida","lat":30.6324149,"lng":-87.0396881,"hometown_city":"Milton","hometown_state":"FL"},{"name":"Xavier Harmon","year":2026,"position":"CB","stars":3,"rating_247":88.0,"committed_to":"Stanford","lat":30.3118769,"lng":-95.4560512,"hometown_city":"Conroe","hometown_state":"TX"},{"name":"Deuce Gilbert","year":2026,"position":"CB","stars":null,"rating_247":88.0,"committed_to":"SMU","lat":31.4757,"lng":-99.3312,"hometown_city":"Forney","hometown_state":"TX"},{"name":"Da'Ron Barksdale","year":2026,"position":"CB","stars":3,"rating_247":88.0,"committed_to":"Pittsburgh","lat":40.4059025,"lng":-79.9119948,"hometown_city":"Homestead","hometown_state":"PA"},{"name":"KJ Johnson","year":2026,"position":"CB","stars":3,"rating_247":88.0,"committed_to":"South Carolina","lat":33.5206824,"lng":-86.8024326,"hometown_city":"Birmingham","hometown_state":"AL"},{"name":"Victor Lincoln Jr.","year":2026,"position":"CB","stars":null,"rating_247":87.0,"committed_to":"Mississippi","lat":31.4757,"lng":-99.3312,"hometown_city":"Lancaster","hometown_state":"TX"},{"name":"TJ Umenyiora","year":2026,"position":"CB","stars":3,"rating_247":87.0,"committed_to":"Michigan State","lat":34.02332,"lng":-84.360022,"hometown_city":"Roswell","hometown_state":"GA"},{"name":"Camron Brown","year":2026,"position":"CB","stars":3,"rating_247":87.0,"committed_to":"Mississippi State","lat":30.8327022,"lng":-83.2784851,"hometown_city":"Valdosta","hometown_state":"GA"},{"name":"Raderrion Daniels","year":2026,"position":"CB","stars":3,"rating_247":87.0,"committed_to":"Purdue","lat":34.9042635,"lng":-90.2145395,"hometown_city":"Lake Cormorant","hometown_state":"MS"},{"name":"Jalon Copeland","year":2026,"position":"CB","stars":3,"rating_247":87.0,"committed_to":"Arkansas","lat":30.8327022,"lng":-83.2784851,"hometown_city":"Valdosta","hometown_state":"GA"},{"name":"Marcell Gipson Jr.","year":2026,"position":"CB","stars":null,"rating_247":87.0,"committed_to":"Clemson","lat":31.4757,"lng":-99.3312,"hometown_city":"Dallas","hometown_state":"TX"},{"name":"Jamyan Theodore","year":2026,"position":"CB","stars":3,"rating_247":87.0,"committed_to":"Tennessee","lat":35.0457219,"lng":-85.3094883,"hometown_city":"Chattanooga","hometown_state":"TN"},{"name":"Isaiah McMillian","year":2026,"position":"CB","stars":3,"rating_247":87.0,"committed_to":"Kentucky","lat":29.7857853,"lng":-95.8243956,"hometown_city":"Katy","hometown_state":"TX"},{"name":"DaQuwan Dunn","year":2026,"position":"CB","stars":3,"rating_247":87.0,"committed_to":"Arizona State","lat":32.9481789,"lng":-96.7297206,"hometown_city":"Richardson","hometown_state":"TX"},{"name":"Prince Jean","year":2026,"position":"CB","stars":3,"rating_247":86.0,"committed_to":"Kentucky","lat":30.8327022,"lng":-83.2784851,"hometown_city":"Valdosta","hometown_state":"GA"},{"name":"Elijah Keys","year":2026,"position":"CB","stars":3,"rating_247":86.0,"committed_to":"UCF","lat":30.311908,"lng":-81.3964734,"hometown_city":"Neptune Beach","hometown_state":"FL"},{"name":"Maliek Bracy","year":2026,"position":"CB","stars":3,"rating_247":86.0,"committed_to":"Oklahoma State","lat":33.110156,"lng":-97.17940980147037,"hometown_city":"Argyle","hometown_state":"TX"},{"name":"Kris Brunson","year":2026,"position":"CB","stars":3,"rating_247":86.0,"committed_to":"Louisville","lat":33.857328,"lng":-84.0199108,"hometown_city":"Snellville","hometown_state":"GA"},{"name":"Josiah Brown","year":2026,"position":"CB","stars":3,"rating_247":86.0,"committed_to":"Memphis","lat":30.421309,"lng":-87.2169149,"hometown_city":"Pensacola","hometown_state":"FL"},{"name":"Brody Jones","year":2026,"position":"CB","stars":3,"rating_247":86.0,"committed_to":"Missouri","lat":30.507956,"lng":-87.89742922432941,"hometown_city":"Fairhope","hometown_state":"AL"},{"name":"Kai Wheaton","year":2026,"position":"CB","stars":3,"rating_247":86.0,"committed_to":"Oregon State","lat":33.1031744,"lng":-96.6705503,"hometown_city":"Allen","hometown_state":"TX"},{"name":"LaRon Dues","year":2026,"position":"CB","stars":3,"rating_247":86.0,"committed_to":"James Madison","lat":27.3364347,"lng":-82.5306527,"hometown_city":"Sarasota","hometown_state":"FL"},{"name":"Jalen Williams","year":2026,"position":"CB","stars":3,"rating_247":86.0,"committed_to":"Arizona State","lat":33.9528472,"lng":-84.5496148,"hometown_city":"Marietta","hometown_state":"GA"},{"name":"Braylon Peebles","year":2026,"position":"CB","stars":3,"rating_247":86.0,"committed_to":"Furman","lat":35.7803977,"lng":-78.6390989,"hometown_city":"Raleigh","hometown_state":"NC"},{"name":"Jermaine McCree","year":2026,"position":"CB","stars":3,"rating_247":85.0,"committed_to":"Troy","lat":30.6943566,"lng":-88.0430541,"hometown_city":"Mobile","hometown_state":"AL"},{"name":"Jack Duckworth","year":2026,"position":"CB","stars":3,"rating_247":85.0,"committed_to":"Stanford","lat":32.9312336,"lng":-96.4597089,"hometown_city":"Rockwall","hometown_state":"TX"},{"name":"Rodarion Jones","year":2026,"position":"CB","stars":3,"rating_247":85.0,"committed_to":"Jacksonville State","lat":30.6255617,"lng":-84.4153769,"hometown_city":"Havana","hometown_state":"FL"},{"name":"Brandon Ford","year":2026,"position":"CB","stars":3,"rating_247":85.0,"committed_to":"Arkansas","lat":32.5782835,"lng":-97.3609829,"hometown_city":"Crowley","hometown_state":"TX"},{"name":"Tim Roberson","year":2026,"position":"CB","stars":null,"rating_247":85.0,"committed_to":"West Virginia","lat":42.0751,"lng":-93.496,"hometown_city":"Council Bluffs","hometown_state":"IA"},{"name":"Syncere Berry","year":2026,"position":"CB","stars":3,"rating_247":84.0,"committed_to":"Appalachian State","lat":33.7490987,"lng":-84.3901849,"hometown_city":"Atlanta","hometown_state":"GA"},{"name":"Yalik Carter","year":2026,"position":"CB","stars":3,"rating_247":84.0,"committed_to":null,"lat":39.4496857,"lng":-75.7166811,"hometown_city":"Middletown","hometown_state":"DE"},{"name":"Sean Williams","year":2026,"position":"CB","stars":3,"rating_247":84.0,"committed_to":"Florida Atlantic","lat":33.5670562,"lng":-84.5810418,"hometown_city":"Fairburn","hometown_state":"GA"},{"name":"Jayshaun Manary","year":2026,"position":"CB","stars":3,"rating_247":84.0,"committed_to":null,"lat":34.2010776,"lng":-118.5978259,"hometown_city":"Canoga Park","hometown_state":"CA"},{"name":"Michael Knight","year":2026,"position":"CB","stars":3,"rating_247":83.0,"committed_to":"Coastal Carolina","lat":33.4473361,"lng":-84.1468616,"hometown_city":"McDonough","hometown_state":"GA"},{"name":"Tai Terrell","year":2026,"position":"CB","stars":null,"rating_247":83.0,"committed_to":"Troy","lat":32.7364,"lng":-89.6678,"hometown_city":"Decatur","hometown_state":"MS"},{"name":"Xavier Ivey","year":2026,"position":"CB","stars":null,"rating_247":null,"committed_to":null,"lat":32.6415,"lng":-83.4426,"hometown_city":"Stone Mountain","hometown_state":"GA"},{"name":"Jordan Tarver","year":2026,"position":"CB","stars":null,"rating_247":null,"committed_to":null,"lat":28.6305,"lng":-82.4497,"hometown_city":"Auburndale","hometown_state":"FL"},{"name":"Braydon Hardiman","year":2026,"position":"CB","stars":null,"rating_247":null,"committed_to":null,"lat":32.7364,"lng":-89.6678,"hometown_city":"Grenada","hometown_state":"MS"},{"name":"Jordan Boston","year":2026,"position":"CB","stars":null,"rating_247":null,"committed_to":null,"lat":33.9169,"lng":-80.8964,"hometown_city":"Columbia","hometown_state":"SC"},{"name":"Yusef Colding","year":2026,"position":"CB","stars":null,"rating_247":null,"committed_to":"Jackson State","lat":32.7364,"lng":-89.6678,"hometown_city":"Ocean Springs","hometown_state":"MS"},{"name":"Bralan Womack","year":2026,"position":"S","stars":5,"rating_247":97.0,"committed_to":"Mississippi State","lat":32.3095903,"lng":-90.1389757,"hometown_city":"Flowood","hometown_state":"MS"},{"name":"Jordan Smith","year":2026,"position":"S","stars":4,"rating_247":94.0,"committed_to":"Georgia","lat":32.6200973,"lng":-83.606568,"hometown_city":"Warner Robins","hometown_state":"GA"},{"name":"Tylan Wilson","year":2026,"position":"S","stars":4,"rating_247":92.0,"committed_to":"Texas A&M","lat":30.3646795,"lng":-88.5585995,"hometown_city":"Pascagoula","hometown_state":"MS"},{"name":"Chance Collins","year":2026,"position":"S","stars":4,"rating_247":91.0,"committed_to":"Texas A&M","lat":32.701938999999996,"lng":-97.10562379033699,"hometown_city":"Arlington","hometown_state":"TX"},{"name":"Xavier Lherisse","year":2026,"position":"S","stars":4,"rating_247":91.0,"committed_to":"Oregon","lat":28.0836269,"lng":-80.6081089,"hometown_city":"Melbourne","hometown_state":"FL"},{"name":"Lasiah Jackson","year":2026,"position":"S","stars":4,"rating_247":91.0,"committed_to":"Stanford","lat":31.7324556,"lng":-84.1711966,"hometown_city":"Leesburg","hometown_state":"GA"},{"name":"Blake Stewart","year":2026,"position":"S","stars":3,"rating_247":90.0,"committed_to":"Georgia","lat":33.7490987,"lng":-84.3901849,"hometown_city":"Atlanta","hometown_state":"GA"},{"name":"Craig Tutt","year":2026,"position":"S","stars":4,"rating_247":90.0,"committed_to":"Mississippi","lat":35.845999,"lng":-86.3920452,"hometown_city":"Murfreesboro","hometown_state":"TN"},{"name":"Jordan Deck","year":2026,"position":"S","stars":4,"rating_247":90.0,"committed_to":"Michigan","lat":33.1506744,"lng":-96.8236116,"hometown_city":"Frisco","hometown_state":"TX"},{"name":"Jowell Combay","year":2026,"position":"S","stars":3,"rating_247":89.0,"committed_to":"Tennessee","lat":33.9528472,"lng":-84.5496148,"hometown_city":"Marietta","hometown_state":"GA"},{"name":"Jacob Curry","year":2026,"position":"S","stars":4,"rating_247":88.0,"committed_to":"Oklahoma","lat":30.2396865,"lng":-81.3856384,"hometown_city":"Ponte Vedra Beach","hometown_state":"FL"},{"name":"Cortez Redding","year":2026,"position":"S","stars":4,"rating_247":88.0,"committed_to":"Miami","lat":33.5215013,"lng":-84.3538128,"hometown_city":"Jonesboro","hometown_state":"GA"},{"name":"Preston Ashley","year":2026,"position":"S","stars":4,"rating_247":88.0,"committed_to":"Colorado","lat":32.2731475,"lng":-89.9868058,"hometown_city":"Brandon","hometown_state":"MS"},{"name":"Chace Calicut","year":2026,"position":"S","stars":4,"rating_247":88.0,"committed_to":"Georgia Southern","lat":29.7589382,"lng":-95.3676974,"hometown_city":"Houston","hometown_state":"TX"},{"name":"Darnell Collins","year":2026,"position":"S","stars":3,"rating_247":88.0,"committed_to":"Georgia Tech","lat":34.257038,"lng":-85.1646726,"hometown_city":"Rome","hometown_state":"GA"},{"name":"Jakai Anderson","year":2026,"position":"S","stars":4,"rating_247":88.0,"committed_to":"SMU","lat":29.9499323,"lng":-90.0701156,"hometown_city":"New Orleans","hometown_state":"LA"},{"name":"Markell Taylor","year":2026,"position":"S","stars":3,"rating_247":88.0,"committed_to":"Cincinnati","lat":33.9237141,"lng":-84.8407732,"hometown_city":"Dallas","hometown_state":"GA"},{"name":"Markel Ford","year":2026,"position":"S","stars":3,"rating_247":88.0,"committed_to":"Oklahoma","lat":32.7666103,"lng":-96.599472,"hometown_city":"Mesquite","hometown_state":"TX"},{"name":"Jamarrion Gordon","year":2026,"position":"S","stars":3,"rating_247":88.0,"committed_to":"North Carolina","lat":31.5090521,"lng":-87.8944435,"hometown_city":"Jackson","hometown_state":"AL"},{"name":"Isaiah Williams","year":2026,"position":"S","stars":3,"rating_247":88.0,"committed_to":"Illinois","lat":38.6779591,"lng":-121.1760583,"hometown_city":"Folsom","hometown_state":"CA"},{"name":"Chino Aguirre","year":2026,"position":"S","stars":null,"rating_247":88.0,"committed_to":"North Carolina State","lat":32.6415,"lng":-83.4426,"hometown_city":"Locust Grove","hometown_state":"GA"},{"name":"Bradley Brown","year":2026,"position":"S","stars":3,"rating_247":87.0,"committed_to":"Vanderbilt","lat":33.0136764,"lng":-96.6925096,"hometown_city":"Plano","hometown_state":"TX"},{"name":"Jamar Owens","year":2026,"position":"S","stars":3,"rating_247":87.0,"committed_to":"Indiana","lat":33.7514966,"lng":-84.7477136,"hometown_city":"Douglasville","hometown_state":"GA"},{"name":"Djimon McLendon","year":2026,"position":"S","stars":3,"rating_247":87.0,"committed_to":"East Carolina","lat":33.8532701,"lng":-84.2200729,"hometown_city":"Tucker","hometown_state":"GA"},{"name":"Tony Forney","year":2026,"position":"S","stars":3,"rating_247":87.0,"committed_to":"Pittsburgh","lat":33.9528472,"lng":-84.5496148,"hometown_city":"Marietta","hometown_state":"GA"},{"name":"Zeke Marshall","year":2026,"position":"S","stars":3,"rating_247":87.0,"committed_to":"Coastal Carolina","lat":34.97479,"lng":-83.30549,"hometown_city":"Rabun Gap","hometown_state":"GA"},{"name":"Kolby Barrett","year":2026,"position":"S","stars":3,"rating_247":86.0,"committed_to":"Mississippi State","lat":35.0457219,"lng":-85.3094883,"hometown_city":"Chattanooga","hometown_state":"TN"},{"name":"Johnny Moody","year":2026,"position":"S","stars":3,"rating_247":86.0,"committed_to":"Memphis","lat":33.5206824,"lng":-86.8024326,"hometown_city":"Birmingham","hometown_state":"AL"},{"name":"David Coleman Jr.","year":2026,"position":"S","stars":3,"rating_247":86.0,"committed_to":"East Carolina","lat":30.7999563,"lng":-81.6898261,"hometown_city":"Kingsland","hometown_state":"GA"},{"name":"Tylen Mathews","year":2026,"position":"S","stars":3,"rating_247":86.0,"committed_to":"Nevada, Las Vegas","lat":34.9042635,"lng":-90.2145395,"hometown_city":"Lake Cormorant","hometown_state":"MS"},{"name":"Tim Sims","year":2026,"position":"S","stars":3,"rating_247":86.0,"committed_to":"Memphis","lat":33.3870578,"lng":-84.2829784,"hometown_city":"Hampton","hometown_state":"GA"},{"name":"Justis Haggard","year":2026,"position":"S","stars":null,"rating_247":86.0,"committed_to":"Middle Tennessee","lat":35.858,"lng":-86.3505,"hometown_city":"Murfreesboro","hometown_state":"TN"},{"name":"Braylon Edwards","year":2026,"position":"S","stars":3,"rating_247":85.0,"committed_to":"Colorado","lat":32.6518004,"lng":-96.9083366,"hometown_city":"Duncanville","hometown_state":"TX"},{"name":"Rickey Giles Jr.","year":2026,"position":"S","stars":null,"rating_247":85.0,"committed_to":"West Virginia","lat":31.4757,"lng":-99.3312,"hometown_city":"Dallas","hometown_state":"TX"},{"name":"Shondell Harris","year":2026,"position":"S","stars":3,"rating_247":85.0,"committed_to":"Jacksonville State","lat":30.778688,"lng":-88.2588427,"hometown_city":"Semmes","hometown_state":"AL"},{"name":"Caleb Carson","year":2026,"position":"S","stars":3,"rating_247":85.0,"committed_to":"Stanford","lat":33.3870578,"lng":-84.2829784,"hometown_city":"Hampton","hometown_state":"GA"},{"name":"Carter Stewart","year":2026,"position":"S","stars":3,"rating_247":84.0,"committed_to":"Missouri","lat":29.5639758,"lng":-95.2864299,"hometown_city":"Pearland","hometown_state":"TX"},{"name":"Zechariah Hall","year":2026,"position":"S","stars":null,"rating_247":83.0,"committed_to":"South Alabama","lat":28.6305,"lng":-82.4497,"hometown_city":"Havana","hometown_state":"FL"},{"name":"Taron Essex","year":2026,"position":"S","stars":3,"rating_247":83.0,"committed_to":"Western Kentucky","lat":33.7737582,"lng":-84.296069,"hometown_city":"Decatur","hometown_state":"GA"},{"name":"Nick Burden","year":2026,"position":"S","stars":3,"rating_247":82.0,"committed_to":"Memphis","lat":33.3870578,"lng":-84.2829784,"hometown_city":"Hampton","hometown_state":"GA"},{"name":"Vondarius Lane Jr.","year":2026,"position":"S","stars":null,"rating_247":null,"committed_to":"West Florida","lat":28.6305,"lng":-82.4497,"hometown_city":"Lake City","hometown_state":"FL"},{"name":"Stephen Barjolo","year":2026,"position":"S","stars":null,"rating_247":null,"committed_to":null,"lat":32.6415,"lng":-83.4426,"hometown_city":"Suwanee","hometown_state":"GA"},{"name":"Robert Tyson","year":2026,"position":"S","stars":null,"rating_247":null,"committed_to":null,"lat":32.6415,"lng":-83.4426,"hometown_city":"Marietta","hometown_state":"GA"},{"name":"Tristian Givens","year":2026,"position":"ATH","stars":4,"rating_247":97.0,"committed_to":"Texas A&M","lat":32.4609764,"lng":-84.9877094,"hometown_city":"Columbus","hometown_state":"GA"},{"name":"Zyan Gibson","year":2026,"position":"ATH","stars":4,"rating_247":96.0,"committed_to":"Alabama","lat":34.010929,"lng":-85.9989596,"hometown_city":"Gadsden","hometown_state":"AL"},{"name":"Brayden Rouse","year":2026,"position":"ATH","stars":4,"rating_247":96.0,"committed_to":"Tennessee","lat":33.9528472,"lng":-84.5496148,"hometown_city":"Marietta","hometown_state":"GA"},{"name":"Paris Melvin Jr.","year":2026,"position":"ATH","stars":4,"rating_247":94.0,"committed_to":"Houston","lat":29.9691116,"lng":-95.6971686,"hometown_city":"Cypress","hometown_state":"TX"},{"name":"Legend Bey","year":2026,"position":"ATH","stars":4,"rating_247":93.0,"committed_to":"Ohio State","lat":32.747893,"lng":-96.4719289,"hometown_city":"Forney","hometown_state":"TX"},{"name":"Tyriq Green","year":2026,"position":"ATH","stars":4,"rating_247":93.0,"committed_to":"Georgia","lat":34.1206564,"lng":-84.0043513,"hometown_city":"Buford","hometown_state":"GA"},{"name":"Justin Williams","year":2026,"position":"ATH","stars":4,"rating_247":92.0,"committed_to":"Florida","lat":29.6519684,"lng":-82.3249846,"hometown_city":"Gainesville","hometown_state":"FL"},{"name":"Terrell Johnson Jr.","year":2026,"position":"ATH","stars":3,"rating_247":89.0,"committed_to":"Mississippi State","lat":33.1131834,"lng":-90.0531408,"hometown_city":"Lexington","hometown_state":"MS"},{"name":"Walker Bryson","year":2026,"position":"ATH","stars":3,"rating_247":89.0,"committed_to":"Wake Forest","lat":34.97479,"lng":-83.30549,"hometown_city":"Rabun Gap","hometown_state":"GA"},{"name":"Jontavius Wyman","year":2026,"position":"ATH","stars":4,"rating_247":88.0,"committed_to":"Miami","lat":33.5215013,"lng":-84.3538128,"hometown_city":"Jonesboro","hometown_state":"GA"},{"name":"Daylen Green","year":2026,"position":"ATH","stars":3,"rating_247":87.0,"committed_to":"Florida State","lat":30.5871948,"lng":-84.5832619,"hometown_city":"Quincy","hometown_state":"FL"},{"name":"Aaron Bradshaw","year":2026,"position":"ATH","stars":3,"rating_247":87.0,"committed_to":"Texas Tech","lat":32.753177,"lng":-97.3327459,"hometown_city":"Fort Worth","hometown_state":"TX"},{"name":"Xavier Butler","year":2026,"position":"ATH","stars":3,"rating_247":87.0,"committed_to":"Georgia State","lat":33.7123305,"lng":-84.1051939,"hometown_city":"Lithonia","hometown_state":"GA"},{"name":"Caleb Smith","year":2026,"position":"ATH","stars":3,"rating_247":87.0,"committed_to":"Arizona","lat":33.1031744,"lng":-96.6705503,"hometown_city":"Allen","hometown_state":"TX"},{"name":"Braylen Williams","year":2026,"position":"ATH","stars":3,"rating_247":86.0,"committed_to":"Mississippi","lat":34.2576067,"lng":-88.7033859,"hometown_city":"Tupelo","hometown_state":"MS"},{"name":"Zion Legree","year":2026,"position":"ATH","stars":3,"rating_247":86.0,"committed_to":"Wisconsin","lat":30.4057552,"lng":-86.618842,"hometown_city":"Fort Walton Beach","hometown_state":"FL"},{"name":"Dana Greenhow","year":2026,"position":"ATH","stars":3,"rating_247":86.0,"committed_to":"Purdue","lat":33.4713249,"lng":-84.5972005,"hometown_city":"Tyrone","hometown_state":"GA"},{"name":"Tanner West","year":2026,"position":"ATH","stars":3,"rating_247":85.0,"committed_to":"Kansas State","lat":29.690292,"lng":-95.8996261,"hometown_city":"Fulshear","hometown_state":"TX"},{"name":"Jeremiah Roux","year":2026,"position":"ATH","stars":3,"rating_247":85.0,"committed_to":"Troy","lat":33.5215013,"lng":-84.3538128,"hometown_city":"Jonesboro","hometown_state":"GA"},{"name":"JT Barlow","year":2026,"position":"ATH","stars":3,"rating_247":85.0,"committed_to":"Memphis","lat":31.4334994,"lng":-86.9569176,"hometown_city":"Evergreen","hometown_state":"AL"},{"name":"Zechariah Morris","year":2026,"position":"ATH","stars":3,"rating_247":85.0,"committed_to":null,"lat":41.9125286,"lng":-88.1347927,"hometown_city":"Carol Stream","hometown_state":"IL"},{"name":"Cedarius Christian","year":2026,"position":"ATH","stars":3,"rating_247":83.0,"committed_to":"Bowling Green","lat":27.9014133,"lng":-81.5859099,"hometown_city":"Lake Wales","hometown_state":"FL"},{"name":"Camen Upshaw","year":2026,"position":"ATH","stars":3,"rating_247":83.0,"committed_to":"South Alabama","lat":30.8327022,"lng":-83.2784851,"hometown_city":"Valdosta","hometown_state":"GA"},{"name":"Damian Horace","year":2026,"position":"ATH","stars":3,"rating_247":82.0,"committed_to":"Air Force","lat":30.3118769,"lng":-95.4560512,"hometown_city":"Conroe","hometown_state":"TX"},{"name":"Jamarcus Jones","year":2026,"position":"ATH","stars":3,"rating_247":82.0,"committed_to":"Buffalo","lat":39.9622601,"lng":-83.0007065,"hometown_city":"Columbus","hometown_state":"OH"},{"name":"Kameron Mills","year":2026,"position":"ATH","stars":null,"rating_247":null,"committed_to":null,"lat":28.6305,"lng":-82.4497,"hometown_city":"Lake City","hometown_state":"FL"},{"name":"Risan Smith","year":2026,"position":"ATH","stars":null,"rating_247":null,"committed_to":null,"lat":39.055,"lng":-76.7909,"hometown_city":"Springdale","hometown_state":"MD"},{"name":"Terry Dorsey","year":2026,"position":"ATH","stars":null,"rating_247":null,"committed_to":null,"lat":39.055,"lng":-76.7909,"hometown_city":"Hyattsville","hometown_state":"MD"},{"name":"Jamarcus Davis","year":2026,"position":"ATH","stars":null,"rating_247":null,"committed_to":null,"lat":32.6415,"lng":-83.4426,"hometown_city":"Columbus","hometown_state":"GA"},{"name":"Asher Murray","year":2026,"position":"K","stars":3,"rating_247":81.0,"committed_to":"Texas A&M","lat":32.5221828,"lng":-93.7651944,"hometown_city":"Shreveport","hometown_state":"LA"},{"name":"Jake Snyder","year":2026,"position":"P","stars":3,"rating_247":80.0,"committed_to":"Memphis","lat":34.0709576,"lng":-84.2747329,"hometown_city":"Alpharetta","hometown_state":"GA"}],"2027":[{"name":"Keegan Croucher","year":2027,"position":"QB","stars":null,"rating_247":91.0,"committed_to":"Mississippi","lat":35.858,"lng":-86.3505,"hometown_city":"Chattanooga","hometown_state":"TN"},{"name":"Jack Sorgi","year":2027,"position":"QB","stars":null,"rating_247":89.0,"committed_to":"Wisconsin","lat":39.8942,"lng":-86.2816,"hometown_city":"Lizton","hometown_state":"IN"},{"name":"Andre Adams","year":2027,"position":"QB","stars":null,"rating_247":89.0,"committed_to":"Colorado","lat":35.858,"lng":-86.3505,"hometown_city":"Antioch","hometown_state":"TN"},{"name":"Cameron Kruse","year":2027,"position":"QB","stars":null,"rating_247":88.0,"committed_to":"Kansas State","lat":35.858,"lng":-86.3505,"hometown_city":"Franklin","hometown_state":"TN"},{"name":"Dane Weber","year":2027,"position":"QB","stars":null,"rating_247":88.0,"committed_to":"California","lat":37.1841,"lng":-119.4696,"hometown_city":"Temecula","hometown_state":"CA"},{"name":"Brodie Campbell","year":2027,"position":"QB","stars":null,"rating_247":88.0,"committed_to":"Georgia Tech","lat":32.6415,"lng":-83.4426,"hometown_city":"Newnan","hometown_state":"GA"},{"name":"DJ Hunter","year":2027,"position":"QB","stars":null,"rating_247":87.0,"committed_to":null,"lat":32.6415,"lng":-83.4426,"hometown_city":"Buford","hometown_state":"GA"},{"name":"James Perrone","year":2027,"position":"QB","stars":null,"rating_247":86.0,"committed_to":"East Carolina","lat":28.6305,"lng":-82.4497,"hometown_city":"Miami","hometown_state":"FL"},{"name":"Logan Flaherty","year":2027,"position":"QB","stars":null,"rating_247":86.0,"committed_to":"Florida State","lat":28.6305,"lng":-82.4497,"hometown_city":"Port Charlotte","hometown_state":"FL"},{"name":"Cain Price","year":2027,"position":"QB","stars":null,"rating_247":86.0,"committed_to":"Texas State","lat":34.8938,"lng":-92.4426,"hometown_city":"Stuttgart","hometown_state":"AR"},{"name":"Cason Myers","year":2027,"position":"QB","stars":null,"rating_247":86.0,"committed_to":"Arkansas","lat":32.7794,"lng":-86.8287,"hometown_city":"Auburn","hometown_state":"AL"},{"name":"Brody Brenneman","year":2027,"position":"QB","stars":null,"rating_247":85.0,"committed_to":null,"lat":28.6305,"lng":-82.4497,"hometown_city":"Lakeland","hometown_state":"FL"},{"name":"Caden Gutzmer","year":2027,"position":"QB","stars":null,"rating_247":85.0,"committed_to":"North Dakota","lat":46.2807,"lng":-94.3053,"hometown_city":"Minnetonka","hometown_state":"MN"},{"name":"Crews Jenkins","year":2027,"position":"QB","stars":null,"rating_247":85.0,"committed_to":"Mississippi","lat":35.858,"lng":-86.3505,"hometown_city":"Brentwood","hometown_state":"TN"},{"name":"Jerry Meyer III","year":2027,"position":"QB","stars":null,"rating_247":85.0,"committed_to":"South Carolina","lat":31.4757,"lng":-99.3312,"hometown_city":"Waxahachie","hometown_state":"TX"},{"name":"Brayden Santibanez","year":2027,"position":"QB","stars":null,"rating_247":85.0,"committed_to":"Iowa","lat":35.858,"lng":-86.3505,"hometown_city":"Collierville","hometown_state":"TN"},{"name":"Furian Inferrera","year":2027,"position":"QB","stars":null,"rating_247":84.0,"committed_to":"Minnesota","lat":37.1841,"lng":-119.4696,"hometown_city":"San Marcos","hometown_state":"CA"},{"name":"Kentsten Staten","year":2027,"position":"QB","stars":null,"rating_247":null,"committed_to":null,"lat":40.2862,"lng":-82.7937,"hometown_city":"Bedford","hometown_state":"OH"},{"name":"LJ Funk","year":2027,"position":"QB","stars":null,"rating_247":null,"committed_to":"Toledo","lat":35.858,"lng":-86.3505,"hometown_city":"Nashville","hometown_state":"TN"},{"name":"Ethan Tisdale","year":2027,"position":"QB","stars":null,"rating_247":null,"committed_to":"Memphis","lat":32.6415,"lng":-83.4426,"hometown_city":"Franklin","hometown_state":"GA"},{"name":"Dallas Covington","year":2027,"position":"QB","stars":null,"rating_247":null,"committed_to":null,"lat":35.858,"lng":-86.3505,"hometown_city":"Nashville","hometown_state":"TN"},{"name":"Ryan Harrigan","year":2027,"position":"QB","stars":null,"rating_247":null,"committed_to":"Charlotte","lat":32.6415,"lng":-83.4426,"hometown_city":"College Park","hometown_state":"GA"},{"name":"Sebastian Galeano","year":2027,"position":"QB","stars":null,"rating_247":null,"committed_to":"Yale","lat":28.6305,"lng":-82.4497,"hometown_city":"Oviedo","hometown_state":"FL"},{"name":"Johnathan Phillips","year":2027,"position":"QB","stars":null,"rating_247":null,"committed_to":"Army","lat":31.4757,"lng":-99.3312,"hometown_city":"Dallas","hometown_state":"TX"},{"name":"Landen Williams-Callis","year":2027,"position":"RB","stars":null,"rating_247":95.0,"committed_to":null,"lat":31.4757,"lng":-99.3312,"hometown_city":"Richmond","hometown_state":"TX"},{"name":"Gary Walker","year":2027,"position":"RB","stars":null,"rating_247":91.0,"committed_to":"Clemson","lat":32.6415,"lng":-83.4426,"hometown_city":"Fairburn","hometown_state":"GA"},{"name":"Brayden Tyson","year":2027,"position":"RB","stars":null,"rating_247":90.0,"committed_to":"South Carolina","lat":32.6415,"lng":-83.4426,"hometown_city":"Snellville","hometown_state":"GA"},{"name":"Caden Waye","year":2027,"position":"RB","stars":null,"rating_247":89.0,"committed_to":null,"lat":32.6415,"lng":-83.4426,"hometown_city":"McDonough","hometown_state":"GA"},{"name":"Quinterrius Gipson","year":2027,"position":"RB","stars":null,"rating_247":89.0,"committed_to":"Georgia Tech","lat":32.6415,"lng":-83.4426,"hometown_city":"Marietta","hometown_state":"GA"},{"name":"Javian Jones-Priest","year":2027,"position":"RB","stars":null,"rating_247":89.0,"committed_to":"Virginia Tech","lat":31.4757,"lng":-99.3312,"hometown_city":"Arlington","hometown_state":"TX"},{"name":"Brennen Lacey","year":2027,"position":"RB","stars":null,"rating_247":88.0,"committed_to":"Louisiana State","lat":31.4757,"lng":-99.3312,"hometown_city":"Frisco","hometown_state":"TX"},{"name":"Aymaud Sykes","year":2027,"position":"RB","stars":null,"rating_247":88.0,"committed_to":null,"lat":31.0689,"lng":-91.9968,"hometown_city":"Dry Prong","hometown_state":"LA"},{"name":"Abdul Turay","year":2027,"position":"RB","stars":null,"rating_247":88.0,"committed_to":null,"lat":40.1907,"lng":-74.6728,"hometown_city":"Jersey City","hometown_state":"NJ"},{"name":"Jeremiah Dent","year":2027,"position":"RB","stars":null,"rating_247":88.0,"committed_to":"Arkansas","lat":34.8938,"lng":-92.4426,"hometown_city":"Marion","hometown_state":"AR"},{"name":"Kelsey Gerald","year":2027,"position":"RB","stars":null,"rating_247":87.0,"committed_to":"Kentucky","lat":28.6305,"lng":-82.4497,"hometown_city":"Lantana","hometown_state":"FL"},{"name":"Terrance Grant Jr.","year":2027,"position":"RB","stars":null,"rating_247":87.0,"committed_to":"Maryland","lat":39.055,"lng":-76.7909,"hometown_city":"Hyattsville","hometown_state":"MD"},{"name":"Correll Buckhalter Jr.","year":2027,"position":"RB","stars":null,"rating_247":87.0,"committed_to":"Kansas State","lat":31.4757,"lng":-99.3312,"hometown_city":"Argyle","hometown_state":"TX"},{"name":"Deron Foster","year":2027,"position":"RB","stars":null,"rating_247":87.0,"committed_to":null,"lat":32.6415,"lng":-83.4426,"hometown_city":"Valdosta","hometown_state":"GA"},{"name":"Kylan Bobo","year":2027,"position":"RB","stars":null,"rating_247":87.0,"committed_to":null,"lat":32.7364,"lng":-89.6678,"hometown_city":"Tupelo","hometown_state":"MS"},{"name":"Kamari Holloway","year":2027,"position":"RB","stars":null,"rating_247":87.0,"committed_to":null,"lat":35.5557,"lng":-79.3877,"hometown_city":"Durham","hometown_state":"NC"},{"name":"Ninaud Joseph","year":2027,"position":"RB","stars":null,"rating_247":86.0,"committed_to":null,"lat":28.6305,"lng":-82.4497,"hometown_city":"Naples","hometown_state":"FL"},{"name":"Mikel Stephen","year":2027,"position":"RB","stars":null,"rating_247":86.0,"committed_to":"Duke","lat":32.7364,"lng":-89.6678,"hometown_city":"Madison","hometown_state":"MS"},{"name":"Amos Bradford","year":2027,"position":"RB","stars":null,"rating_247":86.0,"committed_to":"Purdue","lat":28.6305,"lng":-82.4497,"hometown_city":"Hollywood","hometown_state":"FL"},{"name":"Antwon Sanders","year":2027,"position":"RB","stars":null,"rating_247":86.0,"committed_to":"California","lat":31.4757,"lng":-99.3312,"hometown_city":"Houston","hometown_state":"TX"},{"name":"Ezra Sanelivi","year":2027,"position":"RB","stars":null,"rating_247":86.0,"committed_to":"BYU","lat":39.3289,"lng":-116.6312,"hometown_city":"Henderson","hometown_state":"NV"},{"name":"Carter Wallace","year":2027,"position":"RB","stars":null,"rating_247":85.0,"committed_to":"Arkansas State","lat":34.8938,"lng":-92.4426,"hometown_city":"Jonesboro","hometown_state":"AR"},{"name":"James Bell","year":2027,"position":"RB","stars":null,"rating_247":85.0,"committed_to":null,"lat":40.0417,"lng":-89.1965,"hometown_city":"Chicago","hometown_state":"IL"},{"name":"Cantrell Eubanks","year":2027,"position":"RB","stars":null,"rating_247":84.0,"committed_to":null,"lat":39.3289,"lng":-116.6312,"hometown_city":"Las Vegas","hometown_state":"NV"},{"name":"CJ Cowley","year":2027,"position":"RB","stars":null,"rating_247":null,"committed_to":null,"lat":32.7794,"lng":-86.8287,"hometown_city":"Alabaster","hometown_state":"AL"},{"name":"Austin Stinson","year":2027,"position":"RB","stars":null,"rating_247":null,"committed_to":null,"lat":32.6415,"lng":-83.4426,"hometown_city":"Warner Robins","hometown_state":"GA"},{"name":"Jaxon Keys","year":2027,"position":"RB","stars":null,"rating_247":null,"committed_to":null,"lat":37.5215,"lng":-78.8537,"hometown_city":"Blacksburg","hometown_state":"VA"},{"name":"Julian Baker","year":2027,"position":"RB","stars":null,"rating_247":null,"committed_to":"Kent State","lat":40.2862,"lng":-82.7937,"hometown_city":"Washington Court House","hometown_state":"OH"},{"name":"Brayden Maples","year":2027,"position":"RB","stars":null,"rating_247":null,"committed_to":null,"lat":35.858,"lng":-86.3505,"hometown_city":"Gatlinburg","hometown_state":"TN"},{"name":"JoJo Accelus","year":2027,"position":"RB","stars":null,"rating_247":null,"committed_to":"Appalachian State","lat":34.8938,"lng":-92.4426,"hometown_city":"Monticello","hometown_state":"AR"},{"name":"Omari St. Fort","year":2027,"position":"RB","stars":null,"rating_247":null,"committed_to":null,"lat":28.6305,"lng":-82.4497,"hometown_city":"Delray Beach","hometown_state":"FL"},{"name":"Larry Johnson","year":2027,"position":"RB","stars":null,"rating_247":null,"committed_to":null,"lat":35.858,"lng":-86.3505,"hometown_city":"Collierville","hometown_state":"TN"},{"name":"Steven Alexis","year":2027,"position":"RB","stars":null,"rating_247":null,"committed_to":"Colorado","lat":28.6305,"lng":-82.4497,"hometown_city":"St. Petersburg","hometown_state":"FL"},{"name":"Jamarin Simmons","year":2027,"position":"WR","stars":null,"rating_247":98.0,"committed_to":"Clemson","lat":28.6305,"lng":-82.4497,"hometown_city":"Tallahassee","hometown_state":"FL"},{"name":"Jaden Upshaw","year":2027,"position":"WR","stars":null,"rating_247":94.0,"committed_to":"Texas A&M","lat":32.6415,"lng":-83.4426,"hometown_city":"Leesburg","hometown_state":"GA"},{"name":"Roye Oliver III","year":2027,"position":"WR","stars":null,"rating_247":93.0,"committed_to":"Southern California","lat":34.2744,"lng":-111.6602,"hometown_city":"Chandler","hometown_state":"AZ"},{"name":"Elias Pearl","year":2027,"position":"WR","stars":null,"rating_247":92.0,"committed_to":"Florida","lat":28.6305,"lng":-82.4497,"hometown_city":"Port Charlotte","hometown_state":"FL"},{"name":"Jamir Dean","year":2027,"position":"WR","stars":null,"rating_247":92.0,"committed_to":"Penn State","lat":35.858,"lng":-86.3505,"hometown_city":"Alcoa","hometown_state":"TN"},{"name":"Briceson Thrower Jr.","year":2027,"position":"WR","stars":null,"rating_247":91.0,"committed_to":"Texas","lat":31.4757,"lng":-99.3312,"hometown_city":"Forney","hometown_state":"TX"},{"name":"Amare Patterson","year":2027,"position":"WR","stars":null,"rating_247":90.0,"committed_to":null,"lat":33.9169,"lng":-80.8964,"hometown_city":"Bluffton","hometown_state":"SC"},{"name":"Tyler Fryman","year":2027,"position":"WR","stars":null,"rating_247":90.0,"committed_to":null,"lat":37.5347,"lng":-85.3021,"hometown_city":"Fort Mitchell","hometown_state":"KY"},{"name":"Demarcus Brown","year":2027,"position":"WR","stars":null,"rating_247":89.0,"committed_to":"Virginia Tech","lat":37.5215,"lng":-78.8537,"hometown_city":"Roanoke","hometown_state":"VA"},{"name":"Jaiden Kelly-Murray","year":2027,"position":"WR","stars":null,"rating_247":89.0,"committed_to":"Colorado","lat":33.9169,"lng":-80.8964,"hometown_city":"Mount Pleasant","hometown_state":"SC"},{"name":"Brylan Oduor","year":2027,"position":"WR","stars":null,"rating_247":89.0,"committed_to":"Auburn","lat":35.858,"lng":-86.3505,"hometown_city":"Murfreesboro","hometown_state":"TN"},{"name":"Anthony Jennings","year":2027,"position":"WR","stars":null,"rating_247":88.0,"committed_to":"Florida","lat":28.6305,"lng":-82.4497,"hometown_city":"Fort Lauderdale","hometown_state":"FL"},{"name":"Miguel Whitley","year":2027,"position":"WR","stars":null,"rating_247":88.0,"committed_to":"Mississippi","lat":31.0689,"lng":-91.9968,"hometown_city":"New Orleans","hometown_state":"LA"},{"name":"Gavin Honore","year":2027,"position":"WR","stars":null,"rating_247":88.0,"committed_to":null,"lat":39.3289,"lng":-116.6312,"hometown_city":"Las Vegas","hometown_state":"NV"},{"name":"Bryan Porter","year":2027,"position":"WR","stars":null,"rating_247":88.0,"committed_to":null,"lat":40.1907,"lng":-74.6728,"hometown_city":"Oradell","hometown_state":"NJ"},{"name":"Cam Wade","year":2027,"position":"WR","stars":null,"rating_247":88.0,"committed_to":"Virginia Tech","lat":37.5215,"lng":-78.8537,"hometown_city":"Leesburg","hometown_state":"VA"},{"name":"DJ Huggins","year":2027,"position":"WR","stars":null,"rating_247":88.0,"committed_to":"South Carolina","lat":32.6415,"lng":-83.4426,"hometown_city":"Kennesaw","hometown_state":"GA"},{"name":"Brock Burrus","year":2027,"position":"WR","stars":null,"rating_247":87.0,"committed_to":null,"lat":32.6415,"lng":-83.4426,"hometown_city":"Marietta","hometown_state":"GA"},{"name":"Jayden Elder","year":2027,"position":"WR","stars":null,"rating_247":87.0,"committed_to":null,"lat":28.6305,"lng":-82.4497,"hometown_city":"Boca Raton","hometown_state":"FL"},{"name":"Landon Williams","year":2027,"position":"WR","stars":null,"rating_247":87.0,"committed_to":null,"lat":31.4757,"lng":-99.3312,"hometown_city":"Fulshear","hometown_state":"TX"},{"name":"Josiah Morgan","year":2027,"position":"WR","stars":null,"rating_247":87.0,"committed_to":"Houston","lat":31.0689,"lng":-91.9968,"hometown_city":"Ruston","hometown_state":"LA"},{"name":"Joshua Douthard","year":2027,"position":"WR","stars":null,"rating_247":87.0,"committed_to":null,"lat":32.7794,"lng":-86.8287,"hometown_city":"Odenville","hometown_state":"AL"},{"name":"Ashton Stark","year":2027,"position":"WR","stars":null,"rating_247":87.0,"committed_to":null,"lat":31.0689,"lng":-91.9968,"hometown_city":"Lutcher","hometown_state":"LA"},{"name":"Brody Knowles","year":2027,"position":"WR","stars":null,"rating_247":87.0,"committed_to":null,"lat":31.4757,"lng":-99.3312,"hometown_city":"Southlake","hometown_state":"TX"},{"name":"Tra'Von Hall","year":2027,"position":"WR","stars":null,"rating_247":87.0,"committed_to":"Mississippi","lat":32.7794,"lng":-86.8287,"hometown_city":"Tuscaloosa","hometown_state":"AL"},{"name":"David Rushing","year":2027,"position":"WR","stars":null,"rating_247":87.0,"committed_to":"Kansas State","lat":34.2744,"lng":-111.6602,"hometown_city":"Tucson","hometown_state":"AZ"},{"name":"Jacorrion Tramble","year":2027,"position":"WR","stars":null,"rating_247":87.0,"committed_to":null,"lat":35.858,"lng":-86.3505,"hometown_city":"Chattanooga","hometown_state":"TN"},{"name":"Jordan Donahoo","year":2027,"position":"WR","stars":null,"rating_247":86.0,"committed_to":null,"lat":28.6305,"lng":-82.4497,"hometown_city":"Oviedo","hometown_state":"FL"},{"name":"Anthony Henderson","year":2027,"position":"WR","stars":null,"rating_247":86.0,"committed_to":"Maryland","lat":37.5215,"lng":-78.8537,"hometown_city":"Suffolk","hometown_state":"VA"},{"name":"Tavares Powell","year":2027,"position":"WR","stars":null,"rating_247":86.0,"committed_to":"Kansas","lat":28.6305,"lng":-82.4497,"hometown_city":"Bradenton","hometown_state":"FL"},{"name":"Jaylan Ash","year":2027,"position":"WR","stars":null,"rating_247":86.0,"committed_to":null,"lat":31.0689,"lng":-91.9968,"hometown_city":"Destrehan","hometown_state":"LA"},{"name":"Eli Ferguson","year":2027,"position":"WR","stars":null,"rating_247":86.0,"committed_to":null,"lat":35.858,"lng":-86.3505,"hometown_city":"Brentwood","hometown_state":"TN"},{"name":"Brayden Stoker","year":2027,"position":"WR","stars":null,"rating_247":86.0,"committed_to":null,"lat":32.6415,"lng":-83.4426,"hometown_city":"Ringgold","hometown_state":"GA"},{"name":"Jok Harris","year":2027,"position":"WR","stars":null,"rating_247":85.0,"committed_to":"Appalachian State","lat":28.6305,"lng":-82.4497,"hometown_city":"Palmetto","hometown_state":"FL"},{"name":"Keyon Standifer","year":2027,"position":"WR","stars":null,"rating_247":85.0,"committed_to":null,"lat":32.6415,"lng":-83.4426,"hometown_city":"Covington","hometown_state":"GA"},{"name":"Dallas Crescenzo","year":2027,"position":"WR","stars":null,"rating_247":83.0,"committed_to":null,"lat":31.4757,"lng":-99.3312,"hometown_city":"Bastrop","hometown_state":"TX"},