{"2026":[{"name":"Jared Curtis","year":2026,"position":"QB","stars":5,"rating_247":99.0,"committed_to":"Vanderbilt","lat":36.1622296,"lng":-86.7743531,"hometown_city":"Nashville","hometown_state":"TN"},{"name":"Faizon Brandon","year":2026,"position":"QB","stars":5,"rating_247":99.0,"committed_to":"Tennessee","lat":36.0726355,"lng":-79.7919754,"hometown_city":"Greensboro","hometown_state":"NC"},{"name":"Dia Bell","year":2026,"position":"QB","stars":5,"rating_247":97.0,"committed_to":"Texas","lat":26.1223084,"lng":-80.1433786,"hometown_city":"Fort Lauderdale","hometown_state":"FL"},{"name":"Will Griffin","year":2026,"position":"QB","stars":4,"rating_247":90.0,"committed_to":"Florida","lat":27.9477595,"lng":-82.458444,"hometown_city":"Tampa","hometown_state":"FL"},{"name":"Dereon Coleman","year":2026,"position":"QB","stars":4,"rating_247":89.0,"committed_to":"Miami","lat":28.5421109,"lng":-81.3790304,"hometown_city":"Orlando","hometown_state":"FL"},{"name":"Teddy Jarrard","year":2026,"position":"QB","stars":4,"rating_247":89.0,"committed_to":"Notre Dame","lat":34.0234337,"lng":-84.6154897,"hometown_city":"Kennesaw","hometown_state":"GA"},{"name":"Noah Grubbs","year":2026,"position":"QB","stars":4,"rating_247":88.0,"committed_to":"Notre Dame","lat":28.756618000000003,"lng":-81.33888382214167,"hometown_city":"Lake Mary","hometown_state":"FL"},{"name":"Tait Reynolds","year":2026,"position":"QB","stars":3,"rating_247":88.0,"committed_to":"Clemson","lat":33.2483858,"lng":-111.6341585,"hometown_city":"Queen Creek","hometown_state":"AZ"},{"name":"Brady Smigiel","year":2026,"position":"QB","stars":4,"rating_247":88.0,"committed_to":"Michigan","lat":34.183671,"lng":-118.9118302,"hometown_city":"Newbury Park","hometown_state":"CA"},{"name":"Jaden O'Neal","year":2026,"position":"QB","stars":4,"rating_247":87.0,"committed_to":"Florida State","lat":35.384227,"lng":-97.7244813,"hometown_city":"Mustang","hometown_state":"OK"},{"name":"DJ Bordeaux","year":2026,"position":"QB","stars":null,"rating_247":87.0,"committed_to":"UCLA","lat":38.9972,"lng":-105.5478,"hometown_city":"Parker","hometown_state":"CO"},{"name":"Michael Clayton II","year":2026,"position":"QB","stars":null,"rating_247":86.0,"committed_to":"Illinois","lat":28.6305,"lng":-82.4497,"hometown_city":"Miami","hometown_state":"FL"},{"name":"Quinn Murphy","year":2026,"position":"QB","stars":3,"rating_247":85.0,"committed_to":"Baylor","lat":33.110156,"lng":-97.17940980147037,"hometown_city":"Argyle","hometown_state":"TX"},{"name":"Nick Kinsey","year":2026,"position":"QB","stars":3,"rating_247":82.0,"committed_to":"Eastern Michigan","lat":41.083064,"lng":-81.518485,"hometown_city":"Akron","hometown_state":"OH"},{"name":"EJ Crowell","year":2026,"position":"RB","stars":null,"rating_247":98.0,"committed_to":"Alabama","lat":32.7794,"lng":-86.8287,"hometown_city":"Jackson","hometown_state":"AL"},{"name":"Savion Hiter","year":2026,"position":"RB","stars":5,"rating_247":98.0,"committed_to":"Michigan","lat":38.010695,"lng":-77.9086068,"hometown_city":"Mineral","hometown_state":"VA"},{"name":"KJ Edwards","year":2026,"position":"RB","stars":4,"rating_247":97.0,"committed_to":"Texas A&M","lat":32.1570412,"lng":-94.338114,"hometown_city":"Carthage","hometown_state":"TX"},{"name":"Davian Groce","year":2026,"position":"RB","stars":4,"rating_247":96.0,"committed_to":"Florida","lat":33.1506744,"lng":-96.8236116,"hometown_city":"Frisco","hometown_state":"TX"},{"name":"Tradarian Ball","year":2026,"position":"RB","stars":4,"rating_247":96.0,"committed_to":"Oregon","lat":33.44628645,"lng":-94.07638067493534,"hometown_city":"Texarkana","hometown_state":"TX"},{"name":"Deshonne Redeaux","year":2026,"position":"RB","stars":4,"rating_247":95.0,"committed_to":"Southern California","lat":34.1460234,"lng":-118.8061794,"hometown_city":"Westlake Village","hometown_state":"CA"},{"name":"Jonaz Walton","year":2026,"position":"RB","stars":4,"rating_247":93.0,"committed_to":"Notre Dame","lat":33.5801103,"lng":-85.0766113,"hometown_city":"Carrollton","hometown_state":"GA"},{"name":"Shahn Alston","year":2026,"position":"RB","stars":4,"rating_247":93.0,"committed_to":"Southern California","lat":41.7244885,"lng":-81.245657,"hometown_city":"Painesville","hometown_state":"OH"},{"name":"Christian Rhodes","year":2026,"position":"RB","stars":4,"rating_247":92.0,"committed_to":"SMU","lat":32.7762719,"lng":-96.7968559,"hometown_city":"Dallas","hometown_state":"TX"},{"name":"Javian Osborne","year":2026,"position":"RB","stars":4,"rating_247":92.0,"committed_to":"Notre Dame","lat":32.747893,"lng":-96.4719289,"hometown_city":"Forney","hometown_state":"TX"},{"name":"Jae Lamar","year":2026,"position":"RB","stars":4,"rating_247":91.0,"committed_to":"Georgia","lat":31.179998,"lng":-83.7887928,"hometown_city":"Moultrie","hometown_state":"GA"},{"name":"Carsyn Baker","year":2026,"position":"RB","stars":4,"rating_247":90.0,"committed_to":"Texas A&M","lat":33.5670562,"lng":-84.5810418,"hometown_city":"Fairburn","hometown_state":"GA"},{"name":"Lekhy Thompkins","year":2026,"position":"RB","stars":3,"rating_247":89.0,"committed_to":"Louisville","lat":27.4989278,"lng":-82.5748194,"hometown_city":"Bradenton","hometown_state":"FL"},{"name":"DeZephen Walker","year":2026,"position":"RB","stars":4,"rating_247":89.0,"committed_to":"Oklahoma","lat":38.7145481,"lng":-94.4611204,"hometown_city":"Peculiar","hometown_state":"MO"},{"name":"Victor Santino","year":2026,"position":"RB","stars":4,"rating_247":89.0,"committed_to":"California","lat":25.7742658,"lng":-80.1936589,"hometown_city":"Miami","hometown_state":"FL"},{"name":"Favour Akih","year":2026,"position":"RB","stars":4,"rating_247":89.0,"committed_to":"Ohio State","lat":40.2986724,"lng":-83.067965,"hometown_city":"Delaware","hometown_state":"OH"},{"name":"Javian Mallory","year":2026,"position":"RB","stars":4,"rating_247":88.0,"committed_to":"Miami","lat":26.3586885,"lng":-80.0830984,"hometown_city":"Boca Raton","hometown_state":"FL"},{"name":"Amari Thomas","year":2026,"position":"RB","stars":4,"rating_247":88.0,"committed_to":"Florida State","lat":30.4435293,"lng":-85.0451953,"hometown_city":"Blountstown","hometown_state":"FL"},{"name":"Henry Ohlinger","year":2026,"position":"RB","stars":4,"rating_247":88.0,"committed_to":"Indiana","lat":39.9622601,"lng":-83.0007065,"hometown_city":"Columbus","hometown_state":"OH"},{"name":"Ja'Michael Jones","year":2026,"position":"RB","stars":3,"rating_247":88.0,"committed_to":"Mississippi","lat":32.3669656,"lng":-86.3006485,"hometown_city":"Montgomery","hometown_state":"AL"},{"name":"Max Warner","year":2026,"position":"RB","stars":null,"rating_247":87.0,"committed_to":"Missouri","lat":40.0417,"lng":-89.1965,"hometown_city":"Chicago","hometown_state":"IL"},{"name":"TK Keys","year":2026,"position":"WR","stars":null,"rating_247":98.0,"committed_to":"Tennessee","lat":32.7364,"lng":-89.6678,"hometown_city":"Hattiesburg","hometown_state":"MS"},{"name":"Chris Henry Jr.","year":2026,"position":"WR","stars":5,"rating_247":98.0,"committed_to":"Ohio State","lat":33.7494951,"lng":-117.8732213,"hometown_city":"Santa Ana","hometown_state":"CA"},{"name":"Calvin Russell III","year":2026,"position":"WR","stars":null,"rating_247":98.0,"committed_to":"Syracuse","lat":28.6305,"lng":-82.4497,"hometown_city":"Miami","hometown_state":"FL"},{"name":"Cederian Morgan","year":2026,"position":"WR","stars":4,"rating_247":97.0,"committed_to":"Alabama","lat":32.944012,"lng":-85.9538532,"hometown_city":"Alexander City","hometown_state":"AL"},{"name":"Kayden Dixon-Wyatt","year":2026,"position":"WR","stars":4,"rating_247":97.0,"committed_to":"Southern California","lat":33.7494951,"lng":-117.8732213,"hometown_city":"Santa Ana","hometown_state":"CA"},{"name":"Somourian Wingo","year":2026,"position":"WR","stars":4,"rating_247":97.0,"committed_to":"Miami","lat":29.8946952,"lng":-81.3145395,"hometown_city":"St. Augustine","hometown_state":"FL"},{"name":"Corey Barber Jr.","year":2026,"position":"WR","stars":null,"rating_247":96.0,"committed_to":"Louisiana State","lat":32.7794,"lng":-86.8287,"hometown_city":"Pinson","hometown_state":"AL"},{"name":"Ethan Feaster","year":2026,"position":"WR","stars":4,"rating_247":96.0,"committed_to":"Southern California","lat":32.6061241,"lng":-96.865612653687,"hometown_city":"DeSoto","hometown_state":"TX"},{"name":"Joel Wyatt","year":2026,"position":"WR","stars":4,"rating_247":96.0,"committed_to":"Tennessee","lat":35.845999,"lng":-86.3920452,"hometown_city":"Murfreesboro","hometown_state":"TN"},{"name":"Milan Parris","year":2026,"position":"WR","stars":4,"rating_247":96.0,"committed_to":"Miami","lat":41.1596261,"lng":-81.4406258,"hometown_city":"Stow","hometown_state":"OH"},{"name":"Jase Mathews","year":2026,"position":"WR","stars":4,"rating_247":95.0,"committed_to":"Mississippi","lat":31.1557373,"lng":-88.5577994,"hometown_city":"Leakesville","hometown_state":"MS"},{"name":"Naeem Burroughs","year":2026,"position":"WR","stars":4,"rating_247":95.0,"committed_to":"Clemson","lat":30.3321838,"lng":-81.655651,"hometown_city":"Jacksonville","hometown_state":"FL"},{"name":"Jayden Petit","year":2026,"position":"WR","stars":4,"rating_247":94.0,"committed_to":"Oklahoma","lat":26.1421976,"lng":-81.7942944,"hometown_city":"Naples","hometown_state":"FL"},{"name":"Aaron Gregory","year":2026,"position":"WR","stars":4,"rating_247":94.0,"committed_to":"Texas A&M","lat":33.7514966,"lng":-84.7477136,"hometown_city":"Douglasville","hometown_state":"GA"},{"name":"Jordan Clay","year":2026,"position":"WR","stars":4,"rating_247":94.0,"committed_to":"Washington","lat":29.4246002,"lng":-98.4951405,"hometown_city":"San Antonio","hometown_state":"TX"},{"name":"Travis Johnson","year":2026,"position":"WR","stars":4,"rating_247":94.0,"committed_to":"Michigan","lat":36.7183708,"lng":-76.2466798,"hometown_city":"Chesapeake","hometown_state":"VA"},{"name":"Jayden Warren","year":2026,"position":"WR","stars":4,"rating_247":92.0,"committed_to":"Texas A&M","lat":29.3521203,"lng":-95.460341,"hometown_city":"Rosharon","hometown_state":"TX"},{"name":"Gordon Sellars III","year":2026,"position":"WR","stars":null,"rating_247":92.0,"committed_to":"Clemson","lat":35.5557,"lng":-79.3877,"hometown_city":"Charlotte","hometown_state":"NC"},{"name":"Kenny Darby","year":2026,"position":"WR","stars":4,"rating_247":92.0,"committed_to":"Kentucky","lat":32.5369356,"lng":-93.6952689,"hometown_city":"Bossier City","hometown_state":"LA"},{"name":"Jasen Lopez","year":2026,"position":"WR","stars":4,"rating_247":91.0,"committed_to":"Florida State","lat":25.7742658,"lng":-80.1936589,"hometown_city":"Miami","hometown_state":"FL"},{"name":"Jabari Mack","year":2026,"position":"WR","stars":4,"rating_247":91.0,"committed_to":"Louisiana State","lat":29.960933,"lng":-90.3705407077716,"hometown_city":"Destrehan","hometown_state":"LA"},{"name":"Zion Robinson","year":2026,"position":"WR","stars":4,"rating_247":91.0,"committed_to":"Stanford","lat":32.5631924,"lng":-97.1416768,"hometown_city":"Mansfield","hometown_state":"TX"},{"name":"Mason James","year":2026,"position":"WR","stars":4,"rating_247":91.0,"committed_to":"Washington","lat":35.2225717,"lng":-97.4394816,"hometown_city":"Norman","hometown_state":"OK"},{"name":"Messiah Hampton","year":2026,"position":"WR","stars":4,"rating_247":91.0,"committed_to":"Oregon","lat":43.157285,"lng":-77.615214,"hometown_city":"Rochester","hometown_state":"NY"},{"name":"Ryan Mosley","year":2026,"position":"WR","stars":4,"rating_247":90.0,"committed_to":"Georgia","lat":33.5801103,"lng":-85.0766113,"hometown_city":"Carrollton","hometown_state":"GA"},{"name":"Jeffar Jean-Noel","year":2026,"position":"WR","stars":3,"rating_247":90.0,"committed_to":"Georgia Tech","lat":26.1223084,"lng":-80.1433786,"hometown_city":"Fort Lauderdale","hometown_state":"FL"},{"name":"Kohen Brown","year":2026,"position":"WR","stars":3,"rating_247":90.0,"committed_to":"Texas","lat":32.3944908,"lng":-96.8439365,"hometown_city":"Waxahachie","hometown_state":"TX"},{"name":"Dyzier Carter","year":2026,"position":"WR","stars":4,"rating_247":90.0,"committed_to":"Rutgers","lat":38.010695,"lng":-77.9086068,"hometown_city":"Mineral","hometown_state":"VA"},{"name":"Keeyun Chapman","year":2026,"position":"WR","stars":4,"rating_247":90.0,"committed_to":"North Carolina","lat":31.5090521,"lng":-87.8944435,"hometown_city":"Jackson","hometown_state":"AL"},{"name":"Vance Spafford","year":2026,"position":"WR","stars":4,"rating_247":90.0,"committed_to":"Miami","lat":33.5965685,"lng":-117.659405,"hometown_city":"Mission Viejo","hometown_state":"CA"},{"name":"Brayden Robinson","year":2026,"position":"WR","stars":4,"rating_247":90.0,"committed_to":"Notre Dame","lat":32.5117104,"lng":-96.80836332870047,"hometown_city":"Red Oak","hometown_state":"TX"},{"name":"Daniel Odom","year":2026,"position":"WR","stars":4,"rating_247":90.0,"committed_to":"Oklahoma","lat":33.8825705,"lng":-118.1167679,"hometown_city":"Bellflower","hometown_state":"CA"},{"name":"Kennan Pula","year":2026,"position":"WR","stars":3,"rating_247":90.0,"committed_to":"BYU","lat":40.3768954,"lng":-111.7957645,"hometown_city":"American Fork","hometown_state":"UT"},{"name":"Zayion Cotton","year":2026,"position":"WR","stars":4,"rating_247":90.0,"committed_to":"Mississippi State","lat":33.7690049,"lng":-89.8084192,"hometown_city":"Grenada","hometown_state":"MS"},{"name":"Kenyon Alston","year":2026,"position":"WR","stars":3,"rating_247":89.0,"committed_to":"Illinois","lat":28.5421109,"lng":-81.3790304,"hometown_city":"Orlando","hometown_state":"FL"},{"name":"Davion Brown","year":2026,"position":"WR","stars":4,"rating_247":89.0,"committed_to":"Virginia Tech","lat":37.5385087,"lng":-77.43428,"hometown_city":"Richmond","hometown_state":"VA"},{"name":"Devin Carter","year":2026,"position":"WR","stars":4,"rating_247":89.0,"committed_to":"Florida State","lat":33.7514966,"lng":-84.7477136,"hometown_city":"Douglasville","hometown_state":"GA"},{"name":"Tayveon Wilson","year":2026,"position":"WR","stars":3,"rating_247":89.0,"committed_to":"Clemson","lat":38.4192496,"lng":-82.445154,"hometown_city":"Huntington","hometown_state":"WV"},{"name":"Keeyshawn Tabuteau","year":2026,"position":"WR","stars":3,"rating_247":89.0,"committed_to":"Wisconsin","lat":35.0457219,"lng":-85.3094883,"hometown_city":"Chattanooga","hometown_state":"TN"},{"name":"Dequane Prevo","year":2026,"position":"WR","stars":4,"rating_247":89.0,"committed_to":"Arkansas","lat":36.3728538,"lng":-94.2088172,"hometown_city":"Bentonville","hometown_state":"AR"},{"name":"Payton Cook","year":2026,"position":"WR","stars":3,"rating_247":89.0,"committed_to":"Louisville","lat":41.083064,"lng":-81.518485,"hometown_city":"Akron","hometown_state":"OH"},{"name":"Chris Stewart","year":2026,"position":"WR","stars":4,"rating_247":89.0,"committed_to":"Texas","lat":29.5639758,"lng":-95.2864299,"hometown_city":"Pearland","hometown_state":"TX"},{"name":"Dylan Faison","year":2026,"position":"WR","stars":3,"rating_247":88.0,"committed_to":"Notre Dame","lat":26.3586885,"lng":-80.0830984,"hometown_city":"Boca Raton","hometown_state":"FL"},{"name":"Jesse Harden","year":2026,"position":"WR","stars":3,"rating_247":88.0,"committed_to":"Nevada, Las Vegas","lat":27.871197,"lng":-82.3269883,"hometown_city":"Riverview","hometown_state":"FL"},{"name":"Brandon Bennett","year":2026,"position":"WR","stars":4,"rating_247":88.0,"committed_to":"Florida State","lat":26.1223084,"lng":-80.1433786,"hometown_city":"Fort Lauderdale","hometown_state":"FL"},{"name":"Xavier McDonald","year":2026,"position":"WR","stars":4,"rating_247":88.0,"committed_to":"James Madison","lat":32.3537557,"lng":-89.6545171,"hometown_city":"Morton","hometown_state":"MS"},{"name":"Tron Baker","year":2026,"position":"WR","stars":null,"rating_247":88.0,"committed_to":"Southern California","lat":37.1841,"lng":-119.4696,"hometown_city":"Chatsworth","hometown_state":"CA"},{"name":"Xavier Owens","year":2026,"position":"WR","stars":3,"rating_247":88.0,"committed_to":"Fresno State","lat":29.9499323,"lng":-90.0701156,"hometown_city":"New Orleans","hometown_state":"LA"},{"name":"Kymistrii Young","year":2026,"position":"WR","stars":3,"rating_247":87.0,"committed_to":"North Carolina","lat":27.3364347,"lng":-82.5306527,"hometown_city":"Sarasota","hometown_state":"FL"},{"name":"Larry Miles","year":2026,"position":"WR","stars":3,"rating_247":87.0,"committed_to":"Nebraska","lat":28.5421109,"lng":-81.3790304,"hometown_city":"Orlando","hometown_state":"FL"},{"name":"Zach Washington","year":2026,"position":"WR","stars":null,"rating_247":87.0,"committed_to":"Michigan State","lat":40.0417,"lng":-89.1965,"hometown_city":"Wheaton","hometown_state":"IL"},{"name":"Tyran Evans","year":2026,"position":"WR","stars":3,"rating_247":87.0,"committed_to":"Miami","lat":35.4817982,"lng":-80.8589501,"hometown_city":"Cornelius","hometown_state":"NC"},{"name":"Nalin Scott","year":2026,"position":"WR","stars":3,"rating_247":87.0,"committed_to":"Nebraska","lat":33.8595492,"lng":-84.683824,"hometown_city":"Powder Springs","hometown_state":"GA"},{"name":"Diondre Smith","year":2026,"position":"WR","stars":3,"rating_247":86.0,"committed_to":"Iowa","lat":30.311908,"lng":-81.3964734,"hometown_city":"Neptune Beach","hometown_state":"FL"},{"name":"Gavin Waddell","year":2026,"position":"WR","stars":3,"rating_247":86.0,"committed_to":"Louisville","lat":35.9232862,"lng":-78.4573914,"hometown_city":"Rolesville","hometown_state":"NC"},{"name":"Davis McCray","year":2026,"position":"WR","stars":3,"rating_247":86.0,"committed_to":"Kentucky","lat":29.4246002,"lng":-98.4951405,"hometown_city":"San Antonio","hometown_state":"TX"},{"name":"Mason Williams","year":2026,"position":"WR","stars":3,"rating_247":85.0,"committed_to":null,"lat":33.0318031,"lng":-94.7219895,"hometown_city":"Daingerfield","hometown_state":"TX"},{"name":"Jaborree Riggins","year":2026,"position":"WR","stars":3,"rating_247":85.0,"committed_to":"Akron","lat":26.2378597,"lng":-80.1247667,"hometown_city":"Pompano Beach","hometown_state":"FL"},{"name":"Zamarii Sanders","year":2026,"position":"WR","stars":null,"rating_247":null,"committed_to":null,"lat":28.6305,"lng":-82.4497,"hometown_city":"West Palm Beach","hometown_state":"FL"},{"name":"Tylan Vickers","year":2026,"position":"WR","stars":null,"rating_247":null,"committed_to":null,"lat":28.6305,"lng":-82.4497,"hometown_city":"Havana","hometown_state":"FL"},{"name":"Saphir Miller","year":2026,"position":"WR","stars":null,"rating_247":null,"committed_to":"Brown","lat":28.6305,"lng":-82.4497,"hometown_city":"Orlando","hometown_state":"FL"},{"name":"Ian Premer","year":2026,"position":"TE","stars":5,"rating_247":98.0,"committed_to":"Notre Dame","lat":38.3625063,"lng":-98.7804087,"hometown_city":"Great Bend","hometown_state":"KS"},{"name":"Mark Bowman","year":2026,"position":"TE","stars":5,"rating_247":97.0,"committed_to":"Southern California","lat":33.7494951,"lng":-117.8732213,"hometown_city":"Santa Ana","hometown_state":"CA"},{"name":"Kaiden Prothro","year":2026,"position":"TE","stars":4,"rating_247":97.0,"committed_to":"Georgia","lat":33.5378885,"lng":-85.2532818,"hometown_city":"Bowdon","hometown_state":"GA"},{"name":"Kendre Harrison","year":2026,"position":"TE","stars":5,"rating_247":97.0,"committed_to":"Oregon","lat":36.3548586,"lng":-79.6644748,"hometown_city":"Reidsville","hometown_state":"NC"},{"name":"Gavin Mueller","year":2026,"position":"TE","stars":4,"rating_247":94.0,"committed_to":"Miami","lat":41.9941938,"lng":-88.2922996,"hometown_city":"South Elgin","hometown_state":"IL"},{"name":"Brock Harris","year":2026,"position":"TE","stars":4,"rating_247":94.0,"committed_to":"BYU","lat":37.104153,"lng":-113.5841313,"hometown_city":"St. George","hometown_state":"UT"},{"name":"Evan Jacobson","year":2026,"position":"TE","stars":4,"rating_247":91.0,"committed_to":"Texas A&M","lat":41.6118485,"lng":-93.8845129,"hometown_city":"Waukee","hometown_state":"IA"},{"name":"Israel Briggs","year":2026,"position":"TE","stars":4,"rating_247":90.0,"committed_to":"Miami","lat":36.8252277,"lng":-119.7029194,"hometown_city":"Clovis","hometown_state":"CA"},{"name":"Xavier Tiller","year":2026,"position":"TE","stars":4,"rating_247":90.0,"committed_to":"Florida State","lat":33.5670562,"lng":-84.5810418,"hometown_city":"Fairburn","hometown_state":"GA"},{"name":"Heze Kent","year":2026,"position":"TE","stars":4,"rating_247":90.0,"committed_to":"Florida","lat":31.1499528,"lng":-81.4914894,"hometown_city":"Brunswick","hometown_state":"GA"},{"name":"Luke Sorensen","year":2026,"position":"TE","stars":3,"rating_247":89.0,"committed_to":"Nebraska","lat":33.8347516,"lng":-117.911732,"hometown_city":"Anaheim","hometown_state":"CA"},{"name":"Luke Brewer","year":2026,"position":"TE","stars":4,"rating_247":89.0,"committed_to":"Iowa","lat":41.4755461,"lng":-93.6788304,"hometown_city":"Norwalk","hometown_state":"IA"},{"name":"Corbyn Fordham","year":2026,"position":"TE","stars":3,"rating_247":88.0,"committed_to":"Florida State","lat":30.3321838,"lng":-81.655651,"hometown_city":"Jacksonville","hometown_state":"FL"},{"name":"Preston Fryzel","year":2026,"position":"TE","stars":4,"rating_247":88.0,"committed_to":"Notre Dame","lat":41.6786754,"lng":-83.5127283,"hometown_city":"Toledo","hometown_state":"OH"},{"name":"Zack Turner","year":2026,"position":"TE","stars":null,"rating_247":88.0,"committed_to":"SMU","lat":31.4757,"lng":-99.3312,"hometown_city":"Duncanville","hometown_state":"TX"},{"name":"Lincoln Watkins","year":2026,"position":"TE","stars":3,"rating_247":88.0,"committed_to":"Kentucky","lat":42.9815877,"lng":-82.440466,"hometown_city":"Port Huron","hometown_state":"MI"},{"name":"Mason Bonner","year":2026,"position":"TE","stars":3,"rating_247":88.0,"committed_to":"Michigan","lat":39.7392364,"lng":-104.9848623,"hometown_city":"Denver","hometown_state":"CO"},{"name":"Ryder Mix","year":2026,"position":"TE","stars":3,"rating_247":87.0,"committed_to":"Oklahoma","lat":33.1506744,"lng":-96.8236116,"hometown_city":"Frisco","hometown_state":"TX"},{"name":"Jack Janda","year":2026,"position":"TE","stars":3,"rating_247":87.0,"committed_to":"Iowa","lat":42.5869558,"lng":-83.36895696372882,"hometown_city":"Orchard Lake","hometown_state":"MI"},{"name":"PJ MacFarlane","year":2026,"position":"TE","stars":3,"rating_247":87.0,"committed_to":"Indiana","lat":39.5150576,"lng":-84.3982763,"hometown_city":"Middletown","hometown_state":"OH"},{"name":"Carson Sneed","year":2026,"position":"TE","stars":3,"rating_247":86.0,"committed_to":"North Carolina","lat":36.1622296,"lng":-86.7743531,"hometown_city":"Nashville","hometown_state":"TN"},{"name":"Carter Bashir","year":2026,"position":"TE","stars":3,"rating_247":86.0,"committed_to":"Syracuse","lat":39.9527237,"lng":-75.1635262,"hometown_city":"Philadelphia","hometown_state":"PA"},{"name":"Javar Bowden","year":2026,"position":"TE","stars":3,"rating_247":84.0,"committed_to":"Jackson State","lat":30.1600827,"lng":-85.6545729,"hometown_city":"Panama City","hometown_state":"FL"},{"name":"JJ Homuth","year":2026,"position":"TE","stars":null,"rating_247":81.0,"committed_to":"Idaho","lat":46.2807,"lng":-94.3053,"hometown_city":"Rochester","hometown_state":"MN"},{"name":"Lamar Brown","year":2026,"position":"OT","stars":5,"rating_247":99.0,"committed_to":"Louisiana State","lat":30.4459596,"lng":-91.18738,"hometown_city":"Baton Rouge","hometown_state":"LA"},{"name":"Keenyi Pepe","year":2026,"position":"OT","stars":4,"rating_247":99.0,"committed_to":"Southern California","lat":27.4989278,"lng":-82.5748194,"hometown_city":"Bradenton","hometown_state":"FL"},{"name":"Jackson Cantwell","year":2026,"position":"OT","stars":5,"rating_247":99.0,"committed_to":"Miami","lat":37.0439358,"lng":-93.3098534,"hometown_city":"Nixa","hometown_state":"MO"},{"name":"Darius Gray","year":2026,"position":"OT","stars":4,"rating_247":98.0,"committed_to":"South Carolina","lat":37.5385087,"lng":-77.43428,"hometown_city":"Richmond","hometown_state":"VA"},{"name":"Immanuel Iheanacho","year":2026,"position":"OT","stars":5,"rating_247":98.0,"committed_to":"Oregon","lat":39.0461292,"lng":-77.1130097,"hometown_city":"North Bethesda","hometown_state":"MD"},{"name":"Sam Greer","year":2026,"position":"OT","stars":4,"rating_247":97.0,"committed_to":"Ohio State","lat":41.083064,"lng":-81.518485,"hometown_city":"Akron","hometown_state":"OH"},{"name":"Ekene Ogboko","year":2026,"position":"OT","stars":5,"rating_247":96.0,"committed_to":"Georgia","lat":35.996653,"lng":-78.9018053,"hometown_city":"Durham","hometown_state":"NC"},{"name":"Malakai Lee","year":2026,"position":"OT","stars":4,"rating_247":95.0,"committed_to":"Michigan","lat":21.304547,"lng":-157.8556764,"hometown_city":"Honolulu","hometown_state":"HI"},{"name":"PJ Dean","year":2026,"position":"OT","stars":null,"rating_247":95.0,"committed_to":"Georgia","lat":35.5557,"lng":-79.3877,"hometown_city":"Clemmons","hometown_state":"NC"},{"name":"Johnnie Jones","year":2026,"position":"OT","stars":4,"rating_247":95.0,"committed_to":"Missouri","lat":27.0999188,"lng":-82.4543597,"hometown_city":"Venice","hometown_state":"FL"},{"name":"Bryce Gilmore","year":2026,"position":"OT","stars":4,"rating_247":93.0,"committed_to":"Texas Tech","lat":33.2385763,"lng":-96.7866058,"hometown_city":"Prosper","hometown_state":"TX"},{"name":"Claude Mpouma","year":2026,"position":"OT","stars":4,"rating_247":93.0,"committed_to":"Nebraska","lat":41.8755616,"lng":-87.6244212,"hometown_city":"Chicago","hometown_state":"IL"},{"name":"Ben Congdon","year":2026,"position":"OT","stars":null,"rating_247":93.0,"committed_to":"Miami","lat":40.2862,"lng":-82.7937,"hometown_city":"Mineral City","hometown_state":"OH"},{"name":"Breck Kolojay","year":2026,"position":"OT","stars":4,"rating_247":93.0,"committed_to":"Southern California","lat":27.4989278,"lng":-82.5748194,"hometown_city":"Bradenton","hometown_state":"FL"},{"name":"Chance Barclay","year":2026,"position":"OT","stars":null,"rating_247":93.0,"committed_to":"Clemson","lat":28.6305,"lng":-82.4497,"hometown_city":"Orlando","hometown_state":"FL"},{"name":"Max Riley","year":2026,"position":"OT","stars":null,"rating_247":93.0,"committed_to":"Ohio State","lat":40.2862,"lng":-82.7937,"hometown_city":"Avon Lake","hometown_state":"OH"},{"name":"Zyon Guiles","year":2026,"position":"OT","stars":4,"rating_247":93.0,"committed_to":"South Carolina","lat":33.7537774,"lng":-79.4475566,"hometown_city":"Hemingway","hometown_state":"SC"},{"name":"John Turntine III","year":2026,"position":"OT","stars":4,"rating_247":93.0,"committed_to":"Texas","lat":32.753177,"lng":-97.3327459,"hometown_city":"Fort Worth","hometown_state":"TX"},{"name":"Grant Wise","year":2026,"position":"OT","stars":4,"rating_247":91.0,"committed_to":"Clemson","lat":30.6324149,"lng":-87.0396881,"hometown_city":"Milton","hometown_state":"FL"},{"name":"Thomas Wilder","year":2026,"position":"OT","stars":4,"rating_247":90.0,"committed_to":"Virginia Tech","lat":36.8529841,"lng":-75.9774183,"hometown_city":"Virginia Beach","hometown_state":"VA"},{"name":"Champ Smith","year":2026,"position":"OT","stars":3,"rating_247":89.0,"committed_to":"Illinois","lat":25.7742658,"lng":-80.1936589,"hometown_city":"Miami","hometown_state":"FL"},{"name":"Adam Guthrie","year":2026,"position":"OT","stars":4,"rating_247":89.0,"committed_to":"Clemson","lat":39.5364511,"lng":-83.4390843,"hometown_city":"Washington Court House","hometown_state":"OH"},{"name":"Graham Houston","year":2026,"position":"OT","stars":4,"rating_247":89.0,"committed_to":"Georgia","lat":34.1206564,"lng":-84.0043513,"hometown_city":"Buford","hometown_state":"GA"},{"name":"Chancellor Campbell","year":2026,"position":"OT","stars":3,"rating_247":88.0,"committed_to":"Florida","lat":27.7703796,"lng":-82.6695085,"hometown_city":"St. Petersburg","hometown_state":"FL"},{"name":"Sam Utu","year":2026,"position":"OT","stars":4,"rating_247":88.0,"committed_to":"SMU","lat":33.7872568,"lng":-117.8503088,"hometown_city":"Orange","hometown_state":"CA"},{"name":"Da'Ron Parks","year":2026,"position":"OT","stars":4,"rating_247":88.0,"committed_to":"North Carolina","lat":38.417919499999996,"lng":-81.84361448523134,"hometown_city":"Nitro","hometown_state":"WV"},{"name":"Courtlin Heard","year":2026,"position":"OT","stars":3,"rating_247":88.0,"committed_to":"Georgia Tech","lat":33.3392842,"lng":-84.6485417,"hometown_city":"Sharpsburg","hometown_state":"GA"},{"name":"Kannon Smith","year":2026,"position":"OT","stars":3,"rating_247":88.0,"committed_to":"Southern California","lat":39.613321,"lng":-105.0166498,"hometown_city":"Littleton","hometown_state":"CO"},{"name":"Courtney Heard","year":2026,"position":"OT","stars":3,"rating_247":87.0,"committed_to":"Georgia Tech","lat":33.3392842,"lng":-84.6485417,"hometown_city":"Sharpsburg","hometown_state":"GA"},{"name":"Canon Pickett","year":2026,"position":"OT","stars":3,"rating_247":87.0,"committed_to":"Miami","lat":27.9477595,"lng":-82.458444,"hometown_city":"Tampa","hometown_state":"FL"},{"name":"Jesse Moody","year":2026,"position":"OT","stars":3,"rating_247":86.0,"committed_to":"Maryland","lat":39.9527237,"lng":-75.1635262,"hometown_city":"Philadelphia","hometown_state":"PA"},{"name":"Xavier Payne","year":2026,"position":"OT","stars":3,"rating_247":86.0,"committed_to":"Colorado","lat":28.5421109,"lng":-81.3790304,"hometown_city":"Orlando","hometown_state":"FL"},{"name":"Rhys Woodrow","year":2026,"position":"OT","stars":3,"rating_247":86.0,"committed_to":"Miami","lat":28.5421109,"lng":-81.3790304,"hometown_city":"Orlando","hometown_state":"FL"},{"name":"Javarii Luckas","year":2026,"position":"OT","stars":3,"rating_247":86.0,"committed_to":"Florida","lat":26.6845104,"lng":-80.6675577,"hometown_city":"Belle Glade","hometown_state":"FL"},{"name":"Brody Smith","year":2026,"position":"OT","stars":3,"rating_247":86.0,"committed_to":"North Carolina State","lat":35.7564719,"lng":-83.9704593,"hometown_city":"Maryville","hometown_state":"TN"},{"name":"Dylan Biehl","year":2026,"position":"OT","stars":3,"rating_247":86.0,"committed_to":"Virginia","lat":34.0514898,"lng":-84.0712997,"hometown_city":"Suwanee","hometown_state":"GA"},{"name":"Ben Corhei","year":2026,"position":"OT","stars":null,"rating_247":86.0,"committed_to":"Louisville","lat":32.6415,"lng":-83.4426,"hometown_city":"Valdosta","hometown_state":"GA"},{"name":"Jacob Hawks","year":2026,"position":"OT","stars":null,"rating_247":86.0,"committed_to":"Miami","lat":38.4937,"lng":-98.3804,"hometown_city":"Hutchinson","hometown_state":"KS"},{"name":"Bear McWhorter","year":2026,"position":"OT","stars":null,"rating_247":85.0,"committed_to":"Auburn","lat":32.6415,"lng":-83.4426,"hometown_city":"White","hometown_state":"GA"},{"name":"Trinton Pritchett","year":2026,"position":"OT","stars":3,"rating_247":85.0,"committed_to":"Troy","lat":32.6550905,"lng":-85.50364346309962,"hometown_city":"Auburn","hometown_state":"AL"},{"name":"Brady Sakowitz","year":2026,"position":"OT","stars":3,"rating_247":85.0,"committed_to":"North Carolina State","lat":37.5385087,"lng":-77.43428,"hometown_city":"Richmond","hometown_state":"VA"},{"name":"Rico Schrieber","year":2026,"position":"OT","stars":3,"rating_247":84.0,"committed_to":"Purdue","lat":41.8755616,"lng":-87.6244212,"hometown_city":"Chicago","hometown_state":"IL"},{"name":"Tommy Tofi","year":2026,"position":"IOL","stars":4,"rating_247":97.0,"committed_to":"Oregon","lat":37.7790262,"lng":-122.4199061,"hometown_city":"San Francisco","hometown_state":"CA"},{"name":"Esun Tafa","year":2026,"position":"IOL","stars":4,"rating_247":94.0,"committed_to":"Southern California","lat":40.5246711,"lng":-111.8638226,"hometown_city":"Draper","hometown_state":"UT"},{"name":"Joel Ervin","year":2026,"position":"IOL","stars":4,"rating_247":92.0,"committed_to":"Miami","lat":26.640628,"lng":-81.8723084,"hometown_city":"Fort Myers","hometown_state":"FL"},{"name":"Carter Scruggs","year":2026,"position":"IOL","stars":4,"rating_247":90.0,"committed_to":"Clemson","lat":39.1154496,"lng":-77.5645446,"hometown_city":"Leesburg","hometown_state":"VA"},{"name":"Zaden Krempin","year":2026,"position":"IOL","stars":4,"rating_247":90.0,"committed_to":"Texas A&M","lat":33.2385763,"lng":-96.7866058,"hometown_city":"Prosper","hometown_state":"TX"},{"name":"Zykie Helton","year":2026,"position":"IOL","stars":3,"rating_247":90.0,"committed_to":"Georgia","lat":33.5801103,"lng":-85.0766113,"hometown_city":"Carrollton","hometown_state":"GA"},{"name":"Will Conroy","year":2026,"position":"IOL","stars":3,"rating_247":89.0,"committed_to":"North Carolina","lat":27.4989278,"lng":-82.5748194,"hometown_city":"Bradenton","hometown_state":"FL"},{"name":"Leo Delaney","year":2026,"position":"IOL","stars":4,"rating_247":89.0,"committed_to":"Clemson","lat":35.2272,"lng":-80.843083,"hometown_city":"Charlotte","hometown_state":"NC"},{"name":"Jared Smith","year":2026,"position":"IOL","stars":4,"rating_247":89.0,"committed_to":"Rutgers","lat":33.5442781,"lng":-84.2338093,"hometown_city":"Stockbridge","hometown_state":"GA"},{"name":"Brandon Anderson","year":2026,"position":"IOL","stars":3,"rating_247":89.0,"committed_to":"Missouri","lat":34.0234337,"lng":-84.6154897,"hometown_city":"Kennesaw","hometown_state":"GA"},{"name":"Tony Balanganayi","year":2026,"position":"IOL","stars":3,"rating_247":89.0,"committed_to":"Illinois","lat":42.1105779,"lng":-88.0336888,"hometown_city":"Palatine","hometown_state":"IL"},{"name":"Pulelei'ite Primus","year":2026,"position":"IOL","stars":3,"rating_247":89.0,"committed_to":"Vanderbilt","lat":31.9973662,"lng":-102.0779482,"hometown_city":"Midland","hometown_state":"TX"},{"name":"Parker Pritchett","year":2026,"position":"IOL","stars":3,"rating_247":88.0,"committed_to":"Auburn","lat":32.4609764,"lng":-84.9877094,"hometown_city":"Columbus","hometown_state":"GA"},{"name":"Jakobe Green","year":2026,"position":"IOL","stars":3,"rating_247":87.0,"committed_to":"Florida State","lat":30.5871948,"lng":-84.5832619,"hometown_city":"Quincy","hometown_state":"FL"},{"name":"Scottland Dover","year":2026,"position":"IOL","stars":3,"rating_247":87.0,"committed_to":"Appalachian State","lat":35.0717945,"lng":-81.6498195,"hometown_city":"Gaffney","hometown_state":"SC"},{"name":"Jerald Mays","year":2026,"position":"IOL","stars":3,"rating_247":87.0,"committed_to":"Texas Tech","lat":30.4393696,"lng":-97.6200043,"hometown_city":"Pflugerville","hometown_state":"TX"},{"name":"JJ Sparks","year":2026,"position":"IOL","stars":3,"rating_247":86.0,"committed_to":"Miami","lat":30.3321838,"lng":-81.655651,"hometown_city":"Jacksonville","hometown_state":"FL"},{"name":"George Williams-Haseotes","year":2026,"position":"IOL","stars":null,"rating_247":86.0,"committed_to":"Vanderbilt","lat":28.6305,"lng":-82.4497,"hometown_city":"Naples","hometown_state":"FL"},{"name":"Toa Katoa","year":2026,"position":"IOL","stars":null,"rating_247":86.0,"committed_to":"SMU","lat":31.4757,"lng":-99.3312,"hometown_city":"Euless","hometown_state":"TX"},{"name":"Eli Rickell","year":2026,"position":"IOL","stars":3,"rating_247":86.0,"committed_to":null,"lat":33.9412127,"lng":-84.2135309,"hometown_city":"Norcross","hometown_state":"GA"},{"name":"Lamarcus Dillard","year":2026,"position":"IOL","stars":3,"rating_247":86.0,"committed_to":"West Virginia","lat":39.2908816,"lng":-76.610759,"hometown_city":"Baltimore","hometown_state":"MD"},{"name":"David Pellman","year":2026,"position":"IOL","stars":3,"rating_247":84.0,"committed_to":"Eastern Kentucky","lat":38.2542376,"lng":-85.759407,"hometown_city":"Louisville","hometown_state":"KY"},{"name":"Blake Graham","year":2026,"position":"IOL","stars":3,"rating_247":83.0,"committed_to":"Cal Poly","lat":33.8885217,"lng":-118.3531991,"hometown_city":"Lawndale","hometown_state":"CA"},{"name":"Luke Wafle","year":2026,"position":"Edge","stars":4,"rating_247":99.0,"committed_to":"Southern California","lat":40.3492744,"lng":-74.6592958,"hometown_city":"Princeton","hometown_state":"NJ"},{"name":"Zion Elee","year":2026,"position":"Edge","stars":5,"rating_247":98.0,"committed_to":"Maryland","lat":39.2908816,"lng":-76.610759,"hometown_city":"Baltimore","hometown_state":"MD"},{"name":"Carter Meadows","year":2026,"position":"Edge","stars":5,"rating_247":98.0,"committed_to":"Michigan","lat":38.8949855,"lng":-77.0365708,"hometown_city":"Washington","hometown_state":"DC"},{"name":"Anthony Jones Jr.","year":2026,"position":"Edge","stars":null,"rating_247":98.0,"committed_to":"Oregon","lat":32.7794,"lng":-86.8287,"hometown_city":"Mobile","hometown_state":"AL"},{"name":"LaDamion Guyton","year":2026,"position":"Edge","stars":5,"rating_247":97.0,"committed_to":"Texas Tech","lat":32.0809263,"lng":-81.0911768,"hometown_city":"Savannah","hometown_state":"GA"},{"name":"Tristian Givens","year":2026,"position":"Edge","stars":4,"rating_247":97.0,"committed_to":"Texas A&M","lat":32.4609764,"lng":-84.9877094,"hometown_city":"Columbus","hometown_state":"GA"},{"name":"Jake Kreul","year":2026,"position":"Edge","stars":4,"rating_247":96.0,"committed_to":"Oklahoma","lat":27.4989278,"lng":-82.5748194,"hometown_city":"Bradenton","hometown_state":"FL"},{"name":"Kosi Okpala","year":2026,"position":"Edge","stars":4,"rating_247":96.0,"committed_to":"Texas","lat":29.7589382,"lng":-95.3676974,"hometown_city":"Houston","hometown_state":"TX"},{"name":"Jaquez Wilkes","year":2026,"position":"Edge","stars":4,"rating_247":96.0,"committed_to":"Auburn","lat":33.1215089,"lng":-85.5663432,"hometown_city":"Wadley","hometown_state":"AL"},{"name":"Richard Wesley","year":2026,"position":"Edge","stars":5,"rating_247":95.0,"committed_to":"Texas","lat":34.2595715,"lng":-118.6023247,"hometown_city":"Chatsworth","hometown_state":"CA"},{"name":"Asharri Charles","year":2026,"position":"Edge","stars":4,"rating_247":95.0,"committed_to":"Miami","lat":27.0999188,"lng":-82.4543597,"hometown_city":"Venice","hometown_state":"FL"},{"name":"Trenton Henderson","year":2026,"position":"Edge","stars":4,"rating_247":95.0,"committed_to":"Louisiana State","lat":30.421309,"lng":-87.2169149,"hometown_city":"Pensacola","hometown_state":"FL"},{"name":"Ebenezer Ewetade","year":2026,"position":"Edge","stars":4,"rating_247":93.0,"committed_to":"Notre Dame","lat":35.7112642,"lng":-78.6141709,"hometown_city":"Garner","hometown_state":"NC"},{"name":"Jordan Campbell","year":2026,"position":"Edge","stars":4,"rating_247":93.0,"committed_to":"Miami","lat":25.896733849999997,"lng":-80.25949640850294,"hometown_city":"Opa Locka","hometown_state":"FL"},{"name":"Simote Katoanga","year":2026,"position":"Edge","stars":4,"rating_247":92.0,"committed_to":"Southern California","lat":33.6408845,"lng":-117.6029341,"hometown_city":"Rancho Santa Margarita","hometown_state":"CA"},{"name":"Khamari Brooks","year":2026,"position":"Edge","stars":4,"rating_247":91.0,"committed_to":"Georgia","lat":33.949281,"lng":-83.534608,"hometown_city":"Bogart","hometown_state":"GA"},{"name":"DeAnthony Lafayette","year":2026,"position":"Edge","stars":4,"rating_247":91.0,"committed_to":"Miami","lat":28.5421109,"lng":-81.3790304,"hometown_city":"Orlando","hometown_state":"FL"},{"name":"Dre Quinn","year":2026,"position":"Edge","stars":4,"rating_247":91.0,"committed_to":"Ohio State","lat":34.1206564,"lng":-84.0043513,"hometown_city":"Buford","hometown_state":"GA"},{"name":"Breeze Carter","year":2026,"position":"Edge","stars":null,"rating_247":91.0,"committed_to":"Tennessee","lat":32.6415,"lng":-83.4426,"hometown_city":"Douglasville","hometown_state":"GA"},{"name":"Shaun Scott","year":2026,"position":"Edge","stars":4,"rating_247":90.0,"committed_to":"Southern California","lat":33.7494951,"lng":-117.8732213,"hometown_city":"Santa Ana","hometown_state":"CA"},{"name":"Elijah Littlejohn","year":2026,"position":"Edge","stars":4,"rating_247":90.0,"committed_to":"Georgia","lat":35.2272,"lng":-80.843083,"hometown_city":"Charlotte","hometown_state":"NC"},{"name":"Zavion Griffin-Haynes","year":2026,"position":"Edge","stars":3,"rating_247":89.0,"committed_to":"North Carolina","lat":35.9232862,"lng":-78.4573914,"hometown_city":"Rolesville","hometown_state":"NC"},{"name":"McHale Blade","year":2026,"position":"Edge","stars":4,"rating_247":89.0,"committed_to":"Michigan","lat":41.8755616,"lng":-87.6244212,"hometown_city":"Chicago","hometown_state":"IL"},{"name":"Colton Yarbrough","year":2026,"position":"Edge","stars":3,"rating_247":89.0,"committed_to":"Arkansas","lat":33.9958945,"lng":-96.3814259,"hometown_city":"Durant","hometown_state":"OK"},{"name":"Hezekiah Harris","year":2026,"position":"Edge","stars":4,"rating_247":89.0,"committed_to":"Tennessee","lat":34.729847,"lng":-86.5859011,"hometown_city":"Huntsville","hometown_state":"AL"},{"name":"Daniel Norman","year":2026,"position":"Edge","stars":3,"rating_247":88.0,"committed_to":"Oklahoma","lat":26.1223084,"lng":-80.1433786,"hometown_city":"Fort Lauderdale","hometown_state":"FL"},{"name":"David Schwerzel","year":2026,"position":"Edge","stars":3,"rating_247":88.0,"committed_to":"Washington","lat":47.6038321,"lng":-122.3300624,"hometown_city":"Seattle","hometown_state":"WA"},{"name":"Mhari Johnson","year":2026,"position":"Edge","stars":null,"rating_247":88.0,"committed_to":"Alabama","lat":32.7794,"lng":-86.8287,"hometown_city":"Muscle Shoals","hometown_state":"AL"},{"name":"Cam Brooks","year":2026,"position":"Edge","stars":3,"rating_247":88.0,"committed_to":"Florida State","lat":30.8365815,"lng":-83.9787808,"hometown_city":"Thomasville","hometown_state":"GA"},{"name":"Fameitau Siale","year":2026,"position":"Edge","stars":3,"rating_247":88.0,"committed_to":"Utah","lat":47.6038321,"lng":-122.3300624,"hometown_city":"Seattle","hometown_state":"WA"},{"name":"Ronelle Johnson","year":2026,"position":"Edge","stars":4,"rating_247":88.0,"committed_to":"Indiana","lat":39.017316,"lng":-94.282265,"hometown_city":"Blue Springs","hometown_state":"MO"},{"name":"Dutch Horisk","year":2026,"position":"Edge","stars":3,"rating_247":88.0,"committed_to":"Oregon","lat":33.8825705,"lng":-118.1167679,"hometown_city":"Bellflower","hometown_state":"CA"},{"name":"Keytrin Harris","year":2026,"position":"Edge","stars":3,"rating_247":87.0,"committed_to":"Arizona","lat":33.3062223,"lng":-111.8413317,"hometown_city":"Chandler","hometown_state":"AZ"},{"name":"Prince Williams","year":2026,"position":"Edge","stars":3,"rating_247":87.0,"committed_to":"Arizona","lat":36.1672559,"lng":-115.1485163,"hometown_city":"Las Vegas","hometown_state":"NV"},{"name":"Katrell Webb","year":2026,"position":"Edge","stars":3,"rating_247":87.0,"committed_to":"Purdue","lat":34.0514898,"lng":-84.0712997,"hometown_city":"Suwanee","hometown_state":"GA"},{"name":"Evan Harvey","year":2026,"position":"Edge","stars":3,"rating_247":87.0,"committed_to":"Memphis","lat":33.4713249,"lng":-84.5972005,"hometown_city":"Tyrone","hometown_state":"GA"},{"name":"Garrett Witherington","year":2026,"position":"Edge","stars":3,"rating_247":87.0,"committed_to":"Virginia Tech","lat":33.5206824,"lng":-86.8024326,"hometown_city":"Birmingham","hometown_state":"AL"},{"name":"Ben Mubenga","year":2026,"position":"Edge","stars":3,"rating_247":86.0,"committed_to":"Arkansas","lat":34.1206564,"lng":-84.0043513,"hometown_city":"Buford","hometown_state":"GA"},{"name":"Richard Anderson","year":2026,"position":"DL","stars":5,"rating_247":98.0,"committed_to":"Louisiana State","lat":29.9499323,"lng":-90.0701156,"hometown_city":"New Orleans","hometown_state":"LA"},{"name":"Jaimeon Winfield","year":2026,"position":"DL","stars":4,"rating_247":98.0,"committed_to":"Southern California","lat":32.9481789,"lng":-96.7297206,"hometown_city":"Richardson","hometown_state":"TX"},{"name":"Valdin Sone","year":2026,"position":"DL","stars":4,"rating_247":98.0,"committed_to":"Georgia","lat":38.2537414,"lng":-78.5397363,"hometown_city":"Dyke","hometown_state":"VA"},{"name":"Carter Gooden","year":2026,"position":"DL","stars":4,"rating_247":96.0,"committed_to":"Tennessee","lat":41.7001043,"lng":-70.7628129,"hometown_city":"Marion","hometown_state":"MA"},{"name":"Deuce Geralds","year":2026,"position":"DL","stars":4,"rating_247":96.0,"committed_to":"Louisiana State","lat":34.0514898,"lng":-84.0712997,"hometown_city":"Suwanee","hometown_state":"GA"},{"name":"Titan Davis","year":2026,"position":"DL","stars":4,"rating_247":96.0,"committed_to":"Michigan","lat":38.6268039,"lng":-90.1994097,"hometown_city":"St. Louis","hometown_state":"MO"},{"name":"Bryce Perry-Wright","year":2026,"position":"DL","stars":4,"rating_247":96.0,"committed_to":"Texas A&M","lat":34.1206564,"lng":-84.0043513,"hometown_city":"Buford","hometown_state":"GA"},{"name":"Aiden Harris","year":2026,"position":"DL","stars":4,"rating_247":95.0,"committed_to":"South Carolina","lat":35.1170873,"lng":-80.723718,"hometown_city":"Matthews","hometown_state":"NC"},{"name":"Nolan Wilson","year":2026,"position":"DL","stars":4,"rating_247":95.0,"committed_to":"Alabama","lat":30.5254692,"lng":-89.6795084,"hometown_city":"Picayune","hometown_state":"MS"},{"name":"Tomuhini Topui","year":2026,"position":"DL","stars":4,"rating_247":95.0,"committed_to":"Southern California","lat":33.7494951,"lng":-117.8732213,"hometown_city":"Santa Ana","hometown_state":"CA"},{"name":"Keshawn Stancil","year":2026,"position":"DL","stars":4,"rating_247":95.0,"committed_to":"Miami","lat":35.650711,"lng":-78.4563914,"hometown_city":"Clayton","hometown_state":"NC"},{"name":"JD Hill","year":2026,"position":"DL","stars":4,"rating_247":95.0,"committed_to":"Washington","lat":33.5965685,"lng":-117.659405,"hometown_city":"Mission Viejo","hometown_state":"CA"},{"name":"Alister Vallejo","year":2026,"position":"DL","stars":4,"rating_247":94.0,"committed_to":"Michigan","lat":30.6649119,"lng":-97.9225161,"hometown_city":"Liberty Hill","hometown_state":"TX"},{"name":"Dylan Berymon","year":2026,"position":"DL","stars":4,"rating_247":94.0,"committed_to":"Nebraska","lat":32.5093109,"lng":-92.1193012,"hometown_city":"Monroe","hometown_state":"LA"},{"name":"Noah Clark","year":2026,"position":"DL","stars":4,"rating_247":94.0,"committed_to":"South Carolina","lat":35.996653,"lng":-78.9018053,"hometown_city":"Durham","hometown_state":"NC"},{"name":"Emanuel Ruffin","year":2026,"position":"DL","stars":4,"rating_247":93.0,"committed_to":"Ohio State","lat":33.3823635,"lng":-86.91720475,"hometown_city":"Bessemer","hometown_state":"AL"},{"name":"Tajh Overton","year":2026,"position":"DL","stars":4,"rating_247":93.0,"committed_to":"Missouri","lat":36.2661536,"lng":-95.8549456,"hometown_city":"Owasso","hometown_state":"OK"},{"name":"James Johnson","year":2026,"position":"DL","stars":4,"rating_247":93.0,"committed_to":"Texas","lat":25.7742658,"lng":-80.1936589,"hometown_city":"Miami","hometown_state":"FL"},{"name":"Kevontay Hugan","year":2026,"position":"DL","stars":4,"rating_247":93.0,"committed_to":"Indiana","lat":27.3364347,"lng":-82.5306527,"hometown_city":"Sarasota","hometown_state":"FL"},{"name":"Corey Wells","year":2026,"position":"DL","stars":4,"rating_247":92.0,"committed_to":"Auburn","lat":31.3465627,"lng":-89.2600605,"hometown_city":"Petal","hometown_state":"MS"},{"name":"KJ Ford","year":2026,"position":"DL","stars":4,"rating_247":92.0,"committed_to":"Florida","lat":32.6518004,"lng":-96.9083366,"hometown_city":"Duncanville","hometown_state":"TX"},{"name":"Vodney Cleveland","year":2026,"position":"DL","stars":4,"rating_247":92.0,"committed_to":"North Carolina","lat":33.5206824,"lng":-86.8024326,"hometown_city":"Birmingham","hometown_state":"AL"},{"name":"Kendall Guervil","year":2026,"position":"DL","stars":4,"rating_247":91.0,"committed_to":"Florida","lat":26.640628,"lng":-81.8723084,"hometown_city":"Fort Myers","hometown_state":"FL"},{"name":"Prince Tavizon","year":2026,"position":"DL","stars":4,"rating_247":90.0,"committed_to":"Oregon","lat":32.7174209,"lng":-117.1627714,"hometown_city":"San Diego","hometown_state":"CA"},{"name":"Emanuel Tucker","year":2026,"position":"DL","stars":4,"rating_247":90.0,"committed_to":"Mississippi","lat":34.4942683,"lng":-89.0078418,"hometown_city":"New Albany","hometown_state":"MS"},{"name":"Anthony Kennedy Jr.","year":2026,"position":"DL","stars":3,"rating_247":90.0,"committed_to":"Arkansas","lat":34.7464809,"lng":-92.2895948,"hometown_city":"Little Rock","hometown_state":"AR"},{"name":"Damari Simeon","year":2026,"position":"DL","stars":4,"rating_247":90.0,"committed_to":"Ohio State","lat":39.4917828,"lng":-74.8707243,"hometown_city":"Richland","hometown_state":"NJ"},{"name":"Alex Haskell","year":2026,"position":"DL","stars":null,"rating_247":90.0,"committed_to":"Syracuse","lat":40.8781,"lng":-77.7996,"hometown_city":"Philadelphia","hometown_state":"PA"},{"name":"Isaac Chukwurah","year":2026,"position":"DL","stars":3,"rating_247":90.0,"committed_to":"Miami","lat":39.6292788,"lng":-75.6582628,"hometown_city":"Bear","hometown_state":"DE"},{"name":"Jimmy-Phrisco Alo-Suliafu","year":2026,"position":"DL","stars":3,"rating_247":90.0,"committed_to":"North Carolina","lat":29.690292,"lng":-95.8996261,"hometown_city":"Fulshear","hometown_state":"TX"},{"name":"Fred Sainteus","year":2026,"position":"DL","stars":null,"rating_247":89.0,"committed_to":"Miami","lat":28.6305,"lng":-82.4497,"hometown_city":"Naples","hometown_state":"FL"},{"name":"Tufanua Ionatana Umu-Cais","year":2026,"position":"DL","stars":3,"rating_247":89.0,"committed_to":"Washington","lat":39.6482059,"lng":-104.9879641,"hometown_city":"Englewood","hometown_state":"CO"},{"name":"Cameron Brickle II","year":2026,"position":"DL","stars":null,"rating_247":89.0,"committed_to":"Maryland","lat":28.6305,"lng":-82.4497,"hometown_city":"Bradenton","hometown_state":"FL"},{"name":"Jermaine Kinsler","year":2026,"position":"DL","stars":4,"rating_247":89.0,"committed_to":"Texas A&M","lat":40.9543943,"lng":-74.0308504,"hometown_city":"Oradell","hometown_state":"NJ"},{"name":"Carter Luckie","year":2026,"position":"DL","stars":4,"rating_247":89.0,"committed_to":"Georgia","lat":33.9412127,"lng":-84.2135309,"hometown_city":"Norcross","hometown_state":"GA"},{"name":"Andrew Harris","year":2026,"position":"DL","stars":4,"rating_247":89.0,"committed_to":"South Carolina","lat":35.1170873,"lng":-80.723718,"hometown_city":"Matthews","hometown_state":"NC"},{"name":"Logan Nagle","year":2026,"position":"DL","stars":3,"rating_247":89.0,"committed_to":"Miami","lat":40.9491723,"lng":-74.2376802,"hometown_city":"Wayne","hometown_state":"NJ"},{"name":"Ryan Miret","year":2026,"position":"DL","stars":3,"rating_247":88.0,"committed_to":"Louisiana State","lat":25.7742658,"lng":-80.1936589,"hometown_city":"Miami","hometown_state":"FL"},{"name":"G'Nivre Carr","year":2026,"position":"DL","stars":3,"rating_247":88.0,"committed_to":"Florida","lat":27.4989278,"lng":-82.5748194,"hometown_city":"Bradenton","hometown_state":"FL"},{"name":"Preston Carey","year":2026,"position":"DL","stars":3,"rating_247":88.0,"committed_to":"Georgia","lat":27.4989278,"lng":-82.5748194,"hometown_city":"Bradenton","hometown_state":"FL"},{"name":"Nemyah Telona","year":2026,"position":"DL","stars":3,"rating_247":88.0,"committed_to":"California","lat":37.9768525,"lng":-122.0335624,"hometown_city":"Concord","hometown_state":"CA"},{"name":"Tiki Hola","year":2026,"position":"DL","stars":4,"rating_247":88.0,"committed_to":"Notre Dame","lat":30.1104947,"lng":-97.3152701,"hometown_city":"Bastrop","hometown_state":"TX"},{"name":"Viliami Moala","year":2026,"position":"DL","stars":3,"rating_247":88.0,"committed_to":"North Carolina","lat":33.2442813,"lng":-86.8163773,"hometown_city":"Alabaster","hometown_state":"AL"},{"name":"Kam Cody","year":2026,"position":"DL","stars":null,"rating_247":88.0,"committed_to":"Clemson","lat":32.6415,"lng":-83.4426,"hometown_city":"Savannah","hometown_state":"GA"},{"name":"Isaiah Broughton","year":2026,"position":"DL","stars":3,"rating_247":88.0,"committed_to":"Houston","lat":29.7589382,"lng":-95.3676974,"hometown_city":"Houston","hometown_state":"TX"},{"name":"David Jackson","year":2026,"position":"DL","stars":3,"rating_247":88.0,"committed_to":"North Carolina","lat":39.1532123,"lng":-77.0668408,"hometown_city":"Olney","hometown_state":"MD"},{"name":"JJ Finch","year":2026,"position":"DL","stars":3,"rating_247":88.0,"committed_to":"Tennessee","lat":39.7683331,"lng":-86.1583502,"hometown_city":"Indianapolis","hometown_state":"IN"},{"name":"James Carrington","year":2026,"position":"DL","stars":3,"rating_247":87.0,"committed_to":"Oklahoma","lat":33.6856969,"lng":-117.8259819,"hometown_city":"Irvine","hometown_state":"CA"},{"name":"Joseph Peko","year":2026,"position":"DL","stars":3,"rating_247":87.0,"committed_to":"Washington","lat":34.1460234,"lng":-118.8061794,"hometown_city":"Westlake Village","hometown_state":"CA"},{"name":"Darryus McKinley","year":2026,"position":"DL","stars":3,"rating_247":87.0,"committed_to":"Ohio State","lat":30.2240897,"lng":-92.0198427,"hometown_city":"Lafayette","hometown_state":"LA"},{"name":"Kordae Houston","year":2026,"position":"DL","stars":3,"rating_247":87.0,"committed_to":"Syracuse","lat":32.7762719,"lng":-96.7968559,"hometown_city":"Dallas","hometown_state":"TX"},{"name":"Manoah Faupusa","year":2026,"position":"DL","stars":3,"rating_247":86.0,"committed_to":"Arizona","lat":33.6408845,"lng":-117.6029341,"hometown_city":"Rancho Santa Margarita","hometown_state":"CA"},{"name":"Freddie Wilson","year":2026,"position":"DL","stars":3,"rating_247":86.0,"committed_to":"Georgia State","lat":29.101628050000002,"lng":-81.01059617608054,"hometown_city":"Port Orange","hometown_state":"FL"},{"name":"Tyson Bacon","year":2026,"position":"DL","stars":3,"rating_247":86.0,"committed_to":"Miami","lat":33.3848933,"lng":-86.8070484,"hometown_city":"Hoover","hometown_state":"AL"},{"name":"Kaleb Morris","year":2026,"position":"DL","stars":3,"rating_247":86.0,"committed_to":"Mississippi State","lat":30.778688,"lng":-88.2588427,"hometown_city":"Semmes","hometown_state":"AL"},{"name":"Seven Cloud","year":2026,"position":"DL","stars":null,"rating_247":86.0,"committed_to":null,"lat":38.4937,"lng":-98.3804,"hometown_city":"El Dorado","hometown_state":"KS"},{"name":"Cameron McGee","year":2026,"position":"DL","stars":3,"rating_247":85.0,"committed_to":"Boston College","lat":33.8389977,"lng":-83.9007382,"hometown_city":"Loganville","hometown_state":"GA"},{"name":"James Morrow","year":2026,"position":"DL","stars":null,"rating_247":84.0,"committed_to":"Murray State","lat":28.6305,"lng":-82.4497,"hometown_city":"Bradenton","hometown_state":"FL"},{"name":"Brandon Simmons Jr.","year":2026,"position":"DL","stars":3,"rating_247":82.0,"committed_to":"Eastern Michigan","lat":39.7027677,"lng":-75.1119434,"hometown_city":"Glassboro","hometown_state":"NJ"},{"name":"Xavier Griffin","year":2026,"position":"LB","stars":5,"rating_247":98.0,"committed_to":"Alabama","lat":34.2978794,"lng":-83.8240663,"hometown_city":"Gainesville","hometown_state":"GA"},{"name":"Cincere Johnson","year":2026,"position":"LB","stars":4,"rating_247":98.0,"committed_to":"Ohio State","lat":41.5051613,"lng":-81.6934446,"hometown_city":"Cleveland","hometown_state":"OH"},{"name":"Tyler Atkinson","year":2026,"position":"LB","stars":5,"rating_247":97.0,"committed_to":"Texas","lat":33.8389977,"lng":-83.9007382,"hometown_city":"Loganville","hometown_state":"GA"},{"name":"Talanoa Ili","year":2026,"position":"LB","stars":4,"rating_247":95.0,"committed_to":"Southern California","lat":21.679124,"lng":-157.94838,"hometown_city":"Kahuku","hometown_state":"HI"},{"name":"Izayia Williams","year":2026,"position":"LB","stars":4,"rating_247":91.0,"committed_to":"Florida State","lat":28.78992535,"lng":-81.77516353978501,"hometown_city":"Tavares","hometown_state":"FL"},{"name":"Thomas Davis Jr.","year":2026,"position":"LB","stars":4,"rating_247":90.0,"committed_to":"Notre Dame","lat":35.1170873,"lng":-80.723718,"hometown_city":"Matthews","hometown_state":"NC"},{"name":"JJ Bush","year":2026,"position":"LB","stars":4,"rating_247":90.0,"committed_to":"Missouri","lat":30.547295,"lng":-88.18020367595204,"hometown_city":"Theodore","hometown_state":"AL"},{"name":"Shadarius Toodle","year":2026,"position":"LB","stars":4,"rating_247":90.0,"committed_to":"Auburn","lat":30.6943566,"lng":-88.0430541,"hometown_city":"Mobile","hometown_state":"AL"},{"name":"CJ Sanna","year":2026,"position":"LB","stars":4,"rating_247":90.0,"committed_to":"Ohio State","lat":40.1983958,"lng":-83.0101843,"hometown_city":"Lewis Center","hometown_state":"OH"},{"name":"DQ Forkpa","year":2026,"position":"LB","stars":null,"rating_247":90.0,"committed_to":"North Carolina","lat":39.055,"lng":-76.7909,"hometown_city":"Baltimore","hometown_state":"MD"},{"name":"Justin Edwards","year":2026,"position":"LB","stars":3,"rating_247":89.0,"committed_to":"Miami","lat":28.5421109,"lng":-81.3790304,"hometown_city":"Orlando","hometown_state":"FL"},{"name":"Malik Morris","year":2026,"position":"LB","stars":4,"rating_247":89.0,"committed_to":"Florida","lat":28.0394654,"lng":-81.9498042,"hometown_city":"Lakeland","hometown_state":"FL"},{"name":"Kedric Golston II","year":2026,"position":"LB","stars":4,"rating_247":89.0,"committed_to":"Tennessee","lat":39.0437192,"lng":-77.4874899,"hometown_city":"Ashburn","hometown_state":"VA"},{"name":"Karsten Busch","year":2026,"position":"LB","stars":4,"rating_247":89.0,"committed_to":"Miami","lat":38.2542376,"lng":-85.759407,"hometown_city":"Louisville","hometown_state":"KY"},{"name":"Ja'Michael Garrett","year":2026,"position":"LB","stars":null,"rating_247":88.0,"committed_to":"Mississippi","lat":31.0689,"lng":-91.9968,"hometown_city":"Baton Rouge","hometown_state":"LA"},{"name":"Julian Burns","year":2026,"position":"LB","stars":3,"rating_247":88.0,"committed_to":"North Carolina","lat":32.5093109,"lng":-92.1193012,"hometown_city":"Monroe","hometown_state":"LA"},{"name":"Braxton Lindsey","year":2026,"position":"LB","stars":3,"rating_247":88.0,"committed_to":"BYU","lat":36.3320197,"lng":-94.1185366,"hometown_city":"Rogers","hometown_state":"AR"},{"name":"Hudson Dunn","year":2026,"position":"LB","stars":3,"rating_247":87.0,"committed_to":"Minnesota","lat":33.5806115,"lng":-112.2372942,"hometown_city":"Peoria","hometown_state":"AZ"},{"name":"Rodney Colton Jr.","year":2026,"position":"LB","stars":null,"rating_247":87.0,"committed_to":"Colorado","lat":32.6415,"lng":-83.4426,"hometown_city":"Newnan","hometown_state":"GA"},{"name":"Adam Balogoun-Ali","year":2026,"position":"LB","stars":4,"rating_247":87.0,"committed_to":"Auburn","lat":26.715364,"lng":-80.0532942,"hometown_city":"West Palm Beach","hometown_state":"FL"},{"name":"Damari Drake","year":2026,"position":"LB","stars":3,"rating_247":86.0,"committed_to":"Nicholls","lat":32.5221828,"lng":-93.7651944,"hometown_city":"Shreveport","hometown_state":"LA"},{"name":"Dennis King III","year":2026,"position":"LB","stars":3,"rating_247":86.0,"committed_to":"South Florida","lat":29.2108147,"lng":-81.0228331,"hometown_city":"Daytona Beach","hometown_state":"FL"},{"name":"Jayden Jones","year":2026,"position":"LB","stars":3,"rating_247":86.0,"committed_to":"Connecticut","lat":39.4020593,"lng":-75.0393368,"hometown_city":"Millville","hometown_state":"NJ"},{"name":"Bryce Robinson","year":2026,"position":"LB","stars":3,"rating_247":86.0,"committed_to":"Nevada, Las Vegas","lat":33.9528472,"lng":-84.5496148,"hometown_city":"Marietta","hometown_state":"GA"},{"name":"CJ Sibley","year":2026,"position":"LB","stars":null,"rating_247":null,"committed_to":null,"lat":32.6415,"lng":-83.4426,"hometown_city":"Buford","hometown_state":"GA"},{"name":"Danny Odem III","year":2026,"position":"CB","stars":null,"rating_247":98.0,"committed_to":"Nebraska","lat":28.6305,"lng":-82.4497,"hometown_city":"Orlando","hometown_state":"FL"},{"name":"Jorden Edmonds","year":2026,"position":"CB","stars":5,"rating_247":98.0,"committed_to":"Alabama","lat":33.9528472,"lng":-84.5496148,"hometown_city":"Marietta","hometown_state":"GA"},{"name":"Khary Adams","year":2026,"position":"CB","stars":5,"rating_247":97.0,"committed_to":"Notre Dame","lat":39.4018552,"lng":-76.602388,"hometown_city":"Towson","hometown_state":"MD"},{"name":"Chuck Kennon","year":2026,"position":"CB","stars":null,"rating_247":97.0,"committed_to":"Florida State","lat":28.6305,"lng":-82.4497,"hometown_city":"Sarasota","hometown_state":"FL"},{"name":"Zyan Gibson","year":2026,"position":"CB","stars":4,"rating_247":96.0,"committed_to":"Alabama","lat":34.010929,"lng":-85.9989596,"hometown_city":"Gadsden","hometown_state":"AL"},{"name":"J'Zavien Currence","year":2026,"position":"CB","stars":4,"rating_247":96.0,"committed_to":"South Carolina","lat":34.9248667,"lng":-81.0250784,"hometown_city":"Rock Hill","hometown_state":"SC"},{"name":"Elbert Hill IV","year":2026,"position":"CB","stars":null,"rating_247":95.0,"committed_to":"Southern California","lat":40.2862,"lng":-82.7937,"hometown_city":"Akron","hometown_state":"OH"},{"name":"Caden Harris","year":2026,"position":"CB","stars":4,"rating_247":95.0,"committed_to":"Georgia","lat":35.5939671,"lng":-89.262291,"hometown_city":"Brownsville","hometown_state":"TN"},{"name":"Samari Matthews","year":2026,"position":"CB","stars":4,"rating_247":94.0,"committed_to":"Texas","lat":35.4817982,"lng":-80.8589501,"hometown_city":"Cornelius","hometown_state":"NC"},{"name":"Camdin Portis","year":2026,"position":"CB","stars":4,"rating_247":94.0,"committed_to":"Miami","lat":35.2272,"lng":-80.843083,"hometown_city":"Charlotte","hometown_state":"NC"},{"name":"Davon Benjamin","year":2026,"position":"CB","stars":4,"rating_247":94.0,"committed_to":"Oregon","lat":34.1460234,"lng":-118.8061794,"hometown_city":"Westlake Village","hometown_state":"CA"},{"name":"Jaelen Waters","year":2026,"position":"CB","stars":4,"rating_247":94.0,"committed_to":"Miami","lat":27.998541000000003,"lng":-82.27488400114905,"hometown_city":"Seffner","hometown_state":"FL"},{"name":"Kosci Barnes","year":2026,"position":"CB","stars":4,"rating_247":94.0,"committed_to":"South Carolina","lat":36.0726355,"lng":-79.7919754,"hometown_city":"Greensboro","hometown_state":"NC"},{"name":"Khmari Bing","year":2026,"position":"CB","stars":4,"rating_247":92.0,"committed_to":"Ohio State","lat":39.2908816,"lng":-76.610759,"hometown_city":"Baltimore","hometown_state":"MD"},{"name":"Dylan Purter","year":2026,"position":"CB","stars":4,"rating_247":92.0,"committed_to":"Florida","lat":32.4240286,"lng":-85.6916195,"hometown_city":"Tuskegee","hometown_state":"AL"},{"name":"Havon Finney Jr.","year":2026,"position":"CB","stars":null,"rating_247":91.0,"committed_to":"Louisiana State","lat":37.1841,"lng":-119.4696,"hometown_city":"Chatsworth","hometown_state":"CA"},{"name":"Hayward Howard Jr.","year":2026,"position":"CB","stars":4,"rating_247":91.0,"committed_to":"Texas","lat":29.9499323,"lng":-90.0701156,"hometown_city":"New Orleans","hometown_state":"LA"},{"name":"Devonte Anderson","year":2026,"position":"CB","stars":3,"rating_247":90.0,"committed_to":"Rutgers","lat":28.5656649,"lng":-81.5856742,"hometown_city":"Winter Garden","hometown_state":"FL"},{"name":"Dorian Barney","year":2026,"position":"CB","stars":4,"rating_247":90.0,"committed_to":"Mississippi","lat":33.5801103,"lng":-85.0766113,"hometown_city":"Carrollton","hometown_state":"GA"},{"name":"Kenton Dopson III","year":2026,"position":"CB","stars":null,"rating_247":90.0,"committed_to":"North Carolina","lat":28.6305,"lng":-82.4497,"hometown_city":"Miami","hometown_state":"FL"},{"name":"Asaad Chapman","year":2026,"position":"CB","stars":null,"rating_247":90.0,"committed_to":"Texas-San Antonio","lat":37.1841,"lng":-119.4696,"hometown_city":"San Bernardino","hometown_state":"CA"},{"name":"Andre Clarke Jr.","year":2026,"position":"CB","stars":4,"rating_247":90.0,"committed_to":"Kentucky","lat":37.5385087,"lng":-77.43428,"hometown_city":"Richmond","hometown_state":"VA"},{"name":"Brandon Lockhart","year":2026,"position":"CB","stars":4,"rating_247":89.0,"committed_to":"Southern California","lat":34.2595715,"lng":-118.6023247,"hometown_city":"Chatsworth","hometown_state":"CA"},{"name":"Aisa Galea'i","year":2026,"position":"CB","stars":3,"rating_247":89.0,"committed_to":"Utah","lat":40.2971825,"lng":-111.694943,"hometown_city":"Orem","hometown_state":"UT"},{"name":"Brody Jennings","year":2026,"position":"CB","stars":4,"rating_247":88.0,"committed_to":"Miami","lat":30.3321838,"lng":-81.655651,"hometown_city":"Jacksonville","hometown_state":"FL"},{"name":"Jordan Crutchfield","year":2026,"position":"CB","stars":3,"rating_247":88.0,"committed_to":"Florida State","lat":27.6387163,"lng":-80.3975399,"hometown_city":"Vero Beach","hometown_state":"FL"},{"name":"Nascar McCoy","year":2026,"position":"CB","stars":3,"rating_247":88.0,"committed_to":"Mississippi","lat":34.1206564,"lng":-84.0043513,"hometown_city":"Buford","hometown_state":"GA"},{"name":"Hakim Satterwhite","year":2026,"position":"CB","stars":3,"rating_247":88.0,"committed_to":"Maryland","lat":39.2908816,"lng":-76.610759,"hometown_city":"Baltimore","hometown_state":"MD"},{"name":"Jontavius Wyman","year":2026,"position":"CB","stars":4,"rating_247":88.0,"committed_to":"Miami","lat":33.5215013,"lng":-84.3538128,"hometown_city":"Jonesboro","hometown_state":"GA"},{"name":"CJ Lavender","year":2026,"position":"CB","stars":3,"rating_247":88.0,"committed_to":"UCLA","lat":33.7494951,"lng":-117.8732213,"hometown_city":"Santa Ana","hometown_state":"CA"},{"name":"Jayden Crowder","year":2026,"position":"CB","stars":3,"rating_247":87.0,"committed_to":"Southern California","lat":33.6408845,"lng":-117.6029341,"hometown_city":"Rancho Santa Margarita","hometown_state":"CA"},{"name":"Lavonte Williams","year":2026,"position":"CB","stars":null,"rating_247":87.0,"committed_to":"Louisiana State","lat":32.6415,"lng":-83.4426,"hometown_city":"Milledgeville","hometown_state":"GA"},{"name":"Justin Lewis","year":2026,"position":"CB","stars":3,"rating_247":86.0,"committed_to":"Colorado State","lat":33.7494951,"lng":-117.8732213,"hometown_city":"Santa Ana","hometown_state":"CA"},{"name":"Prince Jean","year":2026,"position":"CB","stars":3,"rating_247":86.0,"committed_to":"Kentucky","lat":30.8327022,"lng":-83.2784851,"hometown_city":"Valdosta","hometown_state":"GA"},{"name":"Shmar Akande","year":2026,"position":"CB","stars":3,"rating_247":86.0,"committed_to":"Connecticut","lat":26.02322025,"lng":-80.34123906625615,"hometown_city":"Pembroke Pines","hometown_state":"FL"},{"name":"Ksani Jiles","year":2026,"position":"CB","stars":3,"rating_247":86.0,"committed_to":"Washington","lat":27.4989278,"lng":-82.5748194,"hometown_city":"Bradenton","hometown_state":"FL"},{"name":"Henry Perrymond","year":2026,"position":"CB","stars":3,"rating_247":86.0,"committed_to":"Akron","lat":41.5051613,"lng":-81.6934446,"hometown_city":"Cleveland","hometown_state":"OH"},{"name":"Omari Bledsoe","year":2026,"position":"CB","stars":3,"rating_247":84.0,"committed_to":"West Georgia","lat":35.9828413,"lng":-86.5186045,"hometown_city":"Smyrna","hometown_state":"TN"},{"name":"Dominic Turnbull","year":2026,"position":"CB","stars":3,"rating_247":84.0,"committed_to":"Florida International","lat":25.7742658,"lng":-80.1936589,"hometown_city":"Miami","hometown_state":"FL"},{"name":"CJ June","year":2026,"position":"CB","stars":null,"rating_247":84.0,"committed_to":"Sam Houston","lat":39.8942,"lng":-86.2816,"hometown_city":"Westfield","hometown_state":"IN"},{"name":"Clarence Tucker","year":2026,"position":"CB","stars":3,"rating_247":82.0,"committed_to":null,"lat":32.7174209,"lng":-117.1627714,"hometown_city":"San Diego","hometown_state":"CA"},{"name":"Jett Washington","year":2026,"position":"S","stars":4,"rating_247":98.0,"committed_to":"Oregon","lat":36.1672559,"lng":-115.1485163,"hometown_city":"Las Vegas","hometown_state":"NV"},{"name":"Jireh Edwards","year":2026,"position":"S","stars":5,"rating_247":97.0,"committed_to":"Alabama","lat":38.8165274,"lng":-76.7519753,"hometown_city":"Upper Marlboro","hometown_state":"MD"},{"name":"Ayden Pouncey","year":2026,"position":"S","stars":4,"rating_247":96.0,"committed_to":"Notre Dame","lat":26.13784445,"lng":-81.75399813758739,"hometown_city":"Winter Park","hometown_state":"FL"},{"name":"Devin Jackson","year":2026,"position":"S","stars":4,"rating_247":95.0,"committed_to":"Oregon","lat":28.5421109,"lng":-81.3790304,"hometown_city":"Orlando","hometown_state":"FL"},{"name":"JJ Dunnigan","year":2026,"position":"S","stars":4,"rating_247":95.0,"committed_to":"Miami","lat":39.1836082,"lng":-96.5716694,"hometown_city":"Manhattan","hometown_state":"KS"},{"name":"Aiden Hall","year":2026,"position":"S","stars":4,"rating_247":92.0,"committed_to":"Louisiana State","lat":29.9499323,"lng":-90.0701156,"hometown_city":"New Orleans","hometown_state":"LA"},{"name":"Tylan Wilson","year":2026,"position":"S","stars":4,"rating_247":92.0,"committed_to":"Texas A&M","lat":30.3646795,"lng":-88.5585995,"hometown_city":"Pascagoula","hometown_state":"MS"},{"name":"Zech Fort","year":2026,"position":"S","stars":4,"rating_247":91.0,"committed_to":"Georgia","lat":27.4989278,"lng":-82.5748194,"hometown_city":"Bradenton","hometown_state":"FL"},{"name":"Simeon Caldwell","year":2026,"position":"S","stars":4,"rating_247":91.0,"committed_to":"Ohio State","lat":30.3321838,"lng":-81.655651,"hometown_city":"Jacksonville","hometown_state":"FL"},{"name":"Xavier Lherisse","year":2026,"position":"S","stars":4,"rating_247":91.0,"committed_to":"Oregon","lat":28.0836269,"lng":-80.6081089,"hometown_city":"Melbourne","hometown_state":"FL"},{"name":"Lasiah Jackson","year":2026,"position":"S","stars":4,"rating_247":91.0,"committed_to":"Stanford","lat":31.7324556,"lng":-84.1711966,"hometown_city":"Leesburg","hometown_state":"GA"},{"name":"Blake Stewart","year":2026,"position":"S","stars":3,"rating_247":90.0,"committed_to":"Georgia","lat":33.7490987,"lng":-84.3901849,"hometown_city":"Atlanta","hometown_state":"GA"},{"name":"Craig Tutt","year":2026,"position":"S","stars":4,"rating_247":90.0,"committed_to":"Mississippi","lat":35.845999,"lng":-86.3920452,"hometown_city":"Murfreesboro","hometown_state":"TN"},{"name":"Jordan Deck","year":2026,"position":"S","stars":4,"rating_247":90.0,"committed_to":"Michigan","lat":33.1506744,"lng":-96.8236116,"hometown_city":"Frisco","hometown_state":"TX"},{"name":"Tamarion Watkins","year":2026,"position":"S","stars":4,"rating_247":90.0,"committed_to":"Texas A&M","lat":34.9248667,"lng":-81.0250784,"hometown_city":"Rock Hill","hometown_state":"SC"},{"name":"Tedarius Hughes","year":2026,"position":"S","stars":4,"rating_247":89.0,"committed_to":"Syracuse","lat":25.7742658,"lng":-80.1936589,"hometown_city":"Miami","hometown_state":"FL"},{"name":"Walker Bryson","year":2026,"position":"S","stars":3,"rating_247":89.0,"committed_to":"Wake Forest","lat":34.97479,"lng":-83.30549,"hometown_city":"Rabun Gap","hometown_state":"GA"},{"name":"Jowell Combay","year":2026,"position":"S","stars":3,"rating_247":89.0,"committed_to":"Tennessee","lat":33.9528472,"lng":-84.5496148,"hometown_city":"Marietta","hometown_state":"GA"},{"name":"CJ Hester","year":2026,"position":"S","stars":4,"rating_247":88.0,"committed_to":"Florida","lat":28.3553873,"lng":-80.7318827,"hometown_city":"Cocoa","hometown_state":"FL"},{"name":"D'Montae Tims","year":2026,"position":"S","stars":3,"rating_247":88.0,"committed_to":"Indiana","lat":27.998541000000003,"lng":-82.27488400114905,"hometown_city":"Seffner","hometown_state":"FL"},{"name":"Cortez Redding","year":2026,"position":"S","stars":4,"rating_247":88.0,"committed_to":"Miami","lat":33.5215013,"lng":-84.3538128,"hometown_city":"Jonesboro","hometown_state":"GA"},{"name":"Chace Calicut","year":2026,"position":"S","stars":4,"rating_247":88.0,"committed_to":"Georgia Southern","lat":29.7589382,"lng":-95.3676974,"hometown_city":"Houston","hometown_state":"TX"},{"name":"Markell Taylor","year":2026,"position":"S","stars":3,"rating_247":88.0,"committed_to":"Cincinnati","lat":33.9237141,"lng":-84.8407732,"hometown_city":"Dallas","hometown_state":"GA"},{"name":"Jamarrion Gordon","year":2026,"position":"S","stars":3,"rating_247":88.0,"committed_to":"North Carolina","lat":31.5090521,"lng":-87.8944435,"hometown_city":"Jackson","hometown_state":"AL"},{"name":"Isaiah Williams","year":2026,"position":"S","stars":3,"rating_247":88.0,"committed_to":"Illinois","lat":38.6779591,"lng":-121.1760583,"hometown_city":"Folsom","hometown_state":"CA"},{"name":"Jermaine Santana-Diaz","year":2026,"position":"S","stars":3,"rating_247":88.0,"committed_to":"Colorado State","lat":29.6185669,"lng":-95.5377215,"hometown_city":"Missouri City","hometown_state":"TX"},{"name":"Chino Aguirre","year":2026,"position":"S","stars":null,"rating_247":88.0,"committed_to":"North Carolina State","lat":32.6415,"lng":-83.4426,"hometown_city":"Locust Grove","hometown_state":"GA"},{"name":"Bradley Brown","year":2026,"position":"S","stars":3,"rating_247":87.0,"committed_to":"Vanderbilt","lat":33.0136764,"lng":-96.6925096,"hometown_city":"Plano","hometown_state":"TX"},{"name":"Jamar Owens","year":2026,"position":"S","stars":3,"rating_247":87.0,"committed_to":"Indiana","lat":33.7514966,"lng":-84.7477136,"hometown_city":"Douglasville","hometown_state":"GA"},{"name":"Tony Forney","year":2026,"position":"S","stars":3,"rating_247":87.0,"committed_to":"Pittsburgh","lat":33.9528472,"lng":-84.5496148,"hometown_city":"Marietta","hometown_state":"GA"},{"name":"Karon Maycock","year":2026,"position":"S","stars":3,"rating_247":86.0,"committed_to":"Florida State","lat":25.7742658,"lng":-80.1936589,"hometown_city":"Miami","hometown_state":"FL"},{"name":"Karaijus Hayes","year":2026,"position":"S","stars":3,"rating_247":86.0,"committed_to":"Florida International","lat":27.3364347,"lng":-82.5306527,"hometown_city":"Sarasota","hometown_state":"FL"},{"name":"Aldarius Johnson Jr.","year":2026,"position":"S","stars":3,"rating_247":84.0,"committed_to":"Rhode Island","lat":26.1223084,"lng":-80.1433786,"hometown_city":"Fort Lauderdale","hometown_state":"FL"},{"name":"Brandon Arrington","year":2026,"position":"ATH","stars":5,"rating_247":98.0,"committed_to":"Texas A&M","lat":32.7174209,"lng":-117.1627714,"hometown_city":"San Diego","hometown_state":"CA"},{"name":"Jalen Lott","year":2026,"position":"ATH","stars":5,"rating_247":97.0,"committed_to":"Oregon","lat":33.1506744,"lng":-96.8236116,"hometown_city":"Frisco","hometown_state":"TX"},{"name":"Joey O'Brien","year":2026,"position":"ATH","stars":5,"rating_247":97.0,"committed_to":"Notre Dame","lat":40.1023326,"lng":-75.1521195,"hometown_city":"Glenside","hometown_state":"PA"},{"name":"Mack Sutter","year":2026,"position":"ATH","stars":4,"rating_247":96.0,"committed_to":"Alabama","lat":40.8616513,"lng":-89.6777665,"hometown_city":"Dunlap","hometown_state":"IL"},{"name":"Jerquaden Guilford","year":2026,"position":"ATH","stars":4,"rating_247":96.0,"committed_to":"Ohio State","lat":41.0799898,"lng":-85.1386015,"hometown_city":"Fort Wayne","hometown_state":"IN"},{"name":"C.J. Sadler","year":2026,"position":"ATH","stars":null,"rating_247":93.0,"committed_to":"North Carolina","lat":44.3467,"lng":-85.4102,"hometown_city":"Detroit","hometown_state":"MI"},{"name":"Derrek Cooper","year":2026,"position":"ATH","stars":4,"rating_247":93.0,"committed_to":"Texas","lat":26.0112014,"lng":-80.1494901,"hometown_city":"Hollywood","hometown_state":"FL"},{"name":"Jordan Thomas","year":2026,"position":"ATH","stars":4,"rating_247":93.0,"committed_to":"Ohio State","lat":40.9543943,"lng":-74.0308504,"hometown_city":"Oradell","hometown_state":"NJ"},{"name":"Tyriq Green","year":2026,"position":"ATH","stars":4,"rating_247":93.0,"committed_to":"Georgia","lat":34.1206564,"lng":-84.0043513,"hometown_city":"Buford","hometown_state":"GA"},{"name":"Justice Fitzpatrick","year":2026,"position":"ATH","stars":4,"rating_247":92.0,"committed_to":"Georgia","lat":26.1223084,"lng":-80.1433786,"hometown_city":"Fort Lauderdale","hometown_state":"FL"},{"name":"Jaron Pula","year":2026,"position":"ATH","stars":4,"rating_247":91.0,"committed_to":"BYU","lat":40.3768954,"lng":-111.7957645,"hometown_city":"American Fork","hometown_state":"UT"},{"name":"Roman Voss","year":2026,"position":"ATH","stars":null,"rating_247":91.0,"committed_to":"Minnesota","lat":46.2807,"lng":-94.3053,"hometown_city":"Jackson","hometown_state":"MN"},{"name":"Ryelan Morris","year":2026,"position":"ATH","stars":4,"rating_247":91.0,"committed_to":"Baylor","lat":33.5834377,"lng":-95.9099681,"hometown_city":"Honey Grove","hometown_state":"TX"},{"name":"Kaydon Finley","year":2026,"position":"ATH","stars":4,"rating_247":91.0,"committed_to":"Notre Dame","lat":32.69900905,"lng":-97.60396629774493,"hometown_city":"Aledo","hometown_state":"TX"},{"name":"Marquez Daniel","year":2026,"position":"ATH","stars":4,"rating_247":91.0,"committed_to":"Florida","lat":32.4240286,"lng":-85.6916195,"hometown_city":"Tuskegee","hometown_state":"AL"},{"name":"Messiah Mickens","year":2026,"position":"ATH","stars":4,"rating_247":90.0,"committed_to":"Virginia Tech","lat":40.2663107,"lng":-76.8861122,"hometown_city":"Harrisburg","hometown_state":"PA"},{"name":"EJ White","year":2026,"position":"ATH","stars":null,"rating_247":90.0,"committed_to":"Florida State","lat":28.6305,"lng":-82.4497,"hometown_city":"Vero Beach","hometown_state":"FL"},{"name":"Amari Latimer","year":2026,"position":"ATH","stars":4,"rating_247":90.0,"committed_to":"West Virginia","lat":33.4713249,"lng":-84.5972005,"hometown_city":"Tyrone","hometown_state":"GA"},{"name":"Julian Manson","year":2026,"position":"ATH","stars":4,"rating_247":90.0,"committed_to":"Iowa","lat":41.6612561,"lng":-91.5299106,"hometown_city":"Iowa City","hometown_state":"IA"},{"name":"Jyron Hughley","year":2026,"position":"ATH","stars":3,"rating_247":89.0,"committed_to":"West Virginia","lat":26.715364,"lng":-80.0532942,"hometown_city":"West Palm Beach","hometown_state":"FL"},{"name":"Chris Hewitt Jr.","year":2026,"position":"ATH","stars":3,"rating_247":89.0,"committed_to":"Georgia Tech","lat":39.4018552,"lng":-76.602388,"hometown_city":"Towson","hometown_state":"MD"},{"name":"Jacob Eberhart","year":2026,"position":"ATH","stars":4,"rating_247":89.0,"committed_to":"Illinois","lat":38.6268039,"lng":-90.1994097,"hometown_city":"St. Louis","hometown_state":"MO"},{"name":"Javari Barnett","year":2026,"position":"ATH","stars":3,"rating_247":88.0,"committed_to":"Illinois","lat":27.9477595,"lng":-82.458444,"hometown_city":"Tampa","hometown_state":"FL"},{"name":"Jabari Brady","year":2026,"position":"ATH","stars":3,"rating_247":88.0,"committed_to":"Missouri","lat":26.2378597,"lng":-80.1247667,"hometown_city":"Pompano Beach","hometown_state":"FL"},{"name":"Madden Riordan","year":2026,"position":"ATH","stars":3,"rating_247":88.0,"committed_to":"Southern California","lat":34.2595715,"lng":-118.6023247,"hometown_city":"Chatsworth","hometown_state":"CA"},{"name":"Shavar Young Jr.","year":2026,"position":"ATH","stars":3,"rating_247":88.0,"committed_to":"Clemson","lat":35.9603948,"lng":-83.9210261,"hometown_city":"Knoxville","hometown_state":"TN"},{"name":"Amari Sabb","year":2026,"position":"ATH","stars":3,"rating_247":87.0,"committed_to":"Alabama","lat":39.7027677,"lng":-75.1119434,"hometown_city":"Glassboro","hometown_state":"NJ"},{"name":"Tay Lockett","year":2026,"position":"ATH","stars":3,"rating_247":87.0,"committed_to":"Arkansas","lat":32.7174209,"lng":-117.1627714,"hometown_city":"San Diego","hometown_state":"CA"},{"name":"Darryon Williams","year":2026,"position":"ATH","stars":3,"rating_247":87.0,"committed_to":"Florida State","lat":27.9477595,"lng":-82.458444,"hometown_city":"Tampa","hometown_state":"FL"},{"name":"Ansu Sanoe","year":2026,"position":"ATH","stars":3,"rating_247":87.0,"committed_to":"Washington","lat":45.4206749,"lng":-122.6706498,"hometown_city":"Lake Oswego","hometown_state":"OR"},{"name":"Tony Williams","year":2026,"position":"ATH","stars":3,"rating_247":86.0,"committed_to":"Illinois","lat":30.3321838,"lng":-81.655651,"hometown_city":"Jacksonville","hometown_state":"FL"},{"name":"Denairius Gray","year":2026,"position":"ATH","stars":3,"rating_247":86.0,"committed_to":"Kentucky","lat":26.0112014,"lng":-80.1494901,"hometown_city":"Hollywood","hometown_state":"FL"},{"name":"Zion Legree","year":2026,"position":"ATH","stars":3,"rating_247":86.0,"committed_to":"Wisconsin","lat":30.4057552,"lng":-86.618842,"hometown_city":"Fort Walton Beach","hometown_state":"FL"},{"name":"DJ Williams","year":2026,"position":"ATH","stars":3,"rating_247":86.0,"committed_to":"Louisville","lat":27.9477595,"lng":-82.458444,"hometown_city":"Tampa","hometown_state":"FL"},{"name":"Kaj Baker","year":2026,"position":"ATH","stars":3,"rating_247":86.0,"committed_to":"UCF","lat":25.7742658,"lng":-80.1936589,"hometown_city":"Miami","hometown_state":"FL"},{"name":"Markel Dabney","year":2026,"position":"ATH","stars":3,"rating_247":86.0,"committed_to":"Michigan","lat":37.5385087,"lng":-77.43428,"hometown_city":"Richmond","hometown_state":"VA"},{"name":"KD Cotton","year":2026,"position":"ATH","stars":3,"rating_247":86.0,"committed_to":"Duke","lat":35.1170873,"lng":-80.723718,"hometown_city":"Matthews","hometown_state":"NC"},{"name":"Rodarion Jones","year":2026,"position":"ATH","stars":3,"rating_247":85.0,"committed_to":"Jacksonville State","lat":30.6255617,"lng":-84.4153769,"hometown_city":"Havana","hometown_state":"FL"},{"name":"Bryant Junius","year":2026,"position":"ATH","stars":3,"rating_247":85.0,"committed_to":"Appalachian State","lat":26.0112014,"lng":-80.1494901,"hometown_city":"Hollywood","hometown_state":"FL"},{"name":"Amarean Porter","year":2026,"position":"ATH","stars":3,"rating_247":85.0,"committed_to":null,"lat":33.0151201,"lng":-96.5388789,"hometown_city":"Wylie","hometown_state":"TX"},{"name":"Dallas Brannon","year":2026,"position":"ATH","stars":3,"rating_247":85.0,"committed_to":"Virginia","lat":35.2272,"lng":-80.843083,"hometown_city":"Charlotte","hometown_state":"NC"},{"name":"Elijah Moss-Williams","year":2026,"position":"ATH","stars":3,"rating_247":84.0,"committed_to":"James Madison","lat":36.8462923,"lng":-76.2929252,"hometown_city":"Norfolk","hometown_state":"VA"},{"name":"Malakai Dillard","year":2026,"position":"ATH","stars":null,"rating_247":null,"committed_to":null,"lat":35.5889,"lng":-97.4943,"hometown_city":"Jenks","hometown_state":"OK"},{"name":"Albert Plain","year":2026,"position":"ATH","stars":null,"rating_247":null,"committed_to":null,"lat":28.6305,"lng":-82.4497,"hometown_city":"Frostproof","hometown_state":"FL"}],"2027":[{"name":"Trae Taylor","year":2027,"position":"QB","stars":null,"rating_247":98.0,"committed_to":"Nebraska","lat":41.5378,"lng":-99.7951,"hometown_city":"Omaha","hometown_state":"NE"},{"name":"Israel Abrams","year":2027,"position":"QB","stars":null,"rating_247":98.0,"committed_to":"Miami","lat":40.0417,"lng":-89.1965,"hometown_city":"Lombard","hometown_state":"IL"},{"name":"Elijah Haven","year":2027,"position":"QB","stars":null,"rating_247":98.0,"committed_to":"Alabama","lat":31.0689,"lng":-91.9968,"hometown_city":"Baton Rouge","hometown_state":"LA"},{"name":"Gunner Rivers","year":2027,"position":"QB","stars":null,"rating_247":94.0,"committed_to":"North Carolina State","lat":32.7794,"lng":-86.8287,"hometown_city":"Fairhope","hometown_state":"AL"},{"name":"Peter Bourque","year":2027,"position":"QB","stars":null,"rating_247":94.0,"committed_to":"Virginia Tech","lat":42.2596,"lng":-71.8083,"hometown_city":"Marion","hometown_state":"MA"},{"name":"Will Mencl","year":2027,"position":"QB","stars":null,"rating_247":94.0,"committed_to":"Oregon","lat":34.2744,"lng":-111.6602,"hometown_city":"Chandler","hometown_state":"AZ"},{"name":"Peyton Houston","year":2027,"position":"QB","stars":null,"rating_247":92.0,"committed_to":"Louisiana State","lat":31.0689,"lng":-91.9968,"hometown_city":"Shreveport","hometown_state":"LA"},{"name":"Keegan Croucher","year":2027,"position":"QB","stars":null,"rating_247":91.0,"committed_to":"Mississippi","lat":35.858,"lng":-86.3505,"hometown_city":"Chattanooga","hometown_state":"TN"},{"name":"Davin Davidson","year":2027,"position":"QB","stars":null,"rating_247":90.0,"committed_to":"Florida","lat":28.6305,"lng":-82.4497,"hometown_city":"Sarasota","hometown_state":"FL"},{"name":"Trent Seaborn","year":2027,"position":"QB","stars":null,"rating_247":90.0,"committed_to":"Alabama","lat":32.7794,"lng":-86.8287,"hometown_city":"Alabaster","hometown_state":"AL"},{"name":"Malachi Zeigler","year":2027,"position":"QB","stars":null,"rating_247":90.0,"committed_to":"SMU","lat":31.0689,"lng":-91.9968,"hometown_city":"Benton","hometown_state":"LA"},{"name":"Weston Nielsen","year":2027,"position":"QB","stars":null,"rating_247":89.0,"committed_to":"Arizona State","lat":31.4757,"lng":-99.3312,"hometown_city":"Bastrop","hometown_state":"TX"},{"name":"Wonderful Monds IV","year":2027,"position":"QB","stars":null,"rating_247":88.0,"committed_to":"Notre Dame","lat":28.6305,"lng":-82.4497,"hometown_city":"Vero Beach","hometown_state":"FL"},{"name":"Jameson Purcell","year":2027,"position":"QB","stars":null,"rating_247":88.0,"committed_to":"Indiana","lat":40.0417,"lng":-89.1965,"hometown_city":"Park Ridge","hometown_state":"IL"},{"name":"Cameron Kruse","year":2027,"position":"QB","stars":null,"rating_247":88.0,"committed_to":"Kansas State","lat":35.858,"lng":-86.3505,"hometown_city":"Franklin","hometown_state":"TN"},{"name":"Greydon Howell","year":2027,"position":"QB","stars":null,"rating_247":88.0,"committed_to":"Oklahoma","lat":35.5889,"lng":-97.4943,"hometown_city":"Broken Bow","hometown_state":"OK"},{"name":"Logan Flaherty","year":2027,"position":"QB","stars":null,"rating_247":86.0,"committed_to":"Florida State","lat":28.6305,"lng":-82.4497,"hometown_city":"Port Charlotte","hometown_state":"FL"},{"name":"Derrick Baker","year":2027,"position":"QB","stars":null,"rating_247":86.0,"committed_to":"Tennessee","lat":32.6415,"lng":-83.4426,"hometown_city":"Alpharetta","hometown_state":"GA"},{"name":"Caden Gutzmer","year":2027,"position":"QB","stars":null,"rating_247":85.0,"committed_to":"North Dakota","lat":46.2807,"lng":-94.3053,"hometown_city":"Minnetonka","hometown_state":"MN"},{"name":"Zac Katz","year":2027,"position":"QB","stars":null,"rating_247":84.0,"committed_to":"Florida International","lat":28.6305,"lng":-82.4497,"hometown_city":"Miami","hometown_state":"FL"},{"name":"Charlie Foulke IV","year":2027,"position":"QB","stars":null,"rating_247":84.0,"committed_to":"Syracuse","lat":40.1907,"lng":-74.6728,"hometown_city":"Glassboro","hometown_state":"NJ"},{"name":"Kemon Spell","year":2027,"position":"RB","stars":null,"rating_247":98.0,"committed_to":"Georgia","lat":40.8781,"lng":-77.7996,"hometown_city":"McKeesport","hometown_state":"PA"},{"name":"Landen Williams-Callis","year":2027,"position":"RB","stars":null,"rating_247":95.0,"committed_to":null,"lat":31.4757,"lng":-99.3312,"hometown_city":"Richmond","hometown_state":"TX"},{"name":"David Segarra","year":2027,"position":"RB","stars":null,"rating_247":91.0,"committed_to":null,"lat":33.9169,"lng":-80.8964,"hometown_city":"Duncan","hometown_state":"SC"},{"name":"Andrew Beard","year":2027,"position":"RB","stars":null,"rating_247":90.0,"committed_to":"Florida","lat":32.6415,"lng":-83.4426,"hometown_city":"Bogart","hometown_state":"GA"},{"name":"Ty Keys","year":2027,"position":"RB","stars":null,"rating_247":90.0,"committed_to":"Miami","lat":32.7364,"lng":-89.6678,"hometown_city":"Poplarville","hometown_state":"MS"},{"name":"Jayden Miles","year":2027,"position":"RB","stars":null,"rating_247":90.0,"committed_to":"Florida State","lat":31.0689,"lng":-91.9968,"hometown_city":"Baton Rouge","hometown_state":"LA"},{"name":"Tyson Robinson","year":2027,"position":"RB","stars":null,"rating_247":90.0,"committed_to":"Michigan","lat":32.7364,"lng":-89.6678,"hometown_city":"Brandon","hometown_state":"MS"},{"name":"Nigel Newkirk","year":2027,"position":"RB","stars":null,"rating_247":89.0,"committed_to":"Alabama","lat":32.6415,"lng":-83.4426,"hometown_city":"Gainesville","hometown_state":"GA"},{"name":"Khamoni Williams","year":2027,"position":"RB","stars":null,"rating_247":89.0,"committed_to":null,"lat":35.858,"lng":-86.3505,"hometown_city":"Memphis","hometown_state":"TN"},{"name":"Elijah Kimble","year":2027,"position":"RB","stars":null,"rating_247":89.0,"committed_to":null,"lat":42.9538,"lng":-75.5268,"hometown_city":"Buffalo","hometown_state":"NY"},{"name":"Quinterrius Gipson","year":2027,"position":"RB","stars":null,"rating_247":89.0,"committed_to":"Georgia Tech","lat":32.6415,"lng":-83.4426,"hometown_city":"Marietta","hometown_state":"GA"},{"name":"Brennen Lacey","year":2027,"position":"RB","stars":null,"rating_247":88.0,"committed_to":"Louisiana State","lat":31.4757,"lng":-99.3312,"hometown_city":"Frisco","hometown_state":"TX"},{"name":"Noah Roberts","year":2027,"position":"RB","stars":null,"rating_247":88.0,"committed_to":"Texas","lat":34.2744,"lng":-111.6602,"hometown_city":"Chandler","hometown_state":"AZ"},{"name":"Tranard Roberts","year":2027,"position":"RB","stars":null,"rating_247":88.0,"committed_to":null,"lat":28.6305,"lng":-82.4497,"hometown_city":"The Villages","hometown_state":"FL"},{"name":"Amir Brown","year":2027,"position":"RB","stars":null,"rating_247":88.0,"committed_to":"Nebraska","lat":35.5557,"lng":-79.3877,"hometown_city":"Rolesville","hometown_state":"NC"},{"name":"Savion Miller","year":2027,"position":"RB","stars":null,"rating_247":88.0,"committed_to":null,"lat":42.0751,"lng":-93.496,"hometown_city":"Iowa City","hometown_state":"IA"},{"name":"Kelvin Morrison","year":2027,"position":"RB","stars":null,"rating_247":88.0,"committed_to":"Virginia Tech","lat":40.8781,"lng":-77.7996,"hometown_city":"Hermitage","hometown_state":"PA"},{"name":"Chukwuma Odoh","year":2027,"position":"RB","stars":null,"rating_247":88.0,"committed_to":"Penn State","lat":40.1907,"lng":-74.6728,"hometown_city":"Paramus","hometown_state":"NJ"},{"name":"Jeremiah Dent","year":2027,"position":"RB","stars":null,"rating_247":88.0,"committed_to":"Arkansas","lat":34.8938,"lng":-92.4426,"hometown_city":"Marion","hometown_state":"AR"},{"name":"Arwin Jackson","year":2027,"position":"RB","stars":null,"rating_247":87.0,"committed_to":null,"lat":28.6305,"lng":-82.4497,"hometown_city":"Opa Locka","hometown_state":"FL"},{"name":"Terrance Grant Jr.","year":2027,"position":"RB","stars":null,"rating_247":87.0,"committed_to":"Maryland","lat":39.055,"lng":-76.7909,"hometown_city":"Hyattsville","hometown_state":"MD"},{"name":"Noah Parker","year":2027,"position":"RB","stars":null,"rating_247":87.0,"committed_to":"Georgia","lat":32.6415,"lng":-83.4426,"hometown_city":"Montezuma","hometown_state":"GA"},{"name":"Benjamin Harris","year":2027,"position":"RB","stars":null,"rating_247":87.0,"committed_to":null,"lat":37.1841,"lng":-119.4696,"hometown_city":"Anaheim","hometown_state":"CA"},{"name":"Amos Bradford","year":2027,"position":"RB","stars":null,"rating_247":86.0,"committed_to":"Purdue","lat":28.6305,"lng":-82.4497,"hometown_city":"Hollywood","hometown_state":"FL"},{"name":"Jakoby Dixon","year":2027,"position":"RB","stars":null,"rating_247":86.0,"committed_to":"Oklahoma","lat":31.4757,"lng":-99.3312,"hometown_city":"Brenham","hometown_state":"TX"},{"name":"James Bell","year":2027,"position":"RB","stars":null,"rating_247":85.0,"committed_to":null,"lat":40.0417,"lng":-89.1965,"hometown_city":"Chicago","hometown_state":"IL"},{"name":"CJ Cowley","year":2027,"position":"RB","stars":null,"rating_247":null,"committed_to":null,"lat":32.7794,"lng":-86.8287,"hometown_city":"Alabaster","hometown_state":"AL"},{"name":"Joel Bradford","year":2027,"position":"RB","stars":null,"rating_247":null,"committed_to":null,"lat":32.6415,"lng":-83.4426,"hometown_city":"Suwanee","hometown_state":"GA"},{"name":"Monshun Sales","year":2027,"position":"WR","stars":null,"rating_247":98.0,"committed_to":null,"lat":39.8942,"lng":-86.2816,"hometown_city":"Indianapolis","hometown_state":"IN"},{"name":"Easton Royal","year":2027,"position":"WR","stars":null,"rating_247":98.0,"committed_to":"Texas","lat":31.0689,"lng":-91.9968,"hometown_city":"New Orleans","hometown_state":"LA"},{"name":"Nick Lennear","year":2027,"position":"WR","stars":null,"rating_247":98.0,"committed_to":"Miami","lat":28.6305,"lng":-82.4497,"hometown_city":"Opa Locka","hometown_state":"FL"},{"name":"Dakota Guerrant","year":2027,"position":"WR","stars":null,"rating_247":98.0,"committed_to":null,"lat":44.3467,"lng":-85.4102,"hometown_city":"Harper Woods","hometown_state":"MI"},{"name":"Jamarin Simmons","year":2027,"position":"WR","stars":null,"rating_247":98.0,"committed_to":"Clemson","lat":28.6305,"lng":-82.4497,"hometown_city":"Tallahassee","hometown_state":"FL"},{"name":"Jamier Brown","year":2027,"position":"WR","stars":null,"rating_247":98.0,"committed_to":"Ohio State","lat":40.2862,"lng":-82.7937,"hometown_city":"Sunbury","hometown_state":"OH"},{"name":"Osani Gayles","year":2027,"position":"WR","stars":null,"rating_247":95.0,"committed_to":null,"lat":28.6305,"lng":-82.4497,"hometown_city":"Bradenton","hometown_state":"FL"},{"name":"Quentin Hale","year":2027,"position":"WR","stars":null,"rating_247":94.0,"committed_to":"Southern California","lat":37.1841,"lng":-119.4696,"hometown_city":"Corona","hometown_state":"CA"},{"name":"Jaden Upshaw","year":2027,"position":"WR","stars":null,"rating_247":94.0,"committed_to":"Texas A&M","lat":32.6415,"lng":-83.4426,"hometown_city":"Leesburg","hometown_state":"GA"},{"name":"Eric McFarland III","year":2027,"position":"WR","stars":null,"rating_247":94.0,"committed_to":null,"lat":28.6305,"lng":-82.4497,"hometown_city":"Bradenton","hometown_state":"FL"},{"name":"Kesean Bowman","year":2027,"position":"WR","stars":null,"rating_247":93.0,"committed_to":"Tennessee","lat":35.858,"lng":-86.3505,"hometown_city":"Brentwood","hometown_state":"TN"},{"name":"Roye Oliver III","year":2027,"position":"WR","stars":null,"rating_247":93.0,"committed_to":"Southern California","lat":34.2744,"lng":-111.6602,"hometown_city":"Chandler","hometown_state":"AZ"},{"name":"Charles Davis","year":2027,"position":"WR","stars":null,"rating_247":93.0,"committed_to":"California","lat":37.1841,"lng":-119.4696,"hometown_city":"Westlake Village","hometown_state":"CA"},{"name":"Julius Jones","year":2027,"position":"WR","stars":null,"rating_247":92.0,"committed_to":null,"lat":28.6305,"lng":-82.4497,"hometown_city":"Fort Lauderdale","hometown_state":"FL"},{"name":"Khalil Taylor","year":2027,"position":"WR","stars":null,"rating_247":92.0,"committed_to":null,"lat":40.8781,"lng":-77.7996,"hometown_city":"Gibsonia","hometown_state":"PA"},{"name":"Eli Woodard","year":2027,"position":"WR","stars":null,"rating_247":91.0,"committed_to":null,"lat":37.1841,"lng":-119.4696,"hometown_city":"Temecula","hometown_state":"CA"},{"name":"Tre Moore","year":2027,"position":"WR","stars":null,"rating_247":90.0,"committed_to":"Washington","lat":31.4757,"lng":-99.3312,"hometown_city":"Pflugerville","hometown_state":"TX"},{"name":"Quentin Burrell","year":2027,"position":"WR","stars":null,"rating_247":90.0,"committed_to":"Michigan","lat":40.0417,"lng":-89.1965,"hometown_city":"Chicago","hometown_state":"IL"},{"name":"Trenton Yancey","year":2027,"position":"WR","stars":null,"rating_247":90.0,"committed_to":"Purdue","lat":31.4757,"lng":-99.3312,"hometown_city":"Duncanville","hometown_state":"TX"},{"name":"Julian Caldwell","year":2027,"position":"WR","stars":null,"rating_247":90.0,"committed_to":"Texas Tech","lat":31.4757,"lng":-99.3312,"hometown_city":"Argyle","hometown_state":"TX"},{"name":"Lawrence Britt","year":2027,"position":"WR","stars":null,"rating_247":90.0,"committed_to":null,"lat":35.858,"lng":-86.3505,"hometown_city":"Memphis","hometown_state":"TN"},{"name":"Demare Dezeurn","year":2027,"position":"WR","stars":null,"rating_247":90.0,"committed_to":"California","lat":37.1841,"lng":-119.4696,"hometown_city":"Westlake Village","hometown_state":"CA"},{"name":"Javien Robinson","year":2027,"position":"WR","stars":null,"rating_247":90.0,"committed_to":"South Carolina","lat":40.8781,"lng":-77.7996,"hometown_city":"McKeesport","hometown_state":"PA"},{"name":"Myles McAfee","year":2027,"position":"WR","stars":null,"rating_247":90.0,"committed_to":null,"lat":39.055,"lng":-76.7909,"hometown_city":"Severn","hometown_state":"MD"},{"name":"Ah'Mari Stevens","year":2027,"position":"WR","stars":null,"rating_247":90.0,"committed_to":"Louisiana State","lat":28.6305,"lng":-82.4497,"hometown_city":"Hollywood","hometown_state":"FL"},{"name":"Damani Warren","year":2027,"position":"WR","stars":null,"rating_247":89.0,"committed_to":null,"lat":39.3289,"lng":-116.6312,"hometown_city":"Las Vegas","hometown_state":"NV"},{"name":"Braylon Pope","year":2027,"position":"WR","stars":null,"rating_247":89.0,"committed_to":"Washington","lat":47.3826,"lng":-120.4472,"hometown_city":"Sumner","hometown_state":"WA"},{"name":"Brylan Oduor","year":2027,"position":"WR","stars":null,"rating_247":89.0,"committed_to":"Auburn","lat":35.858,"lng":-86.3505,"hometown_city":"Murfreesboro","hometown_state":"TN"},{"name":"Taurean Rawlins","year":2027,"position":"WR","stars":null,"rating_247":89.0,"committed_to":"Georgia","lat":32.6415,"lng":-83.4426,"hometown_city":"Atlanta","hometown_state":"GA"},{"name":"Anthony Jennings","year":2027,"position":"WR","stars":null,"rating_247":88.0,"committed_to":"Florida","lat":28.6305,"lng":-82.4497,"hometown_city":"Fort Lauderdale","hometown_state":"FL"},{"name":"Angelo Smith","year":2027,"position":"WR","stars":null,"rating_247":88.0,"committed_to":"Ohio State","lat":28.6305,"lng":-82.4497,"hometown_city":"Hollywood","hometown_state":"FL"},{"name":"Miguel Whitley","year":2027,"position":"WR","stars":null,"rating_247":88.0,"committed_to":"Mississippi","lat":31.0689,"lng":-91.9968,"hometown_city":"New Orleans","hometown_state":"LA"},{"name":"Omarion Wallace","year":2027,"position":"WR","stars":null,"rating_247":88.0,"committed_to":"Pittsburgh","lat":32.6415,"lng":-83.4426,"hometown_city":"Covington","hometown_state":"GA"},{"name":"Jonathan Dillon","year":2027,"position":"WR","stars":null,"rating_247":88.0,"committed_to":null,"lat":35.5557,"lng":-79.3877,"hometown_city":"Durham","hometown_state":"NC"},{"name":"James Branch","year":2027,"position":"WR","stars":null,"rating_247":88.0,"committed_to":null,"lat":39.055,"lng":-76.7909,"hometown_city":"Baltimore","hometown_state":"MD"},{"name":"Anthony Roberts","year":2027,"position":"WR","stars":null,"rating_247":88.0,"committed_to":"Virginia Tech","lat":35.5557,"lng":-79.3877,"hometown_city":"Rolesville","hometown_state":"NC"},{"name":"Charles Britton III","year":2027,"position":"WR","stars":null,"rating_247":88.0,"committed_to":null,"lat":44.3467,"lng":-85.4102,"hometown_city":"Belleville","hometown_state":"MI"},{"name":"Lawrence Carr","year":2027,"position":"WR","stars":null,"rating_247":88.0,"committed_to":null,"lat":40.0417,"lng":-89.1965,"hometown_city":"Chicago","hometown_state":"IL"},{"name":"Zerek Sidney","year":2027,"position":"WR","stars":null,"rating_247":87.0,"committed_to":"Washington","lat":34.2744,"lng":-111.6602,"hometown_city":"Goodyear","hometown_state":"AZ"},{"name":"Antayvious Ellis","year":2027,"position":"WR","stars":null,"rating_247":87.0,"committed_to":"Nebraska","lat":41.5378,"lng":-99.7951,"hometown_city":"Omaha","hometown_state":"NE"},{"name":"Trey Smith","year":2027,"position":"WR","stars":null,"rating_247":87.0,"committed_to":"Arizona","lat":34.2744,"lng":-111.6602,"hometown_city":"Gilbert","hometown_state":"AZ"},{"name":"Ray'Quan Williams","year":2027,"position":"WR","stars":null,"rating_247":87.0,"committed_to":"Tulane","lat":31.0689,"lng":-91.9968,"hometown_city":"New Orleans","hometown_state":"LA"},{"name":"Austin Coles","year":2027,"position":"WR","stars":null,"rating_247":87.0,"committed_to":"Kentucky","lat":28.6305,"lng":-82.4497,"hometown_city":"Fort Lauderdale","hometown_state":"FL"},{"name":"Jackson Coleman","year":2027,"position":"WR","stars":null,"rating_247":87.0,"committed_to":"Notre Dame","lat":38.9972,"lng":-105.5478,"hometown_city":"Littleton","hometown_state":"CO"},{"name":"Carter Davis","year":2027,"position":"WR","stars":null,"rating_247":87.0,"committed_to":"West Virginia","lat":32.7794,"lng":-86.8287,"hometown_city":"Gulf Shores","hometown_state":"AL"},