{"2026":[{"name":"Jett Thomalla","year":2026,"position":"QB","stars":4,"rating_247":97.0,"committed_to":"Alabama","lat":41.2587459,"lng":-95.9383758,"hometown_city":"Omaha","hometown_state":"NE"},{"name":"Jonas Williams","year":2026,"position":"QB","stars":4,"rating_247":95.0,"committed_to":"Southern California","lat":41.4958665,"lng":-87.8486613,"hometown_city":"Frankfort","hometown_state":"IL"},{"name":"Bowe Bentley","year":2026,"position":"QB","stars":4,"rating_247":95.0,"committed_to":"Oklahoma","lat":33.3238976,"lng":-96.785342,"hometown_city":"Celina","hometown_state":"TX"},{"name":"Legend Bey","year":2026,"position":"QB","stars":4,"rating_247":93.0,"committed_to":"Ohio State","lat":32.747893,"lng":-96.4719289,"hometown_city":"Forney","hometown_state":"TX"},{"name":"Landon Duckworth","year":2026,"position":"QB","stars":4,"rating_247":93.0,"committed_to":"South Carolina","lat":31.5090521,"lng":-87.8944435,"hometown_city":"Jackson","hometown_state":"AL"},{"name":"Rocco Marriott","year":2026,"position":"QB","stars":4,"rating_247":89.0,"committed_to":"UCF","lat":39.3703535,"lng":-94.781086,"hometown_city":"Platte City","hometown_state":"MO"},{"name":"Teddy Jarrard","year":2026,"position":"QB","stars":4,"rating_247":89.0,"committed_to":"Notre Dame","lat":34.0234337,"lng":-84.6154897,"hometown_city":"Kennesaw","hometown_state":"GA"},{"name":"Gavin Sidwar","year":2026,"position":"QB","stars":3,"rating_247":89.0,"committed_to":"Missouri","lat":40.0853435,"lng":-75.19402070907555,"hometown_city":"Wyndmoor","hometown_state":"PA"},{"name":"Hank Hendrix","year":2026,"position":"QB","stars":null,"rating_247":88.0,"committed_to":"Arkansas","lat":34.8938,"lng":-92.4426,"hometown_city":"Fayetteville","hometown_state":"AR"},{"name":"Ryan Hopkins","year":2026,"position":"QB","stars":3,"rating_247":87.0,"committed_to":"Wisconsin","lat":33.7494951,"lng":-117.8732213,"hometown_city":"Santa Ana","hometown_state":"CA"},{"name":"Michael Clayton II","year":2026,"position":"QB","stars":null,"rating_247":86.0,"committed_to":"Illinois","lat":28.6305,"lng":-82.4497,"hometown_city":"Miami","hometown_state":"FL"},{"name":"Quinn Murphy","year":2026,"position":"QB","stars":3,"rating_247":85.0,"committed_to":"Baylor","lat":33.110156,"lng":-97.17940980147037,"hometown_city":"Argyle","hometown_state":"TX"},{"name":"Kane Archer","year":2026,"position":"QB","stars":3,"rating_247":85.0,"committed_to":"Utah","lat":35.2156489,"lng":-94.2557663,"hometown_city":"Greenwood","hometown_state":"AR"},{"name":"Jackson Presley","year":2026,"position":"QB","stars":3,"rating_247":84.0,"committed_to":"Portland State","lat":48.2022563,"lng":-114.3167117,"hometown_city":"Kalispell","hometown_state":"MT"},{"name":"Romin Seymour","year":2026,"position":"QB","stars":3,"rating_247":83.0,"committed_to":null,"lat":29.6185669,"lng":-95.5377215,"hometown_city":"Missouri City","hometown_state":"TX"},{"name":"Tradarian Ball","year":2026,"position":"RB","stars":4,"rating_247":96.0,"committed_to":"Oregon","lat":33.44628645,"lng":-94.07638067493534,"hometown_city":"Texarkana","hometown_state":"TX"},{"name":"Jonathan Hatton Jr.","year":2026,"position":"RB","stars":4,"rating_247":95.0,"committed_to":"Oklahoma","lat":29.5707831,"lng":-98.2330927,"hometown_city":"Cibolo","hometown_state":"TX"},{"name":"Brian Bonner Jr.","year":2026,"position":"RB","stars":null,"rating_247":94.0,"committed_to":"Washington","lat":37.1841,"lng":-119.4696,"hometown_city":"Valencia","hometown_state":"CA"},{"name":"Shahn Alston","year":2026,"position":"RB","stars":4,"rating_247":93.0,"committed_to":"Southern California","lat":41.7244885,"lng":-81.245657,"hometown_city":"Painesville","hometown_state":"OH"},{"name":"Javian Osborne","year":2026,"position":"RB","stars":4,"rating_247":92.0,"committed_to":"Notre Dame","lat":32.747893,"lng":-96.4719289,"hometown_city":"Forney","hometown_state":"TX"},{"name":"Jae Lamar","year":2026,"position":"RB","stars":4,"rating_247":91.0,"committed_to":"Georgia","lat":31.179998,"lng":-83.7887928,"hometown_city":"Moultrie","hometown_state":"GA"},{"name":"TJ Hodges","year":2026,"position":"RB","stars":null,"rating_247":90.0,"committed_to":"Arkansas","lat":34.8938,"lng":-92.4426,"hometown_city":"Bryant","hometown_state":"AR"},{"name":"Carsyn Baker","year":2026,"position":"RB","stars":4,"rating_247":90.0,"committed_to":"Texas A&M","lat":33.5670562,"lng":-84.5810418,"hometown_city":"Fairburn","hometown_state":"GA"},{"name":"Cardae Mack","year":2026,"position":"RB","stars":4,"rating_247":90.0,"committed_to":"Arizona State","lat":29.9988312,"lng":-95.2621553,"hometown_city":"Humble","hometown_state":"TX"},{"name":"Ace Martin","year":2026,"position":"RB","stars":null,"rating_247":90.0,"committed_to":"Texas Christian","lat":31.4757,"lng":-99.3312,"hometown_city":"Port Arthur","hometown_state":"TX"},{"name":"DeZephen Walker","year":2026,"position":"RB","stars":4,"rating_247":89.0,"committed_to":"Oklahoma","lat":38.7145481,"lng":-94.4611204,"hometown_city":"Peculiar","hometown_state":"MO"},{"name":"Favour Akih","year":2026,"position":"RB","stars":4,"rating_247":89.0,"committed_to":"Ohio State","lat":40.2986724,"lng":-83.067965,"hometown_city":"Delaware","hometown_state":"OH"},{"name":"Favour Akih","year":2026,"position":"RB","stars":4,"rating_247":89.0,"committed_to":"Ohio State","lat":40.2986724,"lng":-83.067965,"hometown_city":"Delaware","hometown_state":"OH"},{"name":"Ryan Estrada","year":2026,"position":"RB","stars":4,"rating_247":89.0,"committed_to":"Minnesota","lat":31.7754152,"lng":-106.4646348,"hometown_city":"El Paso","hometown_state":"TX"},{"name":"Javian Mallory","year":2026,"position":"RB","stars":4,"rating_247":88.0,"committed_to":"Miami","lat":26.3586885,"lng":-80.0830984,"hometown_city":"Boca Raton","hometown_state":"FL"},{"name":"Evan Hampton","year":2026,"position":"RB","stars":4,"rating_247":88.0,"committed_to":"Vanderbilt","lat":37.7742152,"lng":-87.1133304,"hometown_city":"Owensboro","hometown_state":"KY"},{"name":"Ke'Rynn Smith","year":2026,"position":"RB","stars":3,"rating_247":87.0,"committed_to":"Louisiana","lat":29.9499323,"lng":-90.0701156,"hometown_city":"New Orleans","hometown_state":"LA"},{"name":"Kevin Young Jr.","year":2026,"position":"RB","stars":3,"rating_247":87.0,"committed_to":null,"lat":35.0081474,"lng":-90.7898342,"hometown_city":"Forrest City","hometown_state":"AR"},{"name":"Izaiah Wright","year":2026,"position":"RB","stars":3,"rating_247":87.0,"committed_to":"Purdue","lat":42.0708765,"lng":-83.2465957,"hometown_city":"Rockwood","hometown_state":"MI"},{"name":"Jaeden Hill","year":2026,"position":"RB","stars":3,"rating_247":87.0,"committed_to":"Mississippi State","lat":34.2576067,"lng":-88.7033859,"hometown_city":"Tupelo","hometown_state":"MS"},{"name":"Max Warner","year":2026,"position":"RB","stars":null,"rating_247":87.0,"committed_to":"Missouri","lat":40.0417,"lng":-89.1965,"hometown_city":"Chicago","hometown_state":"IL"},{"name":"Sharroid Whitehead","year":2026,"position":"RB","stars":3,"rating_247":86.0,"committed_to":null,"lat":30.4112904,"lng":-88.8279165,"hometown_city":"Ocean Springs","hometown_state":"MS"},{"name":"Jayreon Campbell","year":2026,"position":"RB","stars":3,"rating_247":86.0,"committed_to":"Indiana","lat":33.8595492,"lng":-84.683824,"hometown_city":"Powder Springs","hometown_state":"GA"},{"name":"D'Antae Sheffey","year":2026,"position":"RB","stars":3,"rating_247":86.0,"committed_to":"Penn State","lat":40.2663107,"lng":-76.8861122,"hometown_city":"Harrisburg","hometown_state":"PA"},{"name":"Preston Hatfield","year":2026,"position":"RB","stars":null,"rating_247":86.0,"committed_to":"Missouri","lat":38.3566,"lng":-92.458,"hometown_city":"Lee's Summit","hometown_state":"MO"},{"name":"Dylan McCoy","year":2026,"position":"RB","stars":3,"rating_247":86.0,"committed_to":"North Carolina State","lat":34.1206564,"lng":-84.0043513,"hometown_city":"Buford","hometown_state":"GA"},{"name":"Izayah Lee","year":2026,"position":"RB","stars":3,"rating_247":85.0,"committed_to":"Vanderbilt","lat":32.5920798,"lng":-96.7561083,"hometown_city":"Lancaster","hometown_state":"TX"},{"name":"Elija Mason","year":2026,"position":"RB","stars":null,"rating_247":null,"committed_to":null,"lat":28.6305,"lng":-82.4497,"hometown_city":"Seffner","hometown_state":"FL"},{"name":"TK Keys","year":2026,"position":"WR","stars":null,"rating_247":98.0,"committed_to":"Tennessee","lat":32.7364,"lng":-89.6678,"hometown_city":"Hattiesburg","hometown_state":"MS"},{"name":"Jett Washington","year":2026,"position":"WR","stars":4,"rating_247":98.0,"committed_to":"Oregon","lat":36.1672559,"lng":-115.1485163,"hometown_city":"Las Vegas","hometown_state":"NV"},{"name":"Cederian Morgan","year":2026,"position":"WR","stars":4,"rating_247":97.0,"committed_to":"Alabama","lat":32.944012,"lng":-85.9538532,"hometown_city":"Alexander City","hometown_state":"AL"},{"name":"Somourian Wingo","year":2026,"position":"WR","stars":4,"rating_247":97.0,"committed_to":"Miami","lat":29.8946952,"lng":-81.3145395,"hometown_city":"St. Augustine","hometown_state":"FL"},{"name":"Joel Wyatt","year":2026,"position":"WR","stars":4,"rating_247":96.0,"committed_to":"Tennessee","lat":35.845999,"lng":-86.3920452,"hometown_city":"Murfreesboro","hometown_state":"TN"},{"name":"Jerquaden Guilford","year":2026,"position":"WR","stars":4,"rating_247":96.0,"committed_to":"Ohio State","lat":41.0799898,"lng":-85.1386015,"hometown_city":"Fort Wayne","hometown_state":"IN"},{"name":"Naeem Burroughs","year":2026,"position":"WR","stars":4,"rating_247":95.0,"committed_to":"Clemson","lat":30.3321838,"lng":-81.655651,"hometown_city":"Jacksonville","hometown_state":"FL"},{"name":"Chase Campbell","year":2026,"position":"WR","stars":4,"rating_247":95.0,"committed_to":"Texas Tech","lat":33.5059189,"lng":-102.0090575,"hometown_city":"Wolfforth","hometown_state":"TX"},{"name":"Jayden Petit","year":2026,"position":"WR","stars":4,"rating_247":94.0,"committed_to":"Oklahoma","lat":26.1421976,"lng":-81.7942944,"hometown_city":"Naples","hometown_state":"FL"},{"name":"Jordan Clay","year":2026,"position":"WR","stars":4,"rating_247":94.0,"committed_to":"Washington","lat":29.4246002,"lng":-98.4951405,"hometown_city":"San Antonio","hometown_state":"TX"},{"name":"Kenny Darby","year":2026,"position":"WR","stars":4,"rating_247":92.0,"committed_to":"Kentucky","lat":32.5369356,"lng":-93.6952689,"hometown_city":"Bossier City","hometown_state":"LA"},{"name":"Jasen Lopez","year":2026,"position":"WR","stars":4,"rating_247":91.0,"committed_to":"Florida State","lat":25.7742658,"lng":-80.1936589,"hometown_city":"Miami","hometown_state":"FL"},{"name":"Jabari Mack","year":2026,"position":"WR","stars":4,"rating_247":91.0,"committed_to":"Louisiana State","lat":29.960933,"lng":-90.3705407077716,"hometown_city":"Destrehan","hometown_state":"LA"},{"name":"Mason James","year":2026,"position":"WR","stars":4,"rating_247":91.0,"committed_to":"Washington","lat":35.2225717,"lng":-97.4394816,"hometown_city":"Norman","hometown_state":"OK"},{"name":"Kaydon Finley","year":2026,"position":"WR","stars":4,"rating_247":91.0,"committed_to":"Notre Dame","lat":32.69900905,"lng":-97.60396629774493,"hometown_city":"Aledo","hometown_state":"TX"},{"name":"Jeffar Jean-Noel","year":2026,"position":"WR","stars":3,"rating_247":90.0,"committed_to":"Georgia Tech","lat":26.1223084,"lng":-80.1433786,"hometown_city":"Fort Lauderdale","hometown_state":"FL"},{"name":"Tyreek King","year":2026,"position":"WR","stars":4,"rating_247":90.0,"committed_to":"Tennessee","lat":35.9603948,"lng":-83.9210261,"hometown_city":"Knoxville","hometown_state":"TN"},{"name":"Messiah Tilson","year":2026,"position":"WR","stars":4,"rating_247":90.0,"committed_to":"Rutgers","lat":42.2713945,"lng":-89.093966,"hometown_city":"Rockford","hometown_state":"IL"},{"name":"Vance Spafford","year":2026,"position":"WR","stars":4,"rating_247":90.0,"committed_to":"Miami","lat":33.5965685,"lng":-117.659405,"hometown_city":"Mission Viejo","hometown_state":"CA"},{"name":"London Smith","year":2026,"position":"WR","stars":4,"rating_247":90.0,"committed_to":"Baylor","lat":31.549333,"lng":-97.1466695,"hometown_city":"Waco","hometown_state":"TX"},{"name":"Brayden Robinson","year":2026,"position":"WR","stars":4,"rating_247":90.0,"committed_to":"Notre Dame","lat":32.5117104,"lng":-96.80836332870047,"hometown_city":"Red Oak","hometown_state":"TX"},{"name":"Kenyon Alston","year":2026,"position":"WR","stars":3,"rating_247":89.0,"committed_to":"Illinois","lat":28.5421109,"lng":-81.3790304,"hometown_city":"Orlando","hometown_state":"FL"},{"name":"Jonah Winston","year":2026,"position":"WR","stars":3,"rating_247":89.0,"committed_to":"Florida State","lat":33.3848933,"lng":-86.8070484,"hometown_city":"Hoover","hometown_state":"AL"},{"name":"Roderick Tezeno","year":2026,"position":"WR","stars":3,"rating_247":89.0,"committed_to":"Southern California","lat":30.5335302,"lng":-92.081509,"hometown_city":"Opelousas","hometown_state":"LA"},{"name":"Jabari Brady","year":2026,"position":"WR","stars":3,"rating_247":88.0,"committed_to":"Missouri","lat":26.2378597,"lng":-80.1247667,"hometown_city":"Pompano Beach","hometown_state":"FL"},{"name":"Gary Hadley Jr.","year":2026,"position":"WR","stars":3,"rating_247":88.0,"committed_to":"Tulane","lat":26.1223084,"lng":-80.1433786,"hometown_city":"Fort Lauderdale","hometown_state":"FL"},{"name":"Brandon Bennett","year":2026,"position":"WR","stars":4,"rating_247":88.0,"committed_to":"Florida State","lat":26.1223084,"lng":-80.1433786,"hometown_city":"Fort Lauderdale","hometown_state":"FL"},{"name":"Xavier McDonald","year":2026,"position":"WR","stars":4,"rating_247":88.0,"committed_to":"James Madison","lat":32.3537557,"lng":-89.6545171,"hometown_city":"Morton","hometown_state":"MS"},{"name":"O'Mari Johnson","year":2026,"position":"WR","stars":3,"rating_247":88.0,"committed_to":null,"lat":32.2990384,"lng":-90.1847691,"hometown_city":"Jackson","hometown_state":"MS"},{"name":"Elias Coke","year":2026,"position":"WR","stars":3,"rating_247":88.0,"committed_to":"Rutgers","lat":40.2663107,"lng":-76.8861122,"hometown_city":"Harrisburg","hometown_state":"PA"},{"name":"Keon Hutchins","year":2026,"position":"WR","stars":null,"rating_247":88.0,"committed_to":"West Virginia","lat":32.7364,"lng":-89.6678,"hometown_city":"Senatobia","hometown_state":"MS"},{"name":"Larry Miles","year":2026,"position":"WR","stars":3,"rating_247":87.0,"committed_to":"Nebraska","lat":28.5421109,"lng":-81.3790304,"hometown_city":"Orlando","hometown_state":"FL"},{"name":"Zach Washington","year":2026,"position":"WR","stars":null,"rating_247":87.0,"committed_to":"Michigan State","lat":40.0417,"lng":-89.1965,"hometown_city":"Wheaton","hometown_state":"IL"},{"name":"Nalin Scott","year":2026,"position":"WR","stars":3,"rating_247":87.0,"committed_to":"Nebraska","lat":33.8595492,"lng":-84.683824,"hometown_city":"Powder Springs","hometown_state":"GA"},{"name":"Devyon Hill-Lomax","year":2026,"position":"WR","stars":3,"rating_247":87.0,"committed_to":"Missouri","lat":38.8114364,"lng":-89.953157,"hometown_city":"Edwardsville","hometown_state":"IL"},{"name":"Kentrell Davis","year":2026,"position":"WR","stars":3,"rating_247":87.0,"committed_to":"Georgia Tech","lat":33.5206824,"lng":-86.8024326,"hometown_city":"Birmingham","hometown_state":"AL"},{"name":"Denairius Gray","year":2026,"position":"WR","stars":3,"rating_247":86.0,"committed_to":"Kentucky","lat":26.0112014,"lng":-80.1494901,"hometown_city":"Hollywood","hometown_state":"FL"},{"name":"Zechariah Jenkins","year":2026,"position":"WR","stars":3,"rating_247":86.0,"committed_to":"Memphis","lat":31.74096,"lng":-89.13382003619111,"hometown_city":"Laurel","hometown_state":"MS"},{"name":"Tre'von McGory","year":2026,"position":"WR","stars":3,"rating_247":86.0,"committed_to":"Western Kentucky","lat":35.0867577,"lng":-89.8100858,"hometown_city":"Germantown","hometown_state":"TN"},{"name":"Brody Keefe","year":2026,"position":"WR","stars":3,"rating_247":86.0,"committed_to":"Duke","lat":35.2272,"lng":-80.843083,"hometown_city":"Charlotte","hometown_state":"NC"},{"name":"BJ Bedgood","year":2026,"position":"WR","stars":3,"rating_247":86.0,"committed_to":"Old Dominion","lat":32.944012,"lng":-85.9538532,"hometown_city":"Alexander City","hometown_state":"AL"},{"name":"Karsten Fiene","year":2026,"position":"WR","stars":null,"rating_247":85.0,"committed_to":"Missouri","lat":38.3566,"lng":-92.458,"hometown_city":"Lee's Summit","hometown_state":"MO"},{"name":"Peyton Zachary","year":2026,"position":"WR","stars":3,"rating_247":85.0,"committed_to":"Nevada, Las Vegas","lat":33.9528472,"lng":-84.5496148,"hometown_city":"Marietta","hometown_state":"GA"},{"name":"Payhton Porter","year":2026,"position":"WR","stars":3,"rating_247":85.0,"committed_to":null,"lat":33.2860549,"lng":-96.5725952,"hometown_city":"Melissa","hometown_state":"TX"},{"name":"Desmen Jefferson","year":2026,"position":"WR","stars":null,"rating_247":83.0,"committed_to":"Southeastern Louisiana","lat":31.0689,"lng":-91.9968,"hometown_city":"Ferriday","hometown_state":"LA"},{"name":"Quinn Martinez","year":2026,"position":"WR","stars":3,"rating_247":83.0,"committed_to":null,"lat":37.7986184,"lng":-121.2117148,"hometown_city":"Manteca","hometown_state":"CA"},{"name":"Dominic Saidu","year":2026,"position":"WR","stars":null,"rating_247":null,"committed_to":null,"lat":31.4757,"lng":-99.3312,"hometown_city":"Kaufman","hometown_state":"TX"},{"name":"Mark Bowman","year":2026,"position":"TE","stars":5,"rating_247":97.0,"committed_to":"Southern California","lat":33.7494951,"lng":-117.8732213,"hometown_city":"Santa Ana","hometown_state":"CA"},{"name":"Lincoln Keyes","year":2026,"position":"TE","stars":4,"rating_247":95.0,"committed_to":"Georgia","lat":42.1667072,"lng":-83.7816075,"hometown_city":"Saline","hometown_state":"MI"},{"name":"Matt Ludwig","year":2026,"position":"TE","stars":4,"rating_247":91.0,"committed_to":"Texas Tech","lat":45.7874957,"lng":-108.49607,"hometown_city":"Billings","hometown_state":"MT"},{"name":"JC Anderson","year":2026,"position":"TE","stars":null,"rating_247":91.0,"committed_to":"Louisiana State","lat":40.0417,"lng":-89.1965,"hometown_city":"Mt. Zion","hometown_state":"IL"},{"name":"Evan Jacobson","year":2026,"position":"TE","stars":4,"rating_247":91.0,"committed_to":"Texas A&M","lat":41.6118485,"lng":-93.8845129,"hometown_city":"Waukee","hometown_state":"IA"},{"name":"Luke Sorensen","year":2026,"position":"TE","stars":3,"rating_247":89.0,"committed_to":"Nebraska","lat":33.8347516,"lng":-117.911732,"hometown_city":"Anaheim","hometown_state":"CA"},{"name":"Luke Brewer","year":2026,"position":"TE","stars":4,"rating_247":89.0,"committed_to":"Iowa","lat":41.4755461,"lng":-93.6788304,"hometown_city":"Norwalk","hometown_state":"IA"},{"name":"Corbyn Fordham","year":2026,"position":"TE","stars":3,"rating_247":88.0,"committed_to":"Florida State","lat":30.3321838,"lng":-81.655651,"hometown_city":"Jacksonville","hometown_state":"FL"},{"name":"Zack Turner","year":2026,"position":"TE","stars":null,"rating_247":88.0,"committed_to":"SMU","lat":31.4757,"lng":-99.3312,"hometown_city":"Duncanville","hometown_state":"TX"},{"name":"Lincoln Watkins","year":2026,"position":"TE","stars":3,"rating_247":88.0,"committed_to":"Kentucky","lat":42.9815877,"lng":-82.440466,"hometown_city":"Port Huron","hometown_state":"MI"},{"name":"Mason Bonner","year":2026,"position":"TE","stars":3,"rating_247":88.0,"committed_to":"Michigan","lat":39.7392364,"lng":-104.9848623,"hometown_city":"Denver","hometown_state":"CO"},{"name":"Camden Jensen","year":2026,"position":"TE","stars":3,"rating_247":88.0,"committed_to":"UCLA","lat":39.613321,"lng":-105.0166498,"hometown_city":"Littleton","hometown_state":"CO"},{"name":"Ryder Mix","year":2026,"position":"TE","stars":3,"rating_247":87.0,"committed_to":"Oklahoma","lat":33.1506744,"lng":-96.8236116,"hometown_city":"Frisco","hometown_state":"TX"},{"name":"Landen Miree","year":2026,"position":"TE","stars":3,"rating_247":87.0,"committed_to":"Arizona State","lat":39.1014537,"lng":-84.5124602,"hometown_city":"Cincinnati","hometown_state":"OH"},{"name":"Isaac Jensen","year":2026,"position":"TE","stars":3,"rating_247":87.0,"committed_to":"Missouri","lat":41.2587459,"lng":-95.9383758,"hometown_city":"Omaha","hometown_state":"NE"},{"name":"PJ MacFarlane","year":2026,"position":"TE","stars":3,"rating_247":87.0,"committed_to":"Indiana","lat":39.5150576,"lng":-84.3982763,"hometown_city":"Middletown","hometown_state":"OH"},{"name":"Kevin Sullivan","year":2026,"position":"TE","stars":3,"rating_247":87.0,"committed_to":"Kansas","lat":39.100105,"lng":-94.5781416,"hometown_city":"Kansas City","hometown_state":"MO"},{"name":"Carson Sneed","year":2026,"position":"TE","stars":3,"rating_247":86.0,"committed_to":"North Carolina","lat":36.1622296,"lng":-86.7743531,"hometown_city":"Nashville","hometown_state":"TN"},{"name":"Jack Utz","year":2026,"position":"TE","stars":3,"rating_247":86.0,"committed_to":"Kansas","lat":39.3703535,"lng":-94.781086,"hometown_city":"Platte City","hometown_state":"MO"},{"name":"Javar Bowden","year":2026,"position":"TE","stars":3,"rating_247":84.0,"committed_to":"Jackson State","lat":30.1600827,"lng":-85.6545729,"hometown_city":"Panama City","hometown_state":"FL"},{"name":"Calerbe Hermane","year":2026,"position":"TE","stars":null,"rating_247":null,"committed_to":"Murray State","lat":28.6305,"lng":-82.4497,"hometown_city":"Boca Raton","hometown_state":"FL"},{"name":"Keenyi Pepe","year":2026,"position":"OT","stars":4,"rating_247":99.0,"committed_to":"Southern California","lat":27.4989278,"lng":-82.5748194,"hometown_city":"Bradenton","hometown_state":"FL"},{"name":"Jackson Cantwell","year":2026,"position":"OT","stars":5,"rating_247":99.0,"committed_to":"Miami","lat":37.0439358,"lng":-93.3098534,"hometown_city":"Nixa","hometown_state":"MO"},{"name":"Darius Gray","year":2026,"position":"OT","stars":4,"rating_247":98.0,"committed_to":"South Carolina","lat":37.5385087,"lng":-77.43428,"hometown_city":"Richmond","hometown_state":"VA"},{"name":"Felix Ojo","year":2026,"position":"OT","stars":5,"rating_247":98.0,"committed_to":"Texas Tech","lat":32.5631924,"lng":-97.1416768,"hometown_city":"Mansfield","hometown_state":"TX"},{"name":"Gabriel Osenda","year":2026,"position":"OT","stars":4,"rating_247":98.0,"committed_to":"Tennessee","lat":35.0457219,"lng":-85.3094883,"hometown_city":"Chattanooga","hometown_state":"TN"},{"name":"Sam Greer","year":2026,"position":"OT","stars":4,"rating_247":97.0,"committed_to":"Ohio State","lat":41.083064,"lng":-81.518485,"hometown_city":"Akron","hometown_state":"OH"},{"name":"Kelvin Obot","year":2026,"position":"OT","stars":5,"rating_247":97.0,"committed_to":"Utah","lat":44.0076639,"lng":-116.9165461,"hometown_city":"Fruitland","hometown_state":"ID"},{"name":"Brysten Martinez","year":2026,"position":"OT","stars":4,"rating_247":95.0,"committed_to":"Louisiana State","lat":30.2385294,"lng":-90.9200987,"hometown_city":"Gonzales","hometown_state":"LA"},{"name":"Malakai Lee","year":2026,"position":"OT","stars":4,"rating_247":95.0,"committed_to":"Michigan","lat":21.304547,"lng":-157.8556764,"hometown_city":"Honolulu","hometown_state":"HI"},{"name":"Johnnie Jones","year":2026,"position":"OT","stars":4,"rating_247":95.0,"committed_to":"Missouri","lat":27.0999188,"lng":-82.4543597,"hometown_city":"Venice","hometown_state":"FL"},{"name":"Kamari Blair","year":2026,"position":"OT","stars":4,"rating_247":95.0,"committed_to":"Tennessee","lat":36.5277607,"lng":-87.3588703,"hometown_city":"Clarksville","hometown_state":"TN"},{"name":"Bryce Gilmore","year":2026,"position":"OT","stars":4,"rating_247":93.0,"committed_to":"Texas Tech","lat":33.2385763,"lng":-96.7866058,"hometown_city":"Prosper","hometown_state":"TX"},{"name":"Claude Mpouma","year":2026,"position":"OT","stars":4,"rating_247":93.0,"committed_to":"Nebraska","lat":41.8755616,"lng":-87.6244212,"hometown_city":"Chicago","hometown_state":"IL"},{"name":"Ben Congdon","year":2026,"position":"OT","stars":null,"rating_247":93.0,"committed_to":"Miami","lat":40.2862,"lng":-82.7937,"hometown_city":"Mineral City","hometown_state":"OH"},{"name":"Max Riley","year":2026,"position":"OT","stars":null,"rating_247":93.0,"committed_to":"Ohio State","lat":40.2862,"lng":-82.7937,"hometown_city":"Avon Lake","hometown_state":"OH"},{"name":"John Turntine III","year":2026,"position":"OT","stars":4,"rating_247":93.0,"committed_to":"Texas","lat":32.753177,"lng":-97.3327459,"hometown_city":"Fort Worth","hometown_state":"TX"},{"name":"Carson Nielsen","year":2026,"position":"OT","stars":4,"rating_247":91.0,"committed_to":"Iowa","lat":42.4979693,"lng":-92.3329637,"hometown_city":"Waterloo","hometown_state":"IA"},{"name":"Jared Doughty","year":2026,"position":"OT","stars":4,"rating_247":91.0,"committed_to":"Alabama","lat":33.7490987,"lng":-84.3901849,"hometown_city":"Atlanta","hometown_state":"GA"},{"name":"Evan Goodwin","year":2026,"position":"OT","stars":4,"rating_247":90.0,"committed_to":"SMU","lat":34.5556489,"lng":-92.5212702,"hometown_city":"Bauxite","hometown_state":"AR"},{"name":"Zaden Krempin","year":2026,"position":"OT","stars":4,"rating_247":90.0,"committed_to":"Texas A&M","lat":33.2385763,"lng":-96.7866058,"hometown_city":"Prosper","hometown_state":"TX"},{"name":"Maxwell Robinson","year":2026,"position":"OT","stars":4,"rating_247":90.0,"committed_to":"Georgia State","lat":37.5455735,"lng":-97.2689331,"hometown_city":"Derby","hometown_state":"KS"},{"name":"Cortavious Tisaby","year":2026,"position":"OT","stars":3,"rating_247":90.0,"committed_to":"Arizona State","lat":32.7762719,"lng":-96.7968559,"hometown_city":"Dallas","hometown_state":"TX"},{"name":"Heze Kent","year":2026,"position":"OT","stars":4,"rating_247":90.0,"committed_to":"Florida","lat":31.1499528,"lng":-81.4914894,"hometown_city":"Brunswick","hometown_state":"GA"},{"name":"Adam Guthrie","year":2026,"position":"OT","stars":4,"rating_247":89.0,"committed_to":"Clemson","lat":39.5364511,"lng":-83.4390843,"hometown_city":"Washington Court House","hometown_state":"OH"},{"name":"Graham Houston","year":2026,"position":"OT","stars":4,"rating_247":89.0,"committed_to":"Georgia","lat":34.1206564,"lng":-84.0043513,"hometown_city":"Buford","hometown_state":"GA"},{"name":"Drew Evers","year":2026,"position":"OT","stars":4,"rating_247":89.0,"committed_to":"SMU","lat":33.0283854,"lng":-97.0867203,"hometown_city":"Flower Mound","hometown_state":"TX"},{"name":"Mitchell Smith","year":2026,"position":"OT","stars":3,"rating_247":88.0,"committed_to":"Vanderbilt","lat":30.5254692,"lng":-89.6795084,"hometown_city":"Picayune","hometown_state":"MS"},{"name":"Kannon Smith","year":2026,"position":"OT","stars":3,"rating_247":88.0,"committed_to":"Southern California","lat":39.613321,"lng":-105.0166498,"hometown_city":"Littleton","hometown_state":"CO"},{"name":"Dominic Harris","year":2026,"position":"OT","stars":3,"rating_247":88.0,"committed_to":"Washington","lat":36.1672559,"lng":-115.1485163,"hometown_city":"Las Vegas","hometown_state":"NV"},{"name":"Brysen Wessell","year":2026,"position":"OT","stars":3,"rating_247":88.0,"committed_to":"Missouri","lat":37.3828316,"lng":-89.6684487,"hometown_city":"Jackson","hometown_state":"MO"},{"name":"Avery Morcho","year":2026,"position":"OT","stars":3,"rating_247":87.0,"committed_to":"Texas A&M","lat":29.6185669,"lng":-95.5377215,"hometown_city":"Missouri City","hometown_state":"TX"},{"name":"Tyler Duell","year":2026,"position":"OT","stars":3,"rating_247":87.0,"committed_to":"Rutgers","lat":39.9597213,"lng":-75.6059638,"hometown_city":"West Chester","hometown_state":"PA"},{"name":"Landry Brede","year":2026,"position":"OT","stars":3,"rating_247":87.0,"committed_to":"Ohio State","lat":41.6661573,"lng":-81.339552,"hometown_city":"Mentor","hometown_state":"OH"},{"name":"Xavier Payne","year":2026,"position":"OT","stars":3,"rating_247":86.0,"committed_to":"Colorado","lat":28.5421109,"lng":-81.3790304,"hometown_city":"Orlando","hometown_state":"FL"},{"name":"Hugh Smith","year":2026,"position":"OT","stars":3,"rating_247":86.0,"committed_to":"Arkansas","lat":29.6185669,"lng":-95.5377215,"hometown_city":"Missouri City","hometown_state":"TX"},{"name":"Tucker Thieneman","year":2026,"position":"OT","stars":3,"rating_247":85.0,"committed_to":"North Dakota State","lat":43.0805651,"lng":-88.2612045,"hometown_city":"Pewaukee","hometown_state":"WI"},{"name":"Pete Eglitis","year":2026,"position":"OT","stars":3,"rating_247":85.0,"committed_to":"Penn State","lat":39.9622601,"lng":-83.0007065,"hometown_city":"Columbus","hometown_state":"OH"},{"name":"Rico Schrieber","year":2026,"position":"OT","stars":3,"rating_247":84.0,"committed_to":"Purdue","lat":41.8755616,"lng":-87.6244212,"hometown_city":"Chicago","hometown_state":"IL"},{"name":"Jahlon Harris","year":2026,"position":"OT","stars":3,"rating_247":80.0,"committed_to":"Appalachian State","lat":34.8667565,"lng":-92.4043219,"hometown_city":"Maumelle","hometown_state":"AR"},{"name":"Tyreek Jemison","year":2026,"position":"IOL","stars":4,"rating_247":91.0,"committed_to":"Georgia","lat":33.9237141,"lng":-84.8407732,"hometown_city":"Dallas","hometown_state":"GA"},{"name":"Grant Wise","year":2026,"position":"IOL","stars":4,"rating_247":91.0,"committed_to":"Clemson","lat":30.6324149,"lng":-87.0396881,"hometown_city":"Milton","hometown_state":"FL"},{"name":"Tyler Merrill","year":2026,"position":"IOL","stars":4,"rating_247":91.0,"committed_to":"Notre Dame","lat":40.2101972,"lng":-77.0047276,"hometown_city":"Mechanicsburg","hometown_state":"PA"},{"name":"Carter Scruggs","year":2026,"position":"IOL","stars":4,"rating_247":90.0,"committed_to":"Clemson","lat":39.1154496,"lng":-77.5645446,"hometown_city":"Leesburg","hometown_state":"VA"},{"name":"Will Conroy","year":2026,"position":"IOL","stars":3,"rating_247":89.0,"committed_to":"North Carolina","lat":27.4989278,"lng":-82.5748194,"hometown_city":"Bradenton","hometown_state":"FL"},{"name":"Sam Roseborough","year":2026,"position":"IOL","stars":null,"rating_247":89.0,"committed_to":"Texas A&M","lat":28.6305,"lng":-82.4497,"hometown_city":"Clearwater","hometown_state":"FL"},{"name":"Leo Delaney","year":2026,"position":"IOL","stars":4,"rating_247":89.0,"committed_to":"Clemson","lat":35.2272,"lng":-80.843083,"hometown_city":"Charlotte","hometown_state":"NC"},{"name":"Brandon Anderson","year":2026,"position":"IOL","stars":3,"rating_247":89.0,"committed_to":"Missouri","lat":34.0234337,"lng":-84.6154897,"hometown_city":"Kennesaw","hometown_state":"GA"},{"name":"Noah Best","year":2026,"position":"IOL","stars":3,"rating_247":89.0,"committed_to":"Oklahoma","lat":32.482361,"lng":-96.9944489,"hometown_city":"Midlothian","hometown_state":"TX"},{"name":"Tony Balanganayi","year":2026,"position":"IOL","stars":3,"rating_247":89.0,"committed_to":"Illinois","lat":42.1105779,"lng":-88.0336888,"hometown_city":"Palatine","hometown_state":"IL"},{"name":"Pulelei'ite Primus","year":2026,"position":"IOL","stars":3,"rating_247":89.0,"committed_to":"Vanderbilt","lat":31.9973662,"lng":-102.0779482,"hometown_city":"Midland","hometown_state":"TX"},{"name":"Da'Ron Parks","year":2026,"position":"IOL","stars":4,"rating_247":88.0,"committed_to":"North Carolina","lat":38.417919499999996,"lng":-81.84361448523134,"hometown_city":"Nitro","hometown_state":"WV"},{"name":"Khalief Canty Jr.","year":2026,"position":"IOL","stars":null,"rating_247":88.0,"committed_to":"Missouri","lat":44.3467,"lng":-85.4102,"hometown_city":"Detroit","hometown_state":"MI"},{"name":"Bennett Fraser","year":2026,"position":"IOL","stars":null,"rating_247":88.0,"committed_to":"Kansas State","lat":38.3566,"lng":-92.458,"hometown_city":"Kirksville","hometown_state":"MO"},{"name":"Parker Pritchett","year":2026,"position":"IOL","stars":3,"rating_247":88.0,"committed_to":"Auburn","lat":32.4609764,"lng":-84.9877094,"hometown_city":"Columbus","hometown_state":"GA"},{"name":"Nicolas Robertson","year":2026,"position":"IOL","stars":4,"rating_247":88.0,"committed_to":"Texas","lat":30.0798826,"lng":-95.4172549,"hometown_city":"Spring","hometown_state":"TX"},{"name":"Leon Noil Jr.","year":2026,"position":"IOL","stars":3,"rating_247":88.0,"committed_to":"Mississippi State","lat":29.9499323,"lng":-90.0701156,"hometown_city":"New Orleans","hometown_state":"LA"},{"name":"Braylon Ellison","year":2026,"position":"IOL","stars":3,"rating_247":88.0,"committed_to":"Missouri","lat":38.9751547,"lng":-92.7440277,"hometown_city":"Boonville","hometown_state":"MO"},{"name":"Katrell Webb","year":2026,"position":"IOL","stars":3,"rating_247":87.0,"committed_to":"Purdue","lat":34.0514898,"lng":-84.0712997,"hometown_city":"Suwanee","hometown_state":"GA"},{"name":"JJ Sparks","year":2026,"position":"IOL","stars":3,"rating_247":86.0,"committed_to":"Miami","lat":30.3321838,"lng":-81.655651,"hometown_city":"Jacksonville","hometown_state":"FL"},{"name":"George Williams-Haseotes","year":2026,"position":"IOL","stars":null,"rating_247":86.0,"committed_to":"Vanderbilt","lat":28.6305,"lng":-82.4497,"hometown_city":"Naples","hometown_state":"FL"},{"name":"Aydan Newell","year":2026,"position":"IOL","stars":3,"rating_247":86.0,"committed_to":"South Alabama","lat":32.2731475,"lng":-89.9868058,"hometown_city":"Brandon","hometown_state":"MS"},{"name":"Toa Katoa","year":2026,"position":"IOL","stars":null,"rating_247":86.0,"committed_to":"SMU","lat":31.4757,"lng":-99.3312,"hometown_city":"Euless","hometown_state":"TX"},{"name":"Bear McWhorter","year":2026,"position":"IOL","stars":null,"rating_247":85.0,"committed_to":"Auburn","lat":32.6415,"lng":-83.4426,"hometown_city":"White","hometown_state":"GA"},{"name":"Rodney Dunham","year":2026,"position":"Edge","stars":5,"rating_247":98.0,"committed_to":"Notre Dame","lat":35.2272,"lng":-80.843083,"hometown_city":"Charlotte","hometown_state":"NC"},{"name":"Zion Elee","year":2026,"position":"Edge","stars":5,"rating_247":98.0,"committed_to":"Maryland","lat":39.2908816,"lng":-76.610759,"hometown_city":"Baltimore","hometown_state":"MD"},{"name":"Xavier Griffin","year":2026,"position":"Edge","stars":5,"rating_247":98.0,"committed_to":"Alabama","lat":34.2978794,"lng":-83.8240663,"hometown_city":"Gainesville","hometown_state":"GA"},{"name":"Anthony Jones Jr.","year":2026,"position":"Edge","stars":null,"rating_247":98.0,"committed_to":"Oregon","lat":32.7794,"lng":-86.8287,"hometown_city":"Mobile","hometown_state":"AL"},{"name":"Julian Walker","year":2026,"position":"Edge","stars":4,"rating_247":97.0,"committed_to":"South Carolina","lat":34.08846885,"lng":-81.18021121302588,"hometown_city":"Irmo","hometown_state":"SC"},{"name":"LaDamion Guyton","year":2026,"position":"Edge","stars":5,"rating_247":97.0,"committed_to":"Texas Tech","lat":32.0809263,"lng":-81.0911768,"hometown_city":"Savannah","hometown_state":"GA"},{"name":"Tristian Givens","year":2026,"position":"Edge","stars":4,"rating_247":97.0,"committed_to":"Texas A&M","lat":32.4609764,"lng":-84.9877094,"hometown_city":"Columbus","hometown_state":"GA"},{"name":"Jake Kreul","year":2026,"position":"Edge","stars":4,"rating_247":96.0,"committed_to":"Oklahoma","lat":27.4989278,"lng":-82.5748194,"hometown_city":"Bradenton","hometown_state":"FL"},{"name":"Jaquez Wilkes","year":2026,"position":"Edge","stars":4,"rating_247":96.0,"committed_to":"Auburn","lat":33.1215089,"lng":-85.5663432,"hometown_city":"Wadley","hometown_state":"AL"},{"name":"Titan Davis","year":2026,"position":"Edge","stars":4,"rating_247":96.0,"committed_to":"Michigan","lat":38.6268039,"lng":-90.1994097,"hometown_city":"St. Louis","hometown_state":"MO"},{"name":"Asharri Charles","year":2026,"position":"Edge","stars":4,"rating_247":95.0,"committed_to":"Miami","lat":27.0999188,"lng":-82.4543597,"hometown_city":"Venice","hometown_state":"FL"},{"name":"Trenton Henderson","year":2026,"position":"Edge","stars":4,"rating_247":95.0,"committed_to":"Louisiana State","lat":30.421309,"lng":-87.2169149,"hometown_city":"Pensacola","hometown_state":"FL"},{"name":"KJ Ford","year":2026,"position":"Edge","stars":4,"rating_247":92.0,"committed_to":"Florida","lat":32.6518004,"lng":-96.9083366,"hometown_city":"Duncanville","hometown_state":"TX"},{"name":"Khamari Brooks","year":2026,"position":"Edge","stars":4,"rating_247":91.0,"committed_to":"Georgia","lat":33.949281,"lng":-83.534608,"hometown_city":"Bogart","hometown_state":"GA"},{"name":"Dre Quinn","year":2026,"position":"Edge","stars":4,"rating_247":91.0,"committed_to":"Ohio State","lat":34.1206564,"lng":-84.0043513,"hometown_city":"Buford","hometown_state":"GA"},{"name":"Micah Nickerson","year":2026,"position":"Edge","stars":4,"rating_247":91.0,"committed_to":"Mississippi State","lat":31.1432328,"lng":-90.4587081,"hometown_city":"Magnolia","hometown_state":"MS"},{"name":"Elijah Reeder","year":2026,"position":"Edge","stars":3,"rating_247":90.0,"committed_to":"Penn State","lat":39.9092852,"lng":-74.1548614,"hometown_city":"Bayville","hometown_state":"NJ"},{"name":"Zavion Griffin-Haynes","year":2026,"position":"Edge","stars":3,"rating_247":89.0,"committed_to":"North Carolina","lat":35.9232862,"lng":-78.4573914,"hometown_city":"Rolesville","hometown_state":"NC"},{"name":"Hunter Higgins","year":2026,"position":"Edge","stars":3,"rating_247":89.0,"committed_to":"Kansas","lat":37.6922361,"lng":-97.3375448,"hometown_city":"Wichita","hometown_state":"KS"},{"name":"Matthew Nelson","year":2026,"position":"Edge","stars":4,"rating_247":89.0,"committed_to":"Oklahoma","lat":34.5959265,"lng":-92.4890469,"hometown_city":"Bryant","hometown_state":"AR"},{"name":"Daniel Norman","year":2026,"position":"Edge","stars":3,"rating_247":88.0,"committed_to":"Oklahoma","lat":26.1223084,"lng":-80.1433786,"hometown_city":"Fort Lauderdale","hometown_state":"FL"},{"name":"Braeden Jones","year":2026,"position":"Edge","stars":4,"rating_247":88.0,"committed_to":"Southern California","lat":41.8755616,"lng":-87.6244212,"hometown_city":"Chicago","hometown_state":"IL"},{"name":"Mhari Johnson","year":2026,"position":"Edge","stars":null,"rating_247":88.0,"committed_to":"Alabama","lat":32.7794,"lng":-86.8287,"hometown_city":"Muscle Shoals","hometown_state":"AL"},{"name":"Yahya Gaad","year":2026,"position":"Edge","stars":3,"rating_247":88.0,"committed_to":"Wisconsin","lat":35.8028453,"lng":-88.7747808,"hometown_city":"Medina","hometown_state":"TN"},{"name":"Cam Brooks","year":2026,"position":"Edge","stars":3,"rating_247":88.0,"committed_to":"Florida State","lat":30.8365815,"lng":-83.9787808,"hometown_city":"Thomasville","hometown_state":"GA"},{"name":"Ronelle Johnson","year":2026,"position":"Edge","stars":4,"rating_247":88.0,"committed_to":"Indiana","lat":39.017316,"lng":-94.282265,"hometown_city":"Blue Springs","hometown_state":"MO"},{"name":"Jacob Alexander","year":2026,"position":"Edge","stars":3,"rating_247":87.0,"committed_to":"Illinois","lat":41.4958665,"lng":-87.8486613,"hometown_city":"Frankfort","hometown_state":"IL"},{"name":"Landon Bland","year":2026,"position":"Edge","stars":3,"rating_247":87.0,"committed_to":"Oklahoma State","lat":37.1765141,"lng":-94.3103412,"hometown_city":"Carthage","hometown_state":"MO"},{"name":"Jordan Harris","year":2026,"position":"Edge","stars":3,"rating_247":87.0,"committed_to":"Appalachian State","lat":34.8667565,"lng":-92.4043219,"hometown_city":"Maumelle","hometown_state":"AR"},{"name":"Ben Mubenga","year":2026,"position":"Edge","stars":3,"rating_247":86.0,"committed_to":"Arkansas","lat":34.1206564,"lng":-84.0043513,"hometown_city":"Buford","hometown_state":"GA"},{"name":"Joey Quinn","year":2026,"position":"Edge","stars":3,"rating_247":86.0,"committed_to":"Oklahoma State","lat":41.8755616,"lng":-87.6244212,"hometown_city":"Chicago","hometown_state":"IL"},{"name":"Jeremy Lewis","year":2026,"position":"Edge","stars":null,"rating_247":86.0,"committed_to":"Purdue","lat":42.0751,"lng":-93.496,"hometown_city":"Council Bluffs","hometown_state":"IA"},{"name":"Michael Harris","year":2026,"position":"Edge","stars":null,"rating_247":null,"committed_to":null,"lat":28.6305,"lng":-82.4497,"hometown_city":"Homestead","hometown_state":"FL"},{"name":"Jaimeon Winfield","year":2026,"position":"DL","stars":4,"rating_247":98.0,"committed_to":"Southern California","lat":32.9481789,"lng":-96.7297206,"hometown_city":"Richardson","hometown_state":"TX"},{"name":"Deuce Geralds","year":2026,"position":"DL","stars":4,"rating_247":96.0,"committed_to":"Louisiana State","lat":34.0514898,"lng":-84.0712997,"hometown_city":"Suwanee","hometown_state":"GA"},{"name":"Bryce Perry-Wright","year":2026,"position":"DL","stars":4,"rating_247":96.0,"committed_to":"Texas A&M","lat":34.1206564,"lng":-84.0043513,"hometown_city":"Buford","hometown_state":"GA"},{"name":"Aiden Harris","year":2026,"position":"DL","stars":4,"rating_247":95.0,"committed_to":"South Carolina","lat":35.1170873,"lng":-80.723718,"hometown_city":"Matthews","hometown_state":"NC"},{"name":"Nolan Wilson","year":2026,"position":"DL","stars":4,"rating_247":95.0,"committed_to":"Alabama","lat":30.5254692,"lng":-89.6795084,"hometown_city":"Picayune","hometown_state":"MS"},{"name":"Keshawn Stancil","year":2026,"position":"DL","stars":4,"rating_247":95.0,"committed_to":"Miami","lat":35.650711,"lng":-78.4563914,"hometown_city":"Clayton","hometown_state":"NC"},{"name":"Dylan Berymon","year":2026,"position":"DL","stars":4,"rating_247":94.0,"committed_to":"Nebraska","lat":32.5093109,"lng":-92.1193012,"hometown_city":"Monroe","hometown_state":"LA"},{"name":"Danny Beale III","year":2026,"position":"DL","stars":null,"rating_247":94.0,"committed_to":"Arkansas","lat":34.8938,"lng":-92.4426,"hometown_city":"Cherry Valley","hometown_state":"AR"},{"name":"Noah Clark","year":2026,"position":"DL","stars":4,"rating_247":94.0,"committed_to":"South Carolina","lat":35.996653,"lng":-78.9018053,"hometown_city":"Durham","hometown_state":"NC"},{"name":"Grayson McKeogh","year":2026,"position":"DL","stars":4,"rating_247":93.0,"committed_to":"Notre Dame","lat":40.1023326,"lng":-75.1521195,"hometown_city":"Glenside","hometown_state":"PA"},{"name":"Emanuel Ruffin","year":2026,"position":"DL","stars":4,"rating_247":93.0,"committed_to":"Ohio State","lat":33.3823635,"lng":-86.91720475,"hometown_city":"Bessemer","hometown_state":"AL"},{"name":"Jae'Lin Battle","year":2026,"position":"DL","stars":4,"rating_247":93.0,"committed_to":"Baylor","lat":35.6571367,"lng":-97.4649038,"hometown_city":"Edmond","hometown_state":"OK"},{"name":"Tajh Overton","year":2026,"position":"DL","stars":4,"rating_247":93.0,"committed_to":"Missouri","lat":36.2661536,"lng":-95.8549456,"hometown_city":"Owasso","hometown_state":"OK"},{"name":"James Johnson","year":2026,"position":"DL","stars":4,"rating_247":93.0,"committed_to":"Texas","lat":25.7742658,"lng":-80.1936589,"hometown_city":"Miami","hometown_state":"FL"},{"name":"Kevontay Hugan","year":2026,"position":"DL","stars":4,"rating_247":93.0,"committed_to":"Indiana","lat":27.3364347,"lng":-82.5306527,"hometown_city":"Sarasota","hometown_state":"FL"},{"name":"Simote Katoanga","year":2026,"position":"DL","stars":4,"rating_247":92.0,"committed_to":"Southern California","lat":33.6408845,"lng":-117.6029341,"hometown_city":"Rancho Santa Margarita","hometown_state":"CA"},{"name":"Vodney Cleveland","year":2026,"position":"DL","stars":4,"rating_247":92.0,"committed_to":"North Carolina","lat":33.5206824,"lng":-86.8024326,"hometown_city":"Birmingham","hometown_state":"AL"},{"name":"Carmelow Reed","year":2026,"position":"DL","stars":3,"rating_247":92.0,"committed_to":"Mississippi","lat":41.8755616,"lng":-87.6244212,"hometown_city":"Chicago","hometown_state":"IL"},{"name":"Kendall Guervil","year":2026,"position":"DL","stars":4,"rating_247":91.0,"committed_to":"Florida","lat":26.640628,"lng":-81.8723084,"hometown_city":"Fort Myers","hometown_state":"FL"},{"name":"Dereon Albert","year":2026,"position":"DL","stars":4,"rating_247":91.0,"committed_to":"Tennessee","lat":32.2990384,"lng":-90.1847691,"hometown_city":"Jackson","hometown_state":"MS"},{"name":"Trashawn Ruffin","year":2026,"position":"DL","stars":null,"rating_247":90.0,"committed_to":"North Carolina","lat":35.5557,"lng":-79.3877,"hometown_city":"Mt. Olive","hometown_state":"NC"},{"name":"Anthony Kennedy Jr.","year":2026,"position":"DL","stars":3,"rating_247":90.0,"committed_to":"Arkansas","lat":34.7464809,"lng":-92.2895948,"hometown_city":"Little Rock","hometown_state":"AR"},{"name":"Djidjou Bah","year":2026,"position":"DL","stars":3,"rating_247":90.0,"committed_to":"Wisconsin","lat":35.0867577,"lng":-89.8100858,"hometown_city":"Germantown","hometown_state":"TN"},{"name":"Demarcus Johnson","year":2026,"position":"DL","stars":null,"rating_247":90.0,"committed_to":"Missouri","lat":38.4937,"lng":-98.3804,"hometown_city":"Hutchinson","hometown_state":"KS"},{"name":"McHale Blade","year":2026,"position":"DL","stars":4,"rating_247":89.0,"committed_to":"Michigan","lat":41.8755616,"lng":-87.6244212,"hometown_city":"Chicago","hometown_state":"IL"},{"name":"JaReylan McCoy","year":2026,"position":"DL","stars":4,"rating_247":89.0,"committed_to":"Florida","lat":34.2576067,"lng":-88.7033859,"hometown_city":"Tupelo","hometown_state":"MS"},{"name":"Carter Luckie","year":2026,"position":"DL","stars":4,"rating_247":89.0,"committed_to":"Georgia","lat":33.9412127,"lng":-84.2135309,"hometown_city":"Norcross","hometown_state":"GA"},{"name":"Andrew Harris","year":2026,"position":"DL","stars":4,"rating_247":89.0,"committed_to":"South Carolina","lat":35.1170873,"lng":-80.723718,"hometown_city":"Matthews","hometown_state":"NC"},{"name":"Preston Carey","year":2026,"position":"DL","stars":3,"rating_247":88.0,"committed_to":"Georgia","lat":27.4989278,"lng":-82.5748194,"hometown_city":"Bradenton","hometown_state":"FL"},{"name":"JaMarcus Whyce","year":2026,"position":"DL","stars":3,"rating_247":88.0,"committed_to":"Maryland","lat":39.7589478,"lng":-84.1916069,"hometown_city":"Dayton","hometown_state":"OH"},{"name":"Ari Slocum","year":2026,"position":"DL","stars":3,"rating_247":88.0,"committed_to":"Southern Mississippi","lat":32.7734728,"lng":-92.4056986,"hometown_city":"Farmerville","hometown_state":"LA"},{"name":"Kam Cody","year":2026,"position":"DL","stars":null,"rating_247":88.0,"committed_to":"Clemson","lat":32.6415,"lng":-83.4426,"hometown_city":"Savannah","hometown_state":"GA"},{"name":"JJ Finch","year":2026,"position":"DL","stars":3,"rating_247":88.0,"committed_to":"Tennessee","lat":39.7683331,"lng":-86.1583502,"hometown_city":"Indianapolis","hometown_state":"IN"},{"name":"Keytrin Harris","year":2026,"position":"DL","stars":3,"rating_247":87.0,"committed_to":"Arizona","lat":33.3062223,"lng":-111.8413317,"hometown_city":"Chandler","hometown_state":"AZ"},{"name":"Jocques Felix","year":2026,"position":"DL","stars":null,"rating_247":87.0,"committed_to":"Missouri","lat":38.3566,"lng":-92.458,"hometown_city":"St. Louis","hometown_state":"MO"},{"name":"Darryus McKinley","year":2026,"position":"DL","stars":3,"rating_247":87.0,"committed_to":"Ohio State","lat":30.2240897,"lng":-92.0198427,"hometown_city":"Lafayette","hometown_state":"LA"},{"name":"Cam Mallory","year":2026,"position":"DL","stars":null,"rating_247":87.0,"committed_to":"West Virginia","lat":32.7794,"lng":-86.8287,"hometown_city":"Moody","hometown_state":"AL"},{"name":"Tyson Bacon","year":2026,"position":"DL","stars":3,"rating_247":86.0,"committed_to":"Miami","lat":33.3848933,"lng":-86.8070484,"hometown_city":"Hoover","hometown_state":"AL"},{"name":"Isaiah McNish","year":2026,"position":"DL","stars":3,"rating_247":86.0,"committed_to":"UCF","lat":28.6779683,"lng":-81.5115214,"hometown_city":"Apopka","hometown_state":"FL"},{"name":"Seven Cloud","year":2026,"position":"DL","stars":null,"rating_247":86.0,"committed_to":null,"lat":38.4937,"lng":-98.3804,"hometown_city":"El Dorado","hometown_state":"KS"},{"name":"Cameron McGee","year":2026,"position":"DL","stars":3,"rating_247":85.0,"committed_to":"Boston College","lat":33.8389977,"lng":-83.9007382,"hometown_city":"Loganville","hometown_state":"GA"},{"name":"James Morrow","year":2026,"position":"DL","stars":null,"rating_247":84.0,"committed_to":"Murray State","lat":28.6305,"lng":-82.4497,"hometown_city":"Bradenton","hometown_state":"FL"},{"name":"Cincere Johnson","year":2026,"position":"LB","stars":4,"rating_247":98.0,"committed_to":"Ohio State","lat":41.5051613,"lng":-81.6934446,"hometown_city":"Cleveland","hometown_state":"OH"},{"name":"TJ White","year":2026,"position":"LB","stars":4,"rating_247":97.0,"committed_to":"Tennessee","lat":32.2990384,"lng":-90.1847691,"hometown_city":"Jackson","hometown_state":"MS"},{"name":"Tyler Atkinson","year":2026,"position":"LB","stars":5,"rating_247":97.0,"committed_to":"Texas","lat":33.8389977,"lng":-83.9007382,"hometown_city":"Loganville","hometown_state":"GA"},{"name":"Kosi Okpala","year":2026,"position":"LB","stars":4,"rating_247":96.0,"committed_to":"Texas","lat":29.7589382,"lng":-95.3676974,"hometown_city":"Houston","hometown_state":"TX"},{"name":"Talanoa Ili","year":2026,"position":"LB","stars":4,"rating_247":95.0,"committed_to":"Southern California","lat":21.679124,"lng":-157.94838,"hometown_city":"Kahuku","hometown_state":"HI"},{"name":"Jordan Campbell","year":2026,"position":"LB","stars":4,"rating_247":93.0,"committed_to":"Miami","lat":25.896733849999997,"lng":-80.25949640850294,"hometown_city":"Opa Locka","hometown_state":"FL"},{"name":"Qui Beck","year":2026,"position":"LB","stars":null,"rating_247":91.0,"committed_to":"Texas A&M","lat":31.4757,"lng":-99.3312,"hometown_city":"Carthage","hometown_state":"TX"},{"name":"Izayia Williams","year":2026,"position":"LB","stars":4,"rating_247":91.0,"committed_to":"Florida State","lat":28.78992535,"lng":-81.77516353978501,"hometown_city":"Tavares","hometown_state":"FL"},{"name":"Braylon Hodge","year":2026,"position":"LB","stars":4,"rating_247":91.0,"committed_to":"Oregon","lat":39.6482059,"lng":-104.9879641,"hometown_city":"Englewood","hometown_state":"CO"},{"name":"Tank King","year":2026,"position":"LB","stars":4,"rating_247":91.0,"committed_to":"Texas A&M","lat":29.8988618,"lng":-93.9288723,"hometown_city":"Port Arthur","hometown_state":"TX"},{"name":"Thomas Davis Jr.","year":2026,"position":"LB","stars":4,"rating_247":90.0,"committed_to":"Notre Dame","lat":35.1170873,"lng":-80.723718,"hometown_city":"Matthews","hometown_state":"NC"},{"name":"JJ Bush","year":2026,"position":"LB","stars":4,"rating_247":90.0,"committed_to":"Missouri","lat":30.547295,"lng":-88.18020367595204,"hometown_city":"Theodore","hometown_state":"AL"},{"name":"Shadarius Toodle","year":2026,"position":"LB","stars":4,"rating_247":90.0,"committed_to":"Auburn","lat":30.6943566,"lng":-88.0430541,"hometown_city":"Mobile","hometown_state":"AL"},{"name":"CJ Sanna","year":2026,"position":"LB","stars":4,"rating_247":90.0,"committed_to":"Ohio State","lat":40.1983958,"lng":-83.0101843,"hometown_city":"Lewis Center","hometown_state":"OH"},{"name":"Brayden Reilly","year":2026,"position":"LB","stars":4,"rating_247":90.0,"committed_to":"Clemson","lat":39.1014537,"lng":-84.5124602,"hometown_city":"Cincinnati","hometown_state":"OH"},{"name":"DQ Forkpa","year":2026,"position":"LB","stars":null,"rating_247":90.0,"committed_to":"North Carolina","lat":39.055,"lng":-76.7909,"hometown_city":"Baltimore","hometown_state":"MD"},{"name":"Justin Edwards","year":2026,"position":"LB","stars":3,"rating_247":89.0,"committed_to":"Miami","lat":28.5421109,"lng":-81.3790304,"hometown_city":"Orlando","hometown_state":"FL"},{"name":"Malik Morris","year":2026,"position":"LB","stars":4,"rating_247":89.0,"committed_to":"Florida","lat":28.0394654,"lng":-81.9498042,"hometown_city":"Lakeland","hometown_state":"FL"},{"name":"Storm Miller","year":2026,"position":"LB","stars":4,"rating_247":89.0,"committed_to":"Texas A&M","lat":41.3144733,"lng":-81.83511,"hometown_city":"Strongsville","hometown_state":"OH"},{"name":"Keenan Harris","year":2026,"position":"LB","stars":3,"rating_247":89.0,"committed_to":"Missouri","lat":38.6268039,"lng":-90.1994097,"hometown_city":"St. Louis","hometown_state":"MO"},{"name":"Calvin Thomas","year":2026,"position":"LB","stars":4,"rating_247":89.0,"committed_to":"North Carolina","lat":29.9691116,"lng":-95.6971686,"hometown_city":"Cypress","hometown_state":"TX"},{"name":"Ant Davis","year":2026,"position":"LB","stars":null,"rating_247":88.0,"committed_to":"Mississippi","lat":32.6415,"lng":-83.4426,"hometown_city":"Loganville","hometown_state":"GA"},{"name":"Ja'Michael Garrett","year":2026,"position":"LB","stars":null,"rating_247":88.0,"committed_to":"Mississippi","lat":31.0689,"lng":-91.9968,"hometown_city":"Baton Rouge","hometown_state":"LA"},{"name":"Julian Burns","year":2026,"position":"LB","stars":3,"rating_247":88.0,"committed_to":"North Carolina","lat":32.5093109,"lng":-92.1193012,"hometown_city":"Monroe","hometown_state":"LA"},{"name":"Braxton Lindsey","year":2026,"position":"LB","stars":3,"rating_247":88.0,"committed_to":"BYU","lat":36.3320197,"lng":-94.1185366,"hometown_city":"Rogers","hometown_state":"AR"},{"name":"Hudson Dunn","year":2026,"position":"LB","stars":3,"rating_247":87.0,"committed_to":"Minnesota","lat":33.5806115,"lng":-112.2372942,"hometown_city":"Peoria","hometown_state":"AZ"},{"name":"Desmond Johnson","year":2026,"position":"LB","stars":3,"rating_247":87.0,"committed_to":"Pittsburgh","lat":25.7742658,"lng":-80.1936589,"hometown_city":"Miami","hometown_state":"FL"},{"name":"Rodney Colton Jr.","year":2026,"position":"LB","stars":null,"rating_247":87.0,"committed_to":"Colorado","lat":32.6415,"lng":-83.4426,"hometown_city":"Newnan","hometown_state":"GA"},{"name":"Jakore Smith","year":2026,"position":"LB","stars":3,"rating_247":87.0,"committed_to":"Arkansas","lat":34.5959265,"lng":-92.4890469,"hometown_city":"Bryant","hometown_state":"AR"},{"name":"Adam Balogoun-Ali","year":2026,"position":"LB","stars":4,"rating_247":87.0,"committed_to":"Auburn","lat":26.715364,"lng":-80.0532942,"hometown_city":"West Palm Beach","hometown_state":"FL"},{"name":"Jayden McClure","year":2026,"position":"LB","stars":3,"rating_247":87.0,"committed_to":null,"lat":35.5342414,"lng":-87.206954,"hometown_city":"Mount Pleasant","hometown_state":"TN"},{"name":"Johnmichael Fountain","year":2026,"position":"LB","stars":3,"rating_247":87.0,"committed_to":null,"lat":37.6922361,"lng":-97.3375448,"hometown_city":"Wichita","hometown_state":"KS"},{"name":"Karon Maycock","year":2026,"position":"LB","stars":3,"rating_247":86.0,"committed_to":"Florida State","lat":25.7742658,"lng":-80.1936589,"hometown_city":"Miami","hometown_state":"FL"},{"name":"Jamarion Phillips","year":2026,"position":"LB","stars":3,"rating_247":86.0,"committed_to":"Baylor","lat":32.7762719,"lng":-96.7968559,"hometown_city":"Dallas","hometown_state":"TX"},{"name":"Beau Jandreau","year":2026,"position":"LB","stars":3,"rating_247":86.0,"committed_to":"Oklahoma","lat":33.3062223,"lng":-111.8413317,"hometown_city":"Chandler","hometown_state":"AZ"},{"name":"Antoine Sharp Jr.","year":2026,"position":"LB","stars":null,"rating_247":86.0,"committed_to":"West Virginia","lat":28.6305,"lng":-82.4497,"hometown_city":"Wellington","hometown_state":"FL"},{"name":"Braylon Outlaw","year":2026,"position":"LB","stars":3,"rating_247":86.0,"committed_to":"Georgia Tech","lat":32.272931,"lng":-86.15018999518217,"hometown_city":"Pike Road","hometown_state":"AL"},{"name":"Noriel Dominguez","year":2026,"position":"LB","stars":3,"rating_247":86.0,"committed_to":"Texas Christian","lat":29.5821811,"lng":-95.7607832,"hometown_city":"Richmond","hometown_state":"TX"},{"name":"Ashton Moore","year":2026,"position":"LB","stars":3,"rating_247":85.0,"committed_to":"Arkansas State","lat":32.2731475,"lng":-89.9868058,"hometown_city":"Brandon","hometown_state":"MS"},{"name":"CJ Sibley","year":2026,"position":"LB","stars":null,"rating_247":null,"committed_to":null,"lat":32.6415,"lng":-83.4426,"hometown_city":"Buford","hometown_state":"GA"},{"name":"Danny Odem III","year":2026,"position":"CB","stars":null,"rating_247":98.0,"committed_to":"Nebraska","lat":28.6305,"lng":-82.4497,"hometown_city":"Orlando","hometown_state":"FL"},{"name":"Jorden Edmonds","year":2026,"position":"CB","stars":5,"rating_247":98.0,"committed_to":"Alabama","lat":33.9528472,"lng":-84.5496148,"hometown_city":"Marietta","hometown_state":"GA"},{"name":"Khary Adams","year":2026,"position":"CB","stars":5,"rating_247":97.0,"committed_to":"Notre Dame","lat":39.4018552,"lng":-76.602388,"hometown_city":"Towson","hometown_state":"MD"},{"name":"Bralan Womack","year":2026,"position":"CB","stars":5,"rating_247":97.0,"committed_to":"Mississippi State","lat":32.3095903,"lng":-90.1389757,"hometown_city":"Flowood","hometown_state":"MS"},{"name":"Ayden Pouncey","year":2026,"position":"CB","stars":4,"rating_247":96.0,"committed_to":"Notre Dame","lat":26.13784445,"lng":-81.75399813758739,"hometown_city":"Winter Park","hometown_state":"FL"},{"name":"J'Zavien Currence","year":2026,"position":"CB","stars":4,"rating_247":96.0,"committed_to":"South Carolina","lat":34.9248667,"lng":-81.0250784,"hometown_city":"Rock Hill","hometown_state":"SC"},{"name":"Elbert Hill IV","year":2026,"position":"CB","stars":null,"rating_247":95.0,"committed_to":"Southern California","lat":40.2862,"lng":-82.7937,"hometown_city":"Akron","hometown_state":"OH"},{"name":"JJ Dunnigan","year":2026,"position":"CB","stars":4,"rating_247":95.0,"committed_to":"Miami","lat":39.1836082,"lng":-96.5716694,"hometown_city":"Manhattan","hometown_state":"KS"},{"name":"Caden Harris","year":2026,"position":"CB","stars":4,"rating_247":95.0,"committed_to":"Georgia","lat":35.5939671,"lng":-89.262291,"hometown_city":"Brownsville","hometown_state":"TN"},{"name":"CJ Bronaugh","year":2026,"position":"CB","stars":4,"rating_247":95.0,"committed_to":"Florida","lat":28.5656649,"lng":-81.5856742,"hometown_city":"Winter Garden","hometown_state":"FL"},{"name":"Samari Matthews","year":2026,"position":"CB","stars":4,"rating_247":94.0,"committed_to":"Texas","lat":35.4817982,"lng":-80.8589501,"hometown_city":"Cornelius","hometown_state":"NC"},{"name":"Camdin Portis","year":2026,"position":"CB","stars":4,"rating_247":94.0,"committed_to":"Miami","lat":35.2272,"lng":-80.843083,"hometown_city":"Charlotte","hometown_state":"NC"},{"name":"Jaelen Waters","year":2026,"position":"CB","stars":4,"rating_247":94.0,"committed_to":"Miami","lat":27.998541000000003,"lng":-82.27488400114905,"hometown_city":"Seffner","hometown_state":"FL"},{"name":"Nick Hankins Jr.","year":2026,"position":"CB","stars":null,"rating_247":93.0,"committed_to":"Illinois","lat":40.0417,"lng":-89.1965,"hometown_city":"Belleville","hometown_state":"IL"},{"name":"Camren Hamiel","year":2026,"position":"CB","stars":4,"rating_247":93.0,"committed_to":"Texas A&M","lat":33.4353672,"lng":-112.3576005,"hometown_city":"Goodyear","hometown_state":"AZ"},{"name":"Jaxson Gates","year":2026,"position":"CB","stars":4,"rating_247":93.0,"committed_to":"Missouri","lat":34.1008426,"lng":-117.7678355,"hometown_city":"La Verne","hometown_state":"CA"},{"name":"Justice Fitzpatrick","year":2026,"position":"CB","stars":4,"rating_247":92.0,"committed_to":"Georgia","lat":26.1223084,"lng":-80.1433786,"hometown_city":"Fort Lauderdale","hometown_state":"FL"},{"name":"Dylan Purter","year":2026,"position":"CB","stars":4,"rating_247":92.0,"committed_to":"Florida","lat":32.4240286,"lng":-85.6916195,"hometown_city":"Tuskegee","hometown_state":"AL"},{"name":"Peyton Dyer","year":2026,"position":"CB","stars":4,"rating_247":91.0,"committed_to":"Southern California","lat":35.0457219,"lng":-85.3094883,"hometown_city":"Chattanooga","hometown_state":"TN"},{"name":"Vic Singleton","year":2026,"position":"CB","stars":null,"rating_247":91.0,"committed_to":"Texas A&M","lat":40.2862,"lng":-82.7937,"hometown_city":"Toledo","hometown_state":"OH"},{"name":"Jaedyn Terry","year":2026,"position":"CB","stars":4,"rating_247":91.0,"committed_to":"Georgia Tech","lat":32.8598538,"lng":-84.6199251,"hometown_city":"Manchester","hometown_state":"GA"},{"name":"Chaz Smith","year":2026,"position":"CB","stars":null,"rating_247":91.0,"committed_to":"Notre Dame","lat":35.858,"lng":-86.3505,"hometown_city":"Knoxville","hometown_state":"TN"},{"name":"Kasmir Hicks","year":2026,"position":"CB","stars":4,"rating_247":90.0,"committed_to":"Indiana","lat":39.7683331,"lng":-86.1583502,"hometown_city":"Indianapolis","hometown_state":"IN"},{"name":"Kenton Dopson III","year":2026,"position":"CB","stars":null,"rating_247":90.0,"committed_to":"North Carolina","lat":28.6305,"lng":-82.4497,"hometown_city":"Miami","hometown_state":"FL"},{"name":"Justin Hopkins","year":2026,"position":"CB","stars":3,"rating_247":89.0,"committed_to":"Minnesota","lat":36.1622296,"lng":-86.7743531,"hometown_city":"Nashville","hometown_state":"TN"},{"name":"Kealan Jones","year":2026,"position":"CB","stars":3,"rating_247":89.0,"committed_to":"Georgia Tech","lat":33.9528472,"lng":-84.5496148,"hometown_city":"Marietta","hometown_state":"GA"},{"name":"Julian Peterson","year":2026,"position":"CB","stars":3,"rating_247":89.0,"committed_to":"North Carolina","lat":39.769838,"lng":-74.8873855,"hometown_city":"Atco","hometown_state":"NJ"},{"name":"Javonte Smith","year":2026,"position":"CB","stars":3,"rating_247":89.0,"committed_to":"Tennessee","lat":35.6144446,"lng":-88.8177418,"hometown_city":"Jackson","hometown_state":"TN"},{"name":"Brody Jennings","year":2026,"position":"CB","stars":4,"rating_247":88.0,"committed_to":"Miami","lat":30.3321838,"lng":-81.655651,"hometown_city":"Jacksonville","hometown_state":"FL"},{"name":"Preston Ashley","year":2026,"position":"CB","stars":4,"rating_247":88.0,"committed_to":"Colorado","lat":32.2731475,"lng":-89.9868058,"hometown_city":"Brandon","hometown_state":"MS"},{"name":"Nascar McCoy","year":2026,"position":"CB","stars":3,"rating_247":88.0,"committed_to":"Mississippi","lat":34.1206564,"lng":-84.0043513,"hometown_city":"Buford","hometown_state":"GA"},{"name":"Hakim Satterwhite","year":2026,"position":"CB","stars":3,"rating_247":88.0,"committed_to":"Maryland","lat":39.2908816,"lng":-76.610759,"hometown_city":"Baltimore","hometown_state":"MD"},{"name":"Jontavius Wyman","year":2026,"position":"CB","stars":4,"rating_247":88.0,"committed_to":"Miami","lat":33.5215013,"lng":-84.3538128,"hometown_city":"Jonesboro","hometown_state":"GA"},{"name":"Trashundon Neal","year":2026,"position":"CB","stars":null,"rating_247":88.0,"committed_to":"Missouri","lat":38.3566,"lng":-92.458,"hometown_city":"Liberty","hometown_state":"MO"},{"name":"Carsen Eloms","year":2026,"position":"CB","stars":3,"rating_247":88.0,"committed_to":"Wisconsin","lat":39.9555928,"lng":-86.0138729,"hometown_city":"Fishers","hometown_state":"IN"},{"name":"Jaziel Hart","year":2026,"position":"CB","stars":3,"rating_247":87.0,"committed_to":"North Carolina","lat":37.270973,"lng":-79.9414313,"hometown_city":"Roanoke","hometown_state":"VA"},{"name":"Raderrion Daniels","year":2026,"position":"CB","stars":3,"rating_247":87.0,"committed_to":"Purdue","lat":34.9042635,"lng":-90.2145395,"hometown_city":"Lake Cormorant","hometown_state":"MS"},{"name":"DaQuwan Dunn","year":2026,"position":"CB","stars":3,"rating_247":87.0,"committed_to":"Arizona State","lat":32.9481789,"lng":-96.7297206,"hometown_city":"Richardson","hometown_state":"TX"},{"name":"CJ Cresser Jr.","year":2026,"position":"CB","stars":null,"rating_247":86.0,"committed_to":"South Florida","lat":28.6305,"lng":-82.4497,"hometown_city":"Lakeland","hometown_state":"FL"},{"name":"Shmar Akande","year":2026,"position":"CB","stars":3,"rating_247":86.0,"committed_to":"Connecticut","lat":26.02322025,"lng":-80.34123906625615,"hometown_city":"Pembroke Pines","hometown_state":"FL"},{"name":"Ksani Jiles","year":2026,"position":"CB","stars":3,"rating_247":86.0,"committed_to":"Washington","lat":27.4989278,"lng":-82.5748194,"hometown_city":"Bradenton","hometown_state":"FL"},{"name":"Henry Perrymond","year":2026,"position":"CB","stars":3,"rating_247":86.0,"committed_to":"Akron","lat":41.5051613,"lng":-81.6934446,"hometown_city":"Cleveland","hometown_state":"OH"},{"name":"Josiah Brown","year":2026,"position":"CB","stars":3,"rating_247":86.0,"committed_to":"Memphis","lat":30.421309,"lng":-87.2169149,"hometown_city":"Pensacola","hometown_state":"FL"},{"name":"Jalen Williams","year":2026,"position":"CB","stars":3,"rating_247":86.0,"committed_to":"Arizona State","lat":33.9528472,"lng":-84.5496148,"hometown_city":"Marietta","hometown_state":"GA"},{"name":"Major Hinchen","year":2026,"position":"CB","stars":3,"rating_247":86.0,"committed_to":"Utah","lat":33.66365425,"lng":-116.27770251129584,"hometown_city":"La Quinta","hometown_state":"CA"},{"name":"Rodarion Jones","year":2026,"position":"CB","stars":3,"rating_247":85.0,"committed_to":"Jacksonville State","lat":30.6255617,"lng":-84.4153769,"hometown_city":"Havana","hometown_state":"FL"},{"name":"Dominic Turnbull","year":2026,"position":"CB","stars":3,"rating_247":84.0,"committed_to":"Florida International","lat":25.7742658,"lng":-80.1936589,"hometown_city":"Miami","hometown_state":"FL"},{"name":"Kennedi Bailey","year":2026,"position":"CB","stars":3,"rating_247":82.0,"committed_to":"Liberty","lat":33.4707348,"lng":-82.5045956,"hometown_city":"Thomson","hometown_state":"GA"},{"name":"Jaydon Avery","year":2026,"position":"CB","stars":null,"rating_247":null,"committed_to":null,"lat":32.6415,"lng":-83.4426,"hometown_city":"Atlanta","hometown_state":"GA"},{"name":"Jireh Edwards","year":2026,"position":"S","stars":5,"rating_247":97.0,"committed_to":"Alabama","lat":38.8165274,"lng":-76.7519753,"hometown_city":"Upper Marlboro","hometown_state":"MD"},{"name":"Devin Jackson","year":2026,"position":"S","stars":4,"rating_247":95.0,"committed_to":"Oregon","lat":28.5421109,"lng":-81.3790304,"hometown_city":"Orlando","hometown_state":"FL"},{"name":"Matt Sieg","year":2026,"position":"S","stars":4,"rating_247":95.0,"committed_to":"West Virginia","lat":40.3709025,"lng":-80.2347814,"hometown_city":"McDonald","hometown_state":"PA"},{"name":"Jordan Smith","year":2026,"position":"S","stars":4,"rating_247":94.0,"committed_to":"Georgia","lat":32.6200973,"lng":-83.606568,"hometown_city":"Warner Robins","hometown_state":"GA"},{"name":"Blaine Bradford","year":2026,"position":"S","stars":4,"rating_247":94.0,"committed_to":"Ohio State","lat":30.4459596,"lng":-91.18738,"hometown_city":"Baton Rouge","hometown_state":"LA"},{"name":"Polo Anderson","year":2026,"position":"S","stars":null,"rating_247":93.0,"committed_to":"Clemson","lat":33.9169,"lng":-80.8964,"hometown_city":"Roebuck","hometown_state":"SC"},{"name":"Aiden Hall","year":2026,"position":"S","stars":4,"rating_247":92.0,"committed_to":"Louisiana State","lat":29.9499323,"lng":-90.0701156,"hometown_city":"New Orleans","hometown_state":"LA"},{"name":"Tylan Wilson","year":2026,"position":"S","stars":4,"rating_247":92.0,"committed_to":"Texas A&M","lat":30.3646795,"lng":-88.5585995,"hometown_city":"Pascagoula","hometown_state":"MS"},{"name":"Zech Fort","year":2026,"position":"S","stars":4,"rating_247":91.0,"committed_to":"Georgia","lat":27.4989278,"lng":-82.5748194,"hometown_city":"Bradenton","hometown_state":"FL"},{"name":"Simeon Caldwell","year":2026,"position":"S","stars":4,"rating_247":91.0,"committed_to":"Ohio State","lat":30.3321838,"lng":-81.655651,"hometown_city":"Jacksonville","hometown_state":"FL"},{"name":"Xavier Lherisse","year":2026,"position":"S","stars":4,"rating_247":91.0,"committed_to":"Oregon","lat":28.0836269,"lng":-80.6081089,"hometown_city":"Melbourne","hometown_state":"FL"},{"name":"Lasiah Jackson","year":2026,"position":"S","stars":4,"rating_247":91.0,"committed_to":"Stanford","lat":31.7324556,"lng":-84.1711966,"hometown_city":"Leesburg","hometown_state":"GA"},{"name":"Blake Stewart","year":2026,"position":"S","stars":3,"rating_247":90.0,"committed_to":"Georgia","lat":33.7490987,"lng":-84.3901849,"hometown_city":"Atlanta","hometown_state":"GA"},{"name":"Kaden Gebhardt","year":2026,"position":"S","stars":3,"rating_247":90.0,"committed_to":"Ohio State","lat":40.1983958,"lng":-83.0101843,"hometown_city":"Lewis Center","hometown_state":"OH"},{"name":"Craig Tutt","year":2026,"position":"S","stars":4,"rating_247":90.0,"committed_to":"Mississippi","lat":35.845999,"lng":-86.3920452,"hometown_city":"Murfreesboro","hometown_state":"TN"},{"name":"Tedarius Hughes","year":2026,"position":"S","stars":4,"rating_247":89.0,"committed_to":"Syracuse","lat":25.7742658,"lng":-80.1936589,"hometown_city":"Miami","hometown_state":"FL"},{"name":"Jacob Eberhart","year":2026,"position":"S","stars":4,"rating_247":89.0,"committed_to":"Illinois","lat":38.6268039,"lng":-90.1994097,"hometown_city":"St. Louis","hometown_state":"MO"},{"name":"Jowell Combay","year":2026,"position":"S","stars":3,"rating_247":89.0,"committed_to":"Tennessee","lat":33.9528472,"lng":-84.5496148,"hometown_city":"Marietta","hometown_state":"GA"},{"name":"CJ Hester","year":2026,"position":"S","stars":4,"rating_247":88.0,"committed_to":"Florida","lat":28.3553873,"lng":-80.7318827,"hometown_city":"Cocoa","hometown_state":"FL"},{"name":"D'Montae Tims","year":2026,"position":"S","stars":3,"rating_247":88.0,"committed_to":"Indiana","lat":27.998541000000003,"lng":-82.27488400114905,"hometown_city":"Seffner","hometown_state":"FL"},{"name":"Cortez Redding","year":2026,"position":"S","stars":4,"rating_247":88.0,"committed_to":"Miami","lat":33.5215013,"lng":-84.3538128,"hometown_city":"Jonesboro","hometown_state":"GA"},{"name":"Chace Calicut","year":2026,"position":"S","stars":4,"rating_247":88.0,"committed_to":"Georgia Southern","lat":29.7589382,"lng":-95.3676974,"hometown_city":"Houston","hometown_state":"TX"},{"name":"Daijon Gaines","year":2026,"position":"S","stars":3,"rating_247":88.0,"committed_to":"Pittsburg State","lat":36.1556805,"lng":-95.9929113,"hometown_city":"Tulsa","hometown_state":"OK"},{"name":"Markel Ford","year":2026,"position":"S","stars":3,"rating_247":88.0,"committed_to":"Oklahoma","lat":32.7666103,"lng":-96.599472,"hometown_city":"Mesquite","hometown_state":"TX"},{"name":"Jamarrion Gordon","year":2026,"position":"S","stars":3,"rating_247":88.0,"committed_to":"North Carolina","lat":31.5090521,"lng":-87.8944435,"hometown_city":"Jackson","hometown_state":"AL"},{"name":"D'Various Surratt","year":2026,"position":"S","stars":3,"rating_247":88.0,"committed_to":"North Carolina State","lat":35.2919489,"lng":-81.5402112,"hometown_city":"Shelby","hometown_state":"NC"},{"name":"Isaiah Williams","year":2026,"position":"S","stars":3,"rating_247":88.0,"committed_to":"Illinois","lat":38.6779591,"lng":-121.1760583,"hometown_city":"Folsom","hometown_state":"CA"},{"name":"Nick Reddish","year":2026,"position":"S","stars":3,"rating_247":88.0,"committed_to":"Notre Dame","lat":35.2272,"lng":-80.843083,"hometown_city":"Charlotte","hometown_state":"NC"},{"name":"Keivay Foster","year":2026,"position":"S","stars":3,"rating_247":88.0,"committed_to":"Troy","lat":34.7451786,"lng":-87.6686733,"hometown_city":"Muscle Shoals","hometown_state":"AL"},{"name":"Bradley Brown","year":2026,"position":"S","stars":3,"rating_247":87.0,"committed_to":"Vanderbilt","lat":33.0136764,"lng":-96.6925096,"hometown_city":"Plano","hometown_state":"TX"},{"name":"Djimon McLendon","year":2026,"position":"S","stars":3,"rating_247":87.0,"committed_to":"East Carolina","lat":33.8532701,"lng":-84.2200729,"hometown_city":"Tucker","hometown_state":"GA"},{"name":"Tony Forney","year":2026,"position":"S","stars":3,"rating_247":87.0,"committed_to":"Pittsburgh","lat":33.9528472,"lng":-84.5496148,"hometown_city":"Marietta","hometown_state":"GA"},{"name":"Karaijus Hayes","year":2026,"position":"S","stars":3,"rating_247":86.0,"committed_to":"Florida International","lat":27.3364347,"lng":-82.5306527,"hometown_city":"Sarasota","hometown_state":"FL"},{"name":"Niko Jandreau","year":2026,"position":"S","stars":3,"rating_247":86.0,"committed_to":"Oklahoma","lat":33.3062223,"lng":-111.8413317,"hometown_city":"Chandler","hometown_state":"AZ"},{"name":"Amari Jones","year":2026,"position":"S","stars":3,"rating_247":86.0,"committed_to":"South Florida","lat":27.4989278,"lng":-82.5748194,"hometown_city":"Bradenton","hometown_state":"FL"},{"name":"Nick McClellan","year":2026,"position":"S","stars":3,"rating_247":86.0,"committed_to":"Kansas State","lat":38.6268039,"lng":-90.1994097,"hometown_city":"St. Louis","hometown_state":"MO"},{"name":"Tylen Mathews","year":2026,"position":"S","stars":3,"rating_247":86.0,"committed_to":"Nevada, Las Vegas","lat":34.9042635,"lng":-90.2145395,"hometown_city":"Lake Cormorant","hometown_state":"MS"},{"name":"Brody Jones","year":2026,"position":"S","stars":3,"rating_247":86.0,"committed_to":"Missouri","lat":30.507956,"lng":-87.89742922432941,"hometown_city":"Fairhope","hometown_state":"AL"},{"name":"Carter Stewart","year":2026,"position":"S","stars":3,"rating_247":84.0,"committed_to":"Missouri","lat":29.5639758,"lng":-95.2864299,"hometown_city":"Pearland","hometown_state":"TX"},{"name":"Brian Clark","year":2026,"position":"S","stars":null,"rating_247":null,"committed_to":null,"lat":32.6415,"lng":-83.4426,"hometown_city":"Atlanta","hometown_state":"GA"},{"name":"Keisean Henderson","year":2026,"position":"ATH","stars":5,"rating_247":100.0,"committed_to":"Houston","lat":30.0798826,"lng":-95.4172549,"hometown_city":"Spring","hometown_state":"TX"},{"name":"Brandon Arrington","year":2026,"position":"ATH","stars":5,"rating_247":98.0,"committed_to":"Texas A&M","lat":32.7174209,"lng":-117.1627714,"hometown_city":"San Diego","hometown_state":"CA"},{"name":"Ian Premer","year":2026,"position":"ATH","stars":5,"rating_247":98.0,"committed_to":"Notre Dame","lat":38.3625063,"lng":-98.7804087,"hometown_city":"Great Bend","hometown_state":"KS"},{"name":"Jalen Lott","year":2026,"position":"ATH","stars":5,"rating_247":97.0,"committed_to":"Oregon","lat":33.1506744,"lng":-96.8236116,"hometown_city":"Frisco","hometown_state":"TX"},{"name":"Joey O'Brien","year":2026,"position":"ATH","stars":5,"rating_247":97.0,"committed_to":"Notre Dame","lat":40.1023326,"lng":-75.1521195,"hometown_city":"Glenside","hometown_state":"PA"},{"name":"Zyan Gibson","year":2026,"position":"ATH","stars":4,"rating_247":96.0,"committed_to":"Alabama","lat":34.010929,"lng":-85.9989596,"hometown_city":"Gadsden","hometown_state":"AL"},{"name":"Davian Groce","year":2026,"position":"ATH","stars":4,"rating_247":96.0,"committed_to":"Florida","lat":33.1506744,"lng":-96.8236116,"hometown_city":"Frisco","hometown_state":"TX"},{"name":"Mack Sutter","year":2026,"position":"ATH","stars":4,"rating_247":96.0,"committed_to":"Alabama","lat":40.8616513,"lng":-89.6777665,"hometown_city":"Dunlap","hometown_state":"IL"},{"name":"Brayden Rouse","year":2026,"position":"ATH","stars":4,"rating_247":96.0,"committed_to":"Tennessee","lat":33.9528472,"lng":-84.5496148,"hometown_city":"Marietta","hometown_state":"GA"},{"name":"Derrek Cooper","year":2026,"position":"ATH","stars":4,"rating_247":93.0,"committed_to":"Texas","lat":26.0112014,"lng":-80.1494901,"hometown_city":"Hollywood","hometown_state":"FL"},{"name":"Tyriq Green","year":2026,"position":"ATH","stars":4,"rating_247":93.0,"committed_to":"Georgia","lat":34.1206564,"lng":-84.0043513,"hometown_city":"Buford","hometown_state":"GA"},{"name":"Justin Williams","year":2026,"position":"ATH","stars":4,"rating_247":92.0,"committed_to":"Florida","lat":29.6519684,"lng":-82.3249846,"hometown_city":"Gainesville","hometown_state":"FL"},{"name":"Nas Rankin","year":2026,"position":"ATH","stars":null,"rating_247":91.0,"committed_to":"Illinois","lat":40.0417,"lng":-89.1965,"hometown_city":"Chicago","hometown_state":"IL"},{"name":"Ryelan Morris","year":2026,"position":"ATH","stars":4,"rating_247":91.0,"committed_to":"Baylor","lat":33.5834377,"lng":-95.9099681,"hometown_city":"Honey Grove","hometown_state":"TX"},{"name":"Devonte Anderson","year":2026,"position":"ATH","stars":3,"rating_247":90.0,"committed_to":"Rutgers","lat":28.5656649,"lng":-81.5856742,"hometown_city":"Winter Garden","hometown_state":"FL"},{"name":"La'Keyleon Graves","year":2026,"position":"ATH","stars":null,"rating_247":90.0,"committed_to":"Texas State","lat":31.4757,"lng":-99.3312,"hometown_city":"Kilgore","hometown_state":"TX"},{"name":"Jayden McGregory","year":2026,"position":"ATH","stars":4,"rating_247":89.0,"committed_to":"Missouri","lat":41.5910641,"lng":-93.6037149,"hometown_city":"Des Moines","hometown_state":"IA"},{"name":"Dequane Prevo","year":2026,"position":"ATH","stars":4,"rating_247":89.0,"committed_to":"Arkansas","lat":36.3728538,"lng":-94.2088172,"hometown_city":"Bentonville","hometown_state":"AR"},{"name":"Cord Nolan","year":2026,"position":"ATH","stars":3,"rating_247":89.0,"committed_to":"Texas Tech","lat":35.9420431,"lng":-95.8833235,"hometown_city":"Bixby","hometown_state":"OK"},{"name":"Braeden Presley","year":2026,"position":"ATH","stars":3,"rating_247":88.0,"committed_to":"Oklahoma State","lat":35.9420431,"lng":-95.8833235,"hometown_city":"Bixby","hometown_state":"OK"},{"name":"Joshua Holland II","year":2026,"position":"ATH","stars":null,"rating_247":88.0,"committed_to":"Southern California","lat":37.1841,"lng":-119.4696,"hometown_city":"Bellflower","hometown_state":"CA"},{"name":"Shavar Young Jr.","year":2026,"position":"ATH","stars":3,"rating_247":88.0,"committed_to":"Clemson","lat":35.9603948,"lng":-83.9210261,"hometown_city":"Knoxville","hometown_state":"TN"},{"name":"Dreshaun Ross","year":2026,"position":"ATH","stars":3,"rating_247":87.0,"committed_to":null,"lat":42.4974694,"lng":-94.1680158,"hometown_city":"Fort Dodge","hometown_state":"IA"},{"name":"Darryon Williams","year":2026,"position":"ATH","stars":3,"rating_247":87.0,"committed_to":"Florida State","lat":27.9477595,"lng":-82.458444,"hometown_city":"Tampa","hometown_state":"FL"},{"name":"Aaron Bradshaw","year":2026,"position":"ATH","stars":3,"rating_247":87.0,"committed_to":"Texas Tech","lat":32.753177,"lng":-97.3327459,"hometown_city":"Fort Worth","hometown_state":"TX"},{"name":"Ahmod Billins","year":2026,"position":"ATH","stars":3,"rating_247":87.0,"committed_to":"Missouri","lat":31.5718352,"lng":-85.2504893,"hometown_city":"Abbeville","hometown_state":"AL"},{"name":"Tony Williams","year":2026,"position":"ATH","stars":3,"rating_247":86.0,"committed_to":"Illinois","lat":30.3321838,"lng":-81.655651,"hometown_city":"Jacksonville","hometown_state":"FL"},{"name":"Zion Legree","year":2026,"position":"ATH","stars":3,"rating_247":86.0,"committed_to":"Wisconsin","lat":30.4057552,"lng":-86.618842,"hometown_city":"Fort Walton Beach","hometown_state":"FL"},{"name":"DJ Williams","year":2026,"position":"ATH","stars":3,"rating_247":86.0,"committed_to":"Louisville","lat":27.9477595,"lng":-82.458444,"hometown_city":"Tampa","hometown_state":"FL"},{"name":"Dana Greenhow","year":2026,"position":"ATH","stars":3,"rating_247":86.0,"committed_to":"Purdue","lat":33.4713249,"lng":-84.5972005,"hometown_city":"Tyrone","hometown_state":"GA"},{"name":"LJ Porter","year":2026,"position":"ATH","stars":null,"rating_247":85.0,"committed_to":"East Carolina","lat":35.5557,"lng":-79.3877,"hometown_city":"Cornelius","hometown_state":"NC"},{"name":"Dallas Brannon","year":2026,"position":"ATH","stars":3,"rating_247":85.0,"committed_to":"Virginia","lat":35.2272,"lng":-80.843083,"hometown_city":"Charlotte","hometown_state":"NC"},{"name":"Kenny Golston","year":2026,"position":"ATH","stars":null,"rating_247":84.0,"committed_to":"Idaho","lat":35.5889,"lng":-97.4943,"hometown_city":"Valliant","hometown_state":"OK"},{"name":"Joshua Joseph","year":2026,"position":"ATH","stars":3,"rating_247":84.0,"committed_to":"Memphis","lat":25.7742658,"lng":-80.1936589,"hometown_city":"Miami","hometown_state":"FL"},{"name":"Wade Register","year":2026,"position":"P","stars":3,"rating_247":83.0,"committed_to":"Georgia","lat":32.5404447,"lng":-82.903754,"hometown_city":"Dublin","hometown_state":"GA"},{"name":"Jonathan Genty","year":2026,"position":"P","stars":3,"rating_247":82.0,"committed_to":"Georgia Tech","lat":34.02332,"lng":-84.360022,"hometown_city":"Roswell","hometown_state":"GA"}],"2027":[{"name":"Jake Nawrot","year":2027,"position":"QB","stars":null,"rating_247":94.0,"committed_to":"Kentucky","lat":40.0417,"lng":-89.1965,"hometown_city":"Arlington Heights","hometown_state":"IL"},{"name":"Will Mencl","year":2027,"position":"QB","stars":null,"rating_247":94.0,"committed_to":"Oregon","lat":34.2744,"lng":-111.6602,"hometown_city":"Chandler","hometown_state":"AZ"},{"name":"Braylen Warren","year":2027,"position":"QB","stars":null,"rating_247":90.0,"committed_to":"Missouri","lat":41.5378,"lng":-99.7951,"hometown_city":"Omaha","hometown_state":"NE"},{"name":"Blake Roskopf","year":2027,"position":"QB","stars":null,"rating_247":90.0,"committed_to":"Washington","lat":34.2744,"lng":-111.6602,"hometown_city":"Goodyear","hometown_state":"AZ"},{"name":"Jayce Johnson","year":2027,"position":"QB","stars":null,"rating_247":90.0,"committed_to":"Texas A&M","lat":32.6415,"lng":-83.4426,"hometown_city":"Valdosta","hometown_state":"GA"},{"name":"Trent Seaborn","year":2027,"position":"QB","stars":null,"rating_247":90.0,"committed_to":"Alabama","lat":32.7794,"lng":-86.8287,"hometown_city":"Alabaster","hometown_state":"AL"},{"name":"David Gabriel Georges","year":2027,"position":"RB","stars":null,"rating_247":98.0,"committed_to":null,"lat":35.858,"lng":-86.3505,"hometown_city":"Chattanooga","hometown_state":"TN"},{"name":"Landen Williams-Callis","year":2027,"position":"RB","stars":null,"rating_247":95.0,"committed_to":null,"lat":31.4757,"lng":-99.3312,"hometown_city":"Richmond","hometown_state":"TX"},{"name":"SaRod Baker","year":2027,"position":"RB","stars":null,"rating_247":94.0,"committed_to":"Texas Tech","lat":31.4757,"lng":-99.3312,"hometown_city":"DeSoto","hometown_state":"TX"},{"name":"CaDarius McMiller","year":2027,"position":"RB","stars":null,"rating_247":90.0,"committed_to":"Oregon","lat":31.4757,"lng":-99.3312,"hometown_city":"Tyler","hometown_state":"TX"},{"name":"Lathan Whisenton","year":2027,"position":"RB","stars":null,"rating_247":90.0,"committed_to":"Notre Dame","lat":31.4757,"lng":-99.3312,"hometown_city":"Waco","hometown_state":"TX"},{"name":"Kingston Miles","year":2027,"position":"RB","stars":null,"rating_247":90.0,"committed_to":"Auburn","lat":38.3566,"lng":-92.458,"hometown_city":"St. Louis","hometown_state":"MO"},{"name":"Tyson Robinson","year":2027,"position":"RB","stars":null,"rating_247":90.0,"committed_to":"Michigan","lat":32.7364,"lng":-89.6678,"hometown_city":"Brandon","hometown_state":"MS"},{"name":"Nigel Newkirk","year":2027,"position":"RB","stars":null,"rating_247":89.0,"committed_to":"Alabama","lat":32.6415,"lng":-83.4426,"hometown_city":"Gainesville","hometown_state":"GA"},{"name":"Khamoni Williams","year":2027,"position":"RB","stars":null,"rating_247":89.0,"committed_to":null,"lat":35.858,"lng":-86.3505,"hometown_city":"Memphis","hometown_state":"TN"},{"name":"Caden Waye","year":2027,"position":"RB","stars":null,"rating_247":89.0,"committed_to":null,"lat":32.6415,"lng":-83.4426,"hometown_city":"McDonough","hometown_state":"GA"},{"name":"Javian Jones-Priest","year":2027,"position":"RB","stars":null,"rating_247":89.0,"committed_to":"Virginia Tech","lat":31.4757,"lng":-99.3312,"hometown_city":"Arlington","hometown_state":"TX"},{"name":"Jayshon Gibson","year":2027,"position":"RB","stars":null,"rating_247":88.0,"committed_to":"UCLA","lat":31.4757,"lng":-99.3312,"hometown_city":"North Richland Hills","hometown_state":"TX"},{"name":"Savion Miller","year":2027,"position":"RB","stars":null,"rating_247":88.0,"committed_to":null,"lat":42.0751,"lng":-93.496,"hometown_city":"Iowa City","hometown_state":"IA"},{"name":"Asa Barnes","year":2027,"position":"RB","stars":null,"rating_247":88.0,"committed_to":null,"lat":35.858,"lng":-86.3505,"hometown_city":"Martin","hometown_state":"TN"},{"name":"Wayne Shanks Jr.","year":2027,"position":"RB","stars":null,"rating_247":88.0,"committed_to":"Arizona","lat":31.4757,"lng":-99.3312,"hometown_city":"Houston","hometown_state":"TX"},{"name":"Tristan Willis","year":2027,"position":"RB","stars":null,"rating_247":88.0,"committed_to":"Georgia Tech","lat":31.4757,"lng":-99.3312,"hometown_city":"Houston","hometown_state":"TX"},{"name":"Kelvin Morrison","year":2027,"position":"RB","stars":null,"rating_247":88.0,"committed_to":"Virginia Tech","lat":40.8781,"lng":-77.7996,"hometown_city":"Hermitage","hometown_state":"PA"},{"name":"Tai Phillips","year":2027,"position":"RB","stars":null,"rating_247":88.0,"committed_to":"Alabama","lat":33.9169,"lng":-80.8964,"hometown_city":"Columbia","hometown_state":"SC"},{"name":"Noah Parker","year":2027,"position":"RB","stars":null,"rating_247":87.0,"committed_to":"Georgia","lat":32.6415,"lng":-83.4426,"hometown_city":"Montezuma","hometown_state":"GA"},{"name":"Correll Buckhalter Jr.","year":2027,"position":"RB","stars":null,"rating_247":87.0,"committed_to":"Kansas State","lat":31.4757,"lng":-99.3312,"hometown_city":"Argyle","hometown_state":"TX"},{"name":"MJ Gideon","year":2027,"position":"RB","stars":null,"rating_247":87.0,"committed_to":"Vanderbilt","lat":32.7794,"lng":-86.8287,"hometown_city":"Madison","hometown_state":"AL"},{"name":"TJ Lewis","year":2027,"position":"RB","stars":null,"rating_247":87.0,"committed_to":null,"lat":40.0417,"lng":-89.1965,"hometown_city":"Bolingbrook","hometown_state":"IL"},{"name":"Jeremiah Stonewall","year":2027,"position":"RB","stars":null,"rating_247":86.0,"committed_to":null,"lat":40.0417,"lng":-89.1965,"hometown_city":"Crete","hometown_state":"IL"},{"name":"Mikel Stephen","year":2027,"position":"RB","stars":null,"rating_247":86.0,"committed_to":"Duke","lat":32.7364,"lng":-89.6678,"hometown_city":"Madison","hometown_state":"MS"},{"name":"Antwon Sanders","year":2027,"position":"RB","stars":null,"rating_247":86.0,"committed_to":"California","lat":31.4757,"lng":-99.3312,"hometown_city":"Houston","hometown_state":"TX"},{"name":"Jakoby Dixon","year":2027,"position":"RB","stars":null,"rating_247":86.0,"committed_to":"Oklahoma","lat":31.4757,"lng":-99.3312,"hometown_city":"Brenham","hometown_state":"TX"},{"name":"Caleb Mattison","year":2027,"position":"RB","stars":null,"rating_247":86.0,"committed_to":null,"lat":28.6305,"lng":-82.4497,"hometown_city":"Jacksonville","hometown_state":"FL"},{"name":"Maliq Allen","year":2027,"position":"RB","stars":null,"rating_247":85.0,"committed_to":null,"lat":37.1841,"lng":-119.4696,"hometown_city":"Bellflower","hometown_state":"CA"},{"name":"Carter Wallace","year":2027,"position":"RB","stars":null,"rating_247":85.0,"committed_to":"Arkansas State","lat":34.8938,"lng":-92.4426,"hometown_city":"Jonesboro","hometown_state":"AR"},{"name":"James Bell","year":2027,"position":"RB","stars":null,"rating_247":85.0,"committed_to":null,"lat":40.0417,"lng":-89.1965,"hometown_city":"Chicago","hometown_state":"IL"},{"name":"Monshun Sales","year":2027,"position":"WR","stars":null,"rating_247":98.0,"committed_to":null,"lat":39.8942,"lng":-86.2816,"hometown_city":"Indianapolis","hometown_state":"IN"},{"name":"Dakota Guerrant","year":2027,"position":"WR","stars":null,"rating_247":98.0,"committed_to":null,"lat":44.3467,"lng":-85.4102,"hometown_city":"Harper Woods","hometown_state":"MI"},{"name":"Jamarin Simmons","year":2027,"position":"WR","stars":null,"rating_247":98.0,"committed_to":"Clemson","lat":28.6305,"lng":-82.4497,"hometown_city":"Tallahassee","hometown_state":"FL"},{"name":"Jamier Brown","year":2027,"position":"WR","stars":null,"rating_247":98.0,"committed_to":"Ohio State","lat":40.2862,"lng":-82.7937,"hometown_city":"Sunbury","hometown_state":"OH"},{"name":"Osani Gayles","year":2027,"position":"WR","stars":null,"rating_247":95.0,"committed_to":null,"lat":28.6305,"lng":-82.4497,"hometown_city":"Bradenton","hometown_state":"FL"},{"name":"Jaden Upshaw","year":2027,"position":"WR","stars":null,"rating_247":94.0,"committed_to":"Texas A&M","lat":32.6415,"lng":-83.4426,"hometown_city":"Leesburg","hometown_state":"GA"},{"name":"Eric McFarland III","year":2027,"position":"WR","stars":null,"rating_247":94.0,"committed_to":null,"lat":28.6305,"lng":-82.4497,"hometown_city":"Bradenton","hometown_state":"FL"},{"name":"Kesean Bowman","year":2027,"position":"WR","stars":null,"rating_247":93.0,"committed_to":"Tennessee","lat":35.858,"lng":-86.3505,"hometown_city":"Brentwood","hometown_state":"TN"},{"name":"Julius Jones","year":2027,"position":"WR","stars":null,"rating_247":92.0,"committed_to":null,"lat":28.6305,"lng":-82.4497,"hometown_city":"Fort Lauderdale","hometown_state":"FL"},{"name":"Deshawn Hall","year":2027,"position":"WR","stars":null,"rating_247":91.0,"committed_to":null,"lat":32.7794,"lng":-86.8287,"hometown_city":"Prattville","hometown_state":"AL"},{"name":"Briceson Thrower Jr.","year":2027,"position":"WR","stars":null,"rating_247":91.0,"committed_to":"Texas","lat":31.4757,"lng":-99.3312,"hometown_city":"Forney","hometown_state":"TX"},{"name":"Eli Woodard","year":2027,"position":"WR","stars":null,"rating_247":91.0,"committed_to":null,"lat":37.1841,"lng":-119.4696,"hometown_city":"Temecula","hometown_state":"CA"},{"name":"Tre Moore","year":2027,"position":"WR","stars":null,"rating_247":90.0,"committed_to":"Washington","lat":31.4757,"lng":-99.3312,"hometown_city":"Pflugerville","hometown_state":"TX"},{"name":"Quentin Burrell","year":2027,"position":"WR","stars":null,"rating_247":90.0,"committed_to":"Michigan","lat":40.0417,"lng":-89.1965,"hometown_city":"Chicago","hometown_state":"IL"},{"name":"Julian Caldwell","year":2027,"position":"WR","stars":null,"rating_247":90.0,"committed_to":"Texas Tech","lat":31.4757,"lng":-99.3312,"hometown_city":"Argyle","hometown_state":"TX"},{"name":"Jabari Watkins","year":2027,"position":"WR","stars":null,"rating_247":90.0,"committed_to":"Arkansas","lat":32.6415,"lng":-83.4426,"hometown_city":"Thomasville","hometown_state":"GA"},{"name":"Ah'Mari Stevens","year":2027,"position":"WR","stars":null,"rating_247":90.0,"committed_to":"Louisiana State","lat":28.6305,"lng":-82.4497,"hometown_city":"Hollywood","hometown_state":"FL"},{"name":"Dontay Tyson","year":2027,"position":"WR","stars":null,"rating_247":90.0,"committed_to":"Washington","lat":34.2744,"lng":-111.6602,"hometown_city":"Peoria","hometown_state":"AZ"},{"name":"Damani Warren","year":2027,"position":"WR","stars":null,"rating_247":89.0,"committed_to":null,"lat":39.3289,"lng":-116.6312,"hometown_city":"Las Vegas","hometown_state":"NV"},{"name":"Trey Haralson","year":2027,"position":"WR","stars":null,"rating_247":89.0,"committed_to":"SMU","lat":31.4757,"lng":-99.3312,"hometown_city":"Tyler","hometown_state":"TX"},{"name":"Anthony Jennings","year":2027,"position":"WR","stars":null,"rating_247":88.0,"committed_to":"Florida","lat":28.6305,"lng":-82.4497,"hometown_city":"Fort Lauderdale","hometown_state":"FL"},{"name":"Deshawn Dillon","year":2027,"position":"WR","stars":null,"rating_247":88.0,"committed_to":null,"lat":32.7364,"lng":-89.6678,"hometown_city":"Flowood","hometown_state":"MS"},{"name":"Jaden Baldwin","year":2027,"position":"WR","stars":null,"rating_247":88.0,"committed_to":"Pittsburgh","lat":34.2744,"lng":-111.6602,"hometown_city":"Chandler","hometown_state":"AZ"},{"name":"Gavin Honore","year":2027,"position":"WR","stars":null,"rating_247":88.0,"committed_to":null,"lat":39.3289,"lng":-116.6312,"hometown_city":"Las Vegas","hometown_state":"NV"},{"name":"Cam Wade","year":2027,"position":"WR","stars":null,"rating_247":88.0,"committed_to":"Virginia Tech","lat":37.5215,"lng":-78.8537,"hometown_city":"Leesburg","hometown_state":"VA"},{"name":"Brandon Leavell","year":2027,"position":"WR","stars":null,"rating_247":88.0,"committed_to":"Tennessee","lat":35.858,"lng":-86.3505,"hometown_city":"Madison","hometown_state":"TN"},{"name":"Charles Britton III","year":2027,"position":"WR","stars":null,"rating_247":88.0,"committed_to":null,"lat":44.3467,"lng":-85.4102,"hometown_city":"Belleville","hometown_state":"MI"},{"name":"Lawrence Carr","year":2027,"position":"WR","stars":null,"rating_247":88.0,"committed_to":null,"lat":40.0417,"lng":-89.1965,"hometown_city":"Chicago","hometown_state":"IL"},{"name":"Zerek Sidney","year":2027,"position":"WR","stars":null,"rating_247":87.0,"committed_to":"Washington","lat":34.2744,"lng":-111.6602,"hometown_city":"Goodyear","hometown_state":"AZ"},{"name":"Deng Tong","year":2027,"position":"WR","stars":null,"rating_247":87.0,"committed_to":"Kansas","lat":38.3566,"lng":-92.458,"hometown_city":"Kansas City","hometown_state":"MO"},{"name":"Don Spillers","year":2027,"position":"WR","stars":null,"rating_247":87.0,"committed_to":null,"lat":44.3467,"lng":-85.4102,"hometown_city":"Detroit","hometown_state":"MI"},{"name":"Laron Baker Jr.","year":2027,"position":"WR","stars":null,"rating_247":87.0,"committed_to":null,"lat":40.0417,"lng":-89.1965,"hometown_city":"East St. Louis","hometown_state":"IL"},{"name":"Braylon Kasper","year":2027,"position":"WR","stars":null,"rating_247":87.0,"committed_to":null,"lat":34.2744,"lng":-111.6602,"hometown_city":"Queen Creek","hometown_state":"AZ"},{"name":"Jackson Coleman","year":2027,"position":"WR","stars":null,"rating_247":87.0,"committed_to":"Notre Dame","lat":38.9972,"lng":-105.5478,"hometown_city":"Littleton","hometown_state":"CO"},{"name":"Jacob Thomas","year":2027,"position":"WR","stars":null,"rating_247":86.0,"committed_to":"Pittsburgh","lat":28.6305,"lng":-82.4497,"hometown_city":"Pembroke Pines","hometown_state":"FL"},{"name":"Aden Starling","year":2027,"position":"WR","stars":null,"rating_247":86.0,"committed_to":null,"lat":31.4757,"lng":-99.3312,"hometown_city":"Pearland","hometown_state":"TX"},{"name":"Jamal Robinson Jr.","year":2027,"position":"WR","stars":null,"rating_247":86.0,"committed_to":"UCF","lat":28.6305,"lng":-82.4497,"hometown_city":"Hialeah","hometown_state":"FL"},{"name":"Darion Moseley","year":2027,"position":"WR","stars":null,"rating_247":86.0,"committed_to":"Arkansas","lat":32.7794,"lng":-86.8287,"hometown_city":"Alabaster","hometown_state":"AL"},{"name":"Eli Ferguson","year":2027,"position":"WR","stars":null,"rating_247":86.0,"committed_to":null,"lat":35.858,"lng":-86.3505,"hometown_city":"Brentwood","hometown_state":"TN"},{"name":"James Bethea","year":2027,"position":"WR","stars":null,"rating_247":86.0,"committed_to":null,"lat":28.6305,"lng":-82.4497,"hometown_city":"Ocala","hometown_state":"FL"},{"name":"Jordan Walley","year":2027,"position":"WR","stars":null,"rating_247":86.0,"committed_to":"Minnesota","lat":32.7364,"lng":-89.6678,"hometown_city":"D'Iberville","hometown_state":"MS"},{"name":"Braylon Lane","year":2027,"position":"WR","stars":null,"rating_247":86.0,"committed_to":"Houston","lat":31.4757,"lng":-99.3312,"hometown_city":"Houston","hometown_state":"TX"},{"name":"Trysten Shaw","year":2027,"position":"WR","stars":null,"rating_247":86.0,"committed_to":"Tulsa","lat":31.4757,"lng":-99.3312,"hometown_city":"Arlington","hometown_state":"TX"},{"name":"Khamarian Young","year":2027,"position":"WR","stars":null,"rating_247":85.0,"committed_to":null,"lat":28.6305,"lng":-82.4497,"hometown_city":"Hollywood","hometown_state":"FL"},{"name":"Sean Thompson","year":2027,"position":"WR","stars":null,"rating_247":85.0,"committed_to":null,"lat":28.6305,"lng":-82.4497,"hometown_city":"Miami","hometown_state":"FL"},{"name":"Keyon Standifer","year":2027,"position":"WR","stars":null,"rating_247":85.0,"committed_to":null,"lat":32.6415,"lng":-83.4426,"hometown_city":"Covington","hometown_state":"GA"},{"name":"Vermont Carmack","year":2027,"position":"WR","stars":null,"rating_247":85.0,"committed_to":null,"lat":35.5557,"lng":-79.3877,"hometown_city":"Greensboro","hometown_state":"NC"},{"name":"Chance McPike Jr.","year":2027,"position":"WR","stars":null,"rating_247":null,"committed_to":null,"lat":37.5347,"lng":-85.3021,"hometown_city":"Paducah","hometown_state":"KY"},{"name":"Derrick Martin","year":2027,"position":"WR","stars":null,"rating_247":null,"committed_to":null,"lat":31.4757,"lng":-99.3312,"hometown_city":"Lewisville","hometown_state":"TX"},{"name":"Raymond Liggins","year":2027,"position":"WR","stars":null,"rating_247":null,"committed_to":null,"lat":40.1907,"lng":-74.6728,"hometown_city":"Hightstown","hometown_state":"NJ"},{"name":"Ahmad Hudson","year":2027,"position":"TE","stars":null,"rating_247":98.0,"committed_to":"Louisiana State","lat":31.0689,"lng":-91.9968,"hometown_city":"Ruston","hometown_state":"LA"},{"name":"Jaxon Dollar","year":2027,"position":"TE","stars":null,"rating_247":98.0,"committed_to":"Georgia","lat":35.5557,"lng":-79.3877,"hometown_city":"Denver","hometown_state":"NC"},{"name":"Seneca Driver","year":2027,"position":"TE","stars":null,"rating_247":94.0,"committed_to":"Oklahoma","lat":37.5347,"lng":-85.3021,"hometown_city":"Danville","hometown_state":"KY"},{"name":"Jordan Karhoff","year":2027,"position":"TE","stars":null,"rating_247":93.0,"committed_to":"Virginia Tech","lat":40.2862,"lng":-82.7937,"hometown_city":"Columbus","hometown_state":"OH"},{"name":"Brock Williams","year":2027,"position":"TE","stars":null,"rating_247":93.0,"committed_to":"Texas","lat":40.0417,"lng":-89.1965,"hometown_city":"Libertyville","hometown_state":"IL"},{"name":"Jack Brown","year":2027,"position":"TE","stars":null,"rating_247":92.0,"committed_to":"Missouri","lat":38.3566,"lng":-92.458,"hometown_city":"St. Charles","hometown_state":"MO"},{"name":"Malik Howard","year":2027,"position":"TE","stars":null,"rating_247":90.0,"committed_to":"Tennessee","lat":35.858,"lng":-86.3505,"hometown_city":"Oak Ridge","hometown_state":"TN"},{"name":"Cooper Terwilliger","year":2027,"position":"TE","stars":null,"rating_247":90.0,"committed_to":"Penn State","lat":44.4443,"lng":-100.2263,"hometown_city":"Pierre","hometown_state":"SD"},{"name":"Titus Hawk","year":2027,"position":"TE","stars":null,"rating_247":90.0,"committed_to":"Notre Dame","lat":35.5889,"lng":-97.4943,"hometown_city":"Choctaw","hometown_state":"OK"},{"name":"George Lamons Jr.","year":2027,"position":"TE","stars":null,"rating_247":89.0,"committed_to":"Auburn","lat":32.6415,"lng":-83.4426,"hometown_city":"Quitman","hometown_state":"GA"},{"name":"D'Angelo White","year":2027,"position":"TE","stars":null,"rating_247":89.0,"committed_to":"Louisville","lat":40.2862,"lng":-82.7937,"hometown_city":"Cleveland","hometown_state":"OH"},{"name":"Sean Currie","year":2027,"position":"TE","stars":null,"rating_247":89.0,"committed_to":"Penn State","lat":40.1907,"lng":-74.6728,"hometown_city":"Lawrenceville","hometown_state":"NJ"},{"name":"Jackson Ballinger","year":2027,"position":"TE","stars":null,"rating_247":89.0,"committed_to":"Florida","lat":40.2862,"lng":-82.7937,"hometown_city":"Centerburg","hometown_state":"OH"},{"name":"Ben Hynek","year":2027,"position":"TE","stars":null,"rating_247":89.0,"committed_to":"Kansas State","lat":47.4501,"lng":-100.4659,"hometown_city":"Stanley","hometown_state":"ND"},{"name":"Grant Haviland","year":2027,"position":"TE","stars":null,"rating_247":88.0,"committed_to":"Vanderbilt","lat":32.6415,"lng":-83.4426,"hometown_city":"Alpharetta","hometown_state":"GA"},{"name":"Anthony Cartwright","year":2027,"position":"TE","stars":null,"rating_247":88.0,"committed_to":null,"lat":44.3467,"lng":-85.4102,"hometown_city":"Franklin","hometown_state":"MI"},{"name":"JT Geraci","year":2027,"position":"TE","stars":null,"rating_247":88.0,"committed_to":"Texas","lat":40.1907,"lng":-74.6728,"hometown_city":"Ramsey","hometown_state":"NJ"},{"name":"Max Patterson","year":2027,"position":"TE","stars":null,"rating_247":88.0,"committed_to":"Pittsburgh","lat":32.6415,"lng":-83.4426,"hometown_city":"Suwanee","hometown_state":"GA"},{"name":"Zac Fares","year":2027,"position":"TE","stars":null,"rating_247":88.0,"committed_to":"UCLA","lat":39.3289,"lng":-116.6312,"hometown_city":"Las Vegas","hometown_state":"NV"},{"name":"Trae Proctor","year":2027,"position":"TE","stars":null,"rating_247":87.0,"committed_to":"Kentucky","lat":28.6305,"lng":-82.4497,"hometown_city":"Plantation","hometown_state":"FL"},{"name":"Jeramie Cooper","year":2027,"position":"TE","stars":null,"rating_247":86.0,"committed_to":null,"lat":31.4757,"lng":-99.3312,"hometown_city":"Fort Worth","hometown_state":"TX"},