{"2026":[{"name":"Faizon Brandon","year":2026,"position":"QB","stars":5,"rating_247":99.0,"committed_to":"Tennessee","lat":36.0726355,"lng":-79.7919754,"hometown_city":"Greensboro","hometown_state":"NC"},{"name":"Travis Burgess","year":2026,"position":"QB","stars":4,"rating_247":95.0,"committed_to":"North Carolina","lat":33.8389977,"lng":-83.9007382,"hometown_city":"Loganville","hometown_state":"GA"},{"name":"Teddy Jarrard","year":2026,"position":"QB","stars":4,"rating_247":89.0,"committed_to":"Notre Dame","lat":34.0234337,"lng":-84.6154897,"hometown_city":"Kennesaw","hometown_state":"GA"},{"name":"Tait Reynolds","year":2026,"position":"QB","stars":3,"rating_247":88.0,"committed_to":"Clemson","lat":33.2483858,"lng":-111.6341585,"hometown_city":"Queen Creek","hometown_state":"AZ"},{"name":"Femi Babalola","year":2026,"position":"QB","stars":3,"rating_247":87.0,"committed_to":"Boston College","lat":36.0325687,"lng":-86.7825235,"hometown_city":"Brentwood","hometown_state":"TN"},{"name":"DJ Bordeaux","year":2026,"position":"QB","stars":null,"rating_247":87.0,"committed_to":"UCLA","lat":38.9972,"lng":-105.5478,"hometown_city":"Parker","hometown_state":"CO"},{"name":"Michael Clayton II","year":2026,"position":"QB","stars":null,"rating_247":86.0,"committed_to":"Illinois","lat":28.6305,"lng":-82.4497,"hometown_city":"Miami","hometown_state":"FL"},{"name":"Jayvon Gilmore","year":2026,"position":"QB","stars":3,"rating_247":86.0,"committed_to":null,"lat":35.0717945,"lng":-81.6498195,"hometown_city":"Gaffney","hometown_state":"SC"},{"name":"Brodie McWhorter","year":2026,"position":"QB","stars":null,"rating_247":86.0,"committed_to":"Mississippi State","lat":32.6415,"lng":-83.4426,"hometown_city":"White","hometown_state":"GA"},{"name":"Zaid Lott","year":2026,"position":"QB","stars":3,"rating_247":86.0,"committed_to":"Syracuse","lat":35.2272,"lng":-80.843083,"hometown_city":"Charlotte","hometown_state":"NC"},{"name":"Quinn Murphy","year":2026,"position":"QB","stars":3,"rating_247":85.0,"committed_to":"Baylor","lat":33.110156,"lng":-97.17940980147037,"hometown_city":"Argyle","hometown_state":"TX"},{"name":"Kaneal Sweetwyne","year":2026,"position":"QB","stars":3,"rating_247":85.0,"committed_to":"Colorado","lat":40.3880902,"lng":-111.8491619,"hometown_city":"Lehi","hometown_state":"UT"},{"name":"Jacob Smith","year":2026,"position":"QB","stars":3,"rating_247":84.0,"committed_to":"North Carolina State","lat":36.1526379,"lng":-80.3622753,"hometown_city":"Pfafftown","hometown_state":"NC"},{"name":"Damon Ferguson","year":2026,"position":"RB","stars":4,"rating_247":93.0,"committed_to":"Pittsburgh","lat":39.2908816,"lng":-76.610759,"hometown_city":"Baltimore","hometown_state":"MD"},{"name":"Jae Lamar","year":2026,"position":"RB","stars":4,"rating_247":91.0,"committed_to":"Georgia","lat":31.179998,"lng":-83.7887928,"hometown_city":"Moultrie","hometown_state":"GA"},{"name":"Carsyn Baker","year":2026,"position":"RB","stars":4,"rating_247":90.0,"committed_to":"Texas A&M","lat":33.5670562,"lng":-84.5810418,"hometown_city":"Fairburn","hometown_state":"GA"},{"name":"Favour Akih","year":2026,"position":"RB","stars":4,"rating_247":89.0,"committed_to":"Ohio State","lat":40.2986724,"lng":-83.067965,"hometown_city":"Delaware","hometown_state":"OH"},{"name":"Javian Mallory","year":2026,"position":"RB","stars":4,"rating_247":88.0,"committed_to":"Miami","lat":26.3586885,"lng":-80.0830984,"hometown_city":"Boca Raton","hometown_state":"FL"},{"name":"Amari Thomas","year":2026,"position":"RB","stars":4,"rating_247":88.0,"committed_to":"Florida State","lat":30.4435293,"lng":-85.0451953,"hometown_city":"Blountstown","hometown_state":"FL"},{"name":"Evan Hampton","year":2026,"position":"RB","stars":4,"rating_247":88.0,"committed_to":"Vanderbilt","lat":37.7742152,"lng":-87.1133304,"hometown_city":"Owensboro","hometown_state":"KY"},{"name":"CJ Givers","year":2026,"position":"RB","stars":3,"rating_247":88.0,"committed_to":"Duke","lat":34.02332,"lng":-84.360022,"hometown_city":"Roswell","hometown_state":"GA"},{"name":"Braydon Johnson","year":2026,"position":"RB","stars":3,"rating_247":87.0,"committed_to":null,"lat":39.3303357,"lng":-84.408275,"hometown_city":"West Chester","hometown_state":"OH"},{"name":"Ashton Rowden","year":2026,"position":"RB","stars":4,"rating_247":87.0,"committed_to":"Texas Tech","lat":33.4598415,"lng":-94.4154787,"hometown_city":"New Boston","hometown_state":"TX"},{"name":"Jayvian Tanelus","year":2026,"position":"RB","stars":3,"rating_247":86.0,"committed_to":"Duke","lat":26.1421976,"lng":-81.7942944,"hometown_city":"Naples","hometown_state":"FL"},{"name":"Jayreon Campbell","year":2026,"position":"RB","stars":3,"rating_247":86.0,"committed_to":"Indiana","lat":33.8595492,"lng":-84.683824,"hometown_city":"Powder Springs","hometown_state":"GA"},{"name":"Will Rajecki","year":2026,"position":"RB","stars":3,"rating_247":86.0,"committed_to":"Tennessee","lat":34.2367621,"lng":-84.4907621,"hometown_city":"Canton","hometown_state":"GA"},{"name":"Dylan McCoy","year":2026,"position":"RB","stars":3,"rating_247":86.0,"committed_to":"North Carolina State","lat":34.1206564,"lng":-84.0043513,"hometown_city":"Buford","hometown_state":"GA"},{"name":"Jamal Rule","year":2026,"position":"RB","stars":3,"rating_247":86.0,"committed_to":"Nebraska","lat":35.2272,"lng":-80.843083,"hometown_city":"Charlotte","hometown_state":"NC"},{"name":"Noah Moss","year":2026,"position":"RB","stars":3,"rating_247":86.0,"committed_to":"North Carolina State","lat":30.507956,"lng":-87.89742922432941,"hometown_city":"Fairhope","hometown_state":"AL"},{"name":"Kyshawn Robinson","year":2026,"position":"RB","stars":3,"rating_247":84.0,"committed_to":null,"lat":25.7742658,"lng":-80.1936589,"hometown_city":"Miami","hometown_state":"FL"},{"name":"Chris Henry Jr.","year":2026,"position":"WR","stars":5,"rating_247":98.0,"committed_to":"Ohio State","lat":33.7494951,"lng":-117.8732213,"hometown_city":"Santa Ana","hometown_state":"CA"},{"name":"Jayden Petit","year":2026,"position":"WR","stars":4,"rating_247":94.0,"committed_to":"Oklahoma","lat":26.1421976,"lng":-81.7942944,"hometown_city":"Naples","hometown_state":"FL"},{"name":"Gordon Sellars III","year":2026,"position":"WR","stars":null,"rating_247":92.0,"committed_to":"Clemson","lat":35.5557,"lng":-79.3877,"hometown_city":"Charlotte","hometown_state":"NC"},{"name":"Devin Fitzgerald","year":2026,"position":"WR","stars":4,"rating_247":92.0,"committed_to":"Notre Dame","lat":33.4484367,"lng":-112.0741417,"hometown_city":"Phoenix","hometown_state":"AZ"},{"name":"Jasen Lopez","year":2026,"position":"WR","stars":4,"rating_247":91.0,"committed_to":"Florida State","lat":25.7742658,"lng":-80.1936589,"hometown_city":"Miami","hometown_state":"FL"},{"name":"Jeffar Jean-Noel","year":2026,"position":"WR","stars":3,"rating_247":90.0,"committed_to":"Georgia Tech","lat":26.1223084,"lng":-80.1433786,"hometown_city":"Fort Lauderdale","hometown_state":"FL"},{"name":"Amare' Gough","year":2026,"position":"WR","stars":null,"rating_247":90.0,"committed_to":"Syracuse","lat":37.5215,"lng":-78.8537,"hometown_city":"Richmond","hometown_state":"VA"},{"name":"Tyreek Copper","year":2026,"position":"WR","stars":3,"rating_247":90.0,"committed_to":"North Carolina State","lat":35.2626635,"lng":-77.5816353,"hometown_city":"Kinston","hometown_state":"NC"},{"name":"Zayion Cotton","year":2026,"position":"WR","stars":4,"rating_247":90.0,"committed_to":"Mississippi State","lat":33.7690049,"lng":-89.8084192,"hometown_city":"Grenada","hometown_state":"MS"},{"name":"Davion Brown","year":2026,"position":"WR","stars":4,"rating_247":89.0,"committed_to":"Virginia Tech","lat":37.5385087,"lng":-77.43428,"hometown_city":"Richmond","hometown_state":"VA"},{"name":"Devin Carter","year":2026,"position":"WR","stars":4,"rating_247":89.0,"committed_to":"Florida State","lat":33.7514966,"lng":-84.7477136,"hometown_city":"Douglasville","hometown_state":"GA"},{"name":"Tayveon Wilson","year":2026,"position":"WR","stars":3,"rating_247":89.0,"committed_to":"Clemson","lat":38.4192496,"lng":-82.445154,"hometown_city":"Huntington","hometown_state":"WV"},{"name":"Dallas Dickerson","year":2026,"position":"WR","stars":3,"rating_247":89.0,"committed_to":"Georgia","lat":33.949281,"lng":-83.534608,"hometown_city":"Bogart","hometown_state":"GA"},{"name":"Amiri Acker","year":2026,"position":"WR","stars":null,"rating_247":89.0,"committed_to":"North Carolina State","lat":33.9169,"lng":-80.8964,"hometown_city":"Iva","hometown_state":"SC"},{"name":"Jabari Brady","year":2026,"position":"WR","stars":3,"rating_247":88.0,"committed_to":"Missouri","lat":26.2378597,"lng":-80.1247667,"hometown_city":"Pompano Beach","hometown_state":"FL"},{"name":"Nate Agyemang","year":2026,"position":"WR","stars":null,"rating_247":88.0,"committed_to":"Georgia Tech","lat":32.6415,"lng":-83.4426,"hometown_city":"Marietta","hometown_state":"GA"},{"name":"Josiah Teasley","year":2026,"position":"WR","stars":3,"rating_247":88.0,"committed_to":"Maryland","lat":38.7890522,"lng":-77.1870368,"hometown_city":"Springfield","hometown_state":"VA"},{"name":"Tyran Evans","year":2026,"position":"WR","stars":3,"rating_247":87.0,"committed_to":"Miami","lat":35.4817982,"lng":-80.8589501,"hometown_city":"Cornelius","hometown_state":"NC"},{"name":"Xavier Stinson","year":2026,"position":"WR","stars":3,"rating_247":87.0,"committed_to":"Iowa","lat":27.6387163,"lng":-80.3975399,"hometown_city":"Vero Beach","hometown_state":"FL"},{"name":"Jardon Stringer","year":2026,"position":"WR","stars":3,"rating_247":87.0,"committed_to":null,"lat":33.039291,"lng":-85.0313269,"hometown_city":"LaGrange","hometown_state":"GA"},{"name":"Dawson Quarterman","year":2026,"position":"WR","stars":3,"rating_247":87.0,"committed_to":"East Carolina","lat":33.8389977,"lng":-83.9007382,"hometown_city":"Loganville","hometown_state":"GA"},{"name":"Jojo Johnson","year":2026,"position":"WR","stars":3,"rating_247":87.0,"committed_to":"Purdue","lat":37.5385087,"lng":-77.43428,"hometown_city":"Richmond","hometown_state":"VA"},{"name":"Jayden Griffin-Haynes","year":2026,"position":"WR","stars":3,"rating_247":87.0,"committed_to":"North Carolina","lat":35.9232862,"lng":-78.4573914,"hometown_city":"Rolesville","hometown_state":"NC"},{"name":"Brian Williams Jr.","year":2026,"position":"WR","stars":3,"rating_247":86.0,"committed_to":"Auburn","lat":28.5421109,"lng":-81.3790304,"hometown_city":"Orlando","hometown_state":"FL"},{"name":"Denairius Gray","year":2026,"position":"WR","stars":3,"rating_247":86.0,"committed_to":"Kentucky","lat":26.0112014,"lng":-80.1494901,"hometown_city":"Hollywood","hometown_state":"FL"},{"name":"Demetrice McCray","year":2026,"position":"WR","stars":3,"rating_247":86.0,"committed_to":"Pittsburgh","lat":28.5421109,"lng":-81.3790304,"hometown_city":"Orlando","hometown_state":"FL"},{"name":"Brody Keefe","year":2026,"position":"WR","stars":3,"rating_247":86.0,"committed_to":"Duke","lat":35.2272,"lng":-80.843083,"hometown_city":"Charlotte","hometown_state":"NC"},{"name":"Aiden Smalls","year":2026,"position":"WR","stars":3,"rating_247":86.0,"committed_to":"North Carolina State","lat":35.650711,"lng":-78.4563914,"hometown_city":"Clayton","hometown_state":"NC"},{"name":"Jaire Richburg","year":2026,"position":"WR","stars":3,"rating_247":86.0,"committed_to":"North Carolina State","lat":36.1198589,"lng":-80.0736533,"hometown_city":"Kernersville","hometown_state":"NC"},{"name":"Quinn Martinez","year":2026,"position":"WR","stars":3,"rating_247":83.0,"committed_to":null,"lat":37.7986184,"lng":-121.2117148,"hometown_city":"Manteca","hometown_state":"CA"},{"name":"Marcus Adam Carter Jr.","year":2026,"position":"WR","stars":null,"rating_247":null,"committed_to":null,"lat":32.6415,"lng":-83.4426,"hometown_city":"Douglasville","hometown_state":"GA"},{"name":"Damarius Higgs","year":2026,"position":"WR","stars":null,"rating_247":null,"committed_to":null,"lat":28.6305,"lng":-82.4497,"hometown_city":"Hollywood","hometown_state":"FL"},{"name":"Deronte Broughton","year":2026,"position":"WR","stars":null,"rating_247":null,"committed_to":null,"lat":32.6415,"lng":-83.4426,"hometown_city":"Buford","hometown_state":"GA"},{"name":"Mack Sutter","year":2026,"position":"TE","stars":4,"rating_247":96.0,"committed_to":"Alabama","lat":40.8616513,"lng":-89.6777665,"hometown_city":"Dunlap","hometown_state":"IL"},{"name":"Gavin Mueller","year":2026,"position":"TE","stars":4,"rating_247":94.0,"committed_to":"Miami","lat":41.9941938,"lng":-88.2922996,"hometown_city":"South Elgin","hometown_state":"IL"},{"name":"Javonte Williams","year":2026,"position":"TE","stars":3,"rating_247":89.0,"committed_to":"Maryland","lat":39.1731621,"lng":-77.2716502,"hometown_city":"Germantown","hometown_state":"MD"},{"name":"Khalid Worthy","year":2026,"position":"TE","stars":3,"rating_247":88.0,"committed_to":null,"lat":33.7490987,"lng":-84.3901849,"hometown_city":"Atlanta","hometown_state":"GA"},{"name":"Corbyn Fordham","year":2026,"position":"TE","stars":3,"rating_247":88.0,"committed_to":"Florida State","lat":30.3321838,"lng":-81.655651,"hometown_city":"Jacksonville","hometown_state":"FL"},{"name":"Lincoln Watkins","year":2026,"position":"TE","stars":3,"rating_247":88.0,"committed_to":"Kentucky","lat":42.9815877,"lng":-82.440466,"hometown_city":"Port Huron","hometown_state":"MI"},{"name":"Tex Vaughn","year":2026,"position":"TE","stars":null,"rating_247":88.0,"committed_to":"North Carolina State","lat":35.5557,"lng":-79.3877,"hometown_city":"Kings Mountain","hometown_state":"NC"},{"name":"Landen Miree","year":2026,"position":"TE","stars":3,"rating_247":87.0,"committed_to":"Arizona State","lat":39.1014537,"lng":-84.5124602,"hometown_city":"Cincinnati","hometown_state":"OH"},{"name":"DJ Howerton","year":2026,"position":"TE","stars":3,"rating_247":87.0,"committed_to":"Rutgers","lat":36.0726355,"lng":-79.7919754,"hometown_city":"Greensboro","hometown_state":"NC"},{"name":"PJ MacFarlane","year":2026,"position":"TE","stars":3,"rating_247":87.0,"committed_to":"Indiana","lat":39.5150576,"lng":-84.3982763,"hometown_city":"Middletown","hometown_state":"OH"},{"name":"Dream Rashad","year":2026,"position":"TE","stars":3,"rating_247":86.0,"committed_to":"North Carolina","lat":33.9562149,"lng":-83.9879625,"hometown_city":"Lawrenceville","hometown_state":"GA"},{"name":"Cooper McCutchan","year":2026,"position":"TE","stars":3,"rating_247":86.0,"committed_to":"Purdue","lat":39.1014537,"lng":-84.5124602,"hometown_city":"Cincinnati","hometown_state":"OH"},{"name":"Marcus Monroe","year":2026,"position":"TE","stars":3,"rating_247":86.0,"committed_to":"Stanford","lat":35.7803977,"lng":-78.6390989,"hometown_city":"Raleigh","hometown_state":"NC"},{"name":"Calerbe Hermane","year":2026,"position":"TE","stars":null,"rating_247":null,"committed_to":"Murray State","lat":28.6305,"lng":-82.4497,"hometown_city":"Boca Raton","hometown_state":"FL"},{"name":"Darius Gray","year":2026,"position":"OT","stars":4,"rating_247":98.0,"committed_to":"South Carolina","lat":37.5385087,"lng":-77.43428,"hometown_city":"Richmond","hometown_state":"VA"},{"name":"Ekene Ogboko","year":2026,"position":"OT","stars":5,"rating_247":96.0,"committed_to":"Georgia","lat":35.996653,"lng":-78.9018053,"hometown_city":"Durham","hometown_state":"NC"},{"name":"PJ Dean","year":2026,"position":"OT","stars":null,"rating_247":95.0,"committed_to":"Georgia","lat":35.5557,"lng":-79.3877,"hometown_city":"Clemmons","hometown_state":"NC"},{"name":"Kamari Blair","year":2026,"position":"OT","stars":4,"rating_247":95.0,"committed_to":"Tennessee","lat":36.5277607,"lng":-87.3588703,"hometown_city":"Clarksville","hometown_state":"TN"},{"name":"Grayson McKeogh","year":2026,"position":"OT","stars":4,"rating_247":93.0,"committed_to":"Notre Dame","lat":40.1023326,"lng":-75.1521195,"hometown_city":"Glenside","hometown_state":"PA"},{"name":"Claude Mpouma","year":2026,"position":"OT","stars":4,"rating_247":93.0,"committed_to":"Nebraska","lat":41.8755616,"lng":-87.6244212,"hometown_city":"Chicago","hometown_state":"IL"},{"name":"Ben Congdon","year":2026,"position":"OT","stars":null,"rating_247":93.0,"committed_to":"Miami","lat":40.2862,"lng":-82.7937,"hometown_city":"Mineral City","hometown_state":"OH"},{"name":"Zyon Guiles","year":2026,"position":"OT","stars":4,"rating_247":93.0,"committed_to":"South Carolina","lat":33.7537774,"lng":-79.4475566,"hometown_city":"Hemingway","hometown_state":"SC"},{"name":"Mataalii Benjamin","year":2026,"position":"OT","stars":4,"rating_247":92.0,"committed_to":"Utah","lat":40.3880902,"lng":-111.8491619,"hometown_city":"Lehi","hometown_state":"UT"},{"name":"Joel Ervin","year":2026,"position":"OT","stars":4,"rating_247":92.0,"committed_to":"Miami","lat":26.640628,"lng":-81.8723084,"hometown_city":"Fort Myers","hometown_state":"FL"},{"name":"Carter Scruggs","year":2026,"position":"OT","stars":4,"rating_247":90.0,"committed_to":"Clemson","lat":39.1154496,"lng":-77.5645446,"hometown_city":"Leesburg","hometown_state":"VA"},{"name":"Adam Guthrie","year":2026,"position":"OT","stars":4,"rating_247":89.0,"committed_to":"Clemson","lat":39.5364511,"lng":-83.4390843,"hometown_city":"Washington Court House","hometown_state":"OH"},{"name":"Oliver Miller","year":2026,"position":"OT","stars":3,"rating_247":89.0,"committed_to":"Kansas State","lat":39.6482059,"lng":-104.9879641,"hometown_city":"Englewood","hometown_state":"CO"},{"name":"Da'Ron Parks","year":2026,"position":"OT","stars":4,"rating_247":88.0,"committed_to":"North Carolina","lat":38.417919499999996,"lng":-81.84361448523134,"hometown_city":"Nitro","hometown_state":"WV"},{"name":"Khalief Canty Jr.","year":2026,"position":"OT","stars":null,"rating_247":88.0,"committed_to":"Missouri","lat":44.3467,"lng":-85.4102,"hometown_city":"Detroit","hometown_state":"MI"},{"name":"J.B. Shabazz","year":2026,"position":"OT","stars":4,"rating_247":88.0,"committed_to":"North Carolina","lat":36.1198589,"lng":-80.0736533,"hometown_city":"Kernersville","hometown_state":"NC"},{"name":"Buddy Wegdam","year":2026,"position":"OT","stars":3,"rating_247":88.0,"committed_to":"Virginia Tech","lat":35.1668118,"lng":-80.7514585,"hometown_city":"Woodberry Forest","hometown_state":"VA"},{"name":"TJ Taylor","year":2026,"position":"OT","stars":null,"rating_247":88.0,"committed_to":"Illinois","lat":37.1841,"lng":-119.4696,"hometown_city":"Valencia","hometown_state":"CA"},{"name":"Maddox Cochrane","year":2026,"position":"OT","stars":3,"rating_247":87.0,"committed_to":"Virginia Tech","lat":37.5385087,"lng":-77.43428,"hometown_city":"Richmond","hometown_state":"VA"},{"name":"Landry Brede","year":2026,"position":"OT","stars":3,"rating_247":87.0,"committed_to":"Ohio State","lat":41.6661573,"lng":-81.339552,"hometown_city":"Mentor","hometown_state":"OH"},{"name":"Brody Smith","year":2026,"position":"OT","stars":3,"rating_247":86.0,"committed_to":"North Carolina State","lat":35.7564719,"lng":-83.9704593,"hometown_city":"Maryville","hometown_state":"TN"},{"name":"Siosaia Lapuaho","year":2026,"position":"OT","stars":null,"rating_247":86.0,"committed_to":"Arizona State","lat":38.4937,"lng":-98.3804,"hometown_city":"Garden City","hometown_state":"KS"},{"name":"Bear McWhorter","year":2026,"position":"OT","stars":null,"rating_247":85.0,"committed_to":"Auburn","lat":32.6415,"lng":-83.4426,"hometown_city":"White","hometown_state":"GA"},{"name":"Brady Sakowitz","year":2026,"position":"OT","stars":3,"rating_247":85.0,"committed_to":"North Carolina State","lat":37.5385087,"lng":-77.43428,"hometown_city":"Richmond","hometown_state":"VA"},{"name":"Luke Grover","year":2026,"position":"OT","stars":3,"rating_247":85.0,"committed_to":"Cincinnati","lat":40.1983958,"lng":-83.0101843,"hometown_city":"Lewis Center","hometown_state":"OH"},{"name":"Tre Aiken","year":2026,"position":"OT","stars":3,"rating_247":85.0,"committed_to":"North Carolina State","lat":34.4726277,"lng":-81.8806562,"hometown_city":"Clinton","hometown_state":"SC"},{"name":"Kai Pritchard","year":2026,"position":"IOL","stars":4,"rating_247":91.0,"committed_to":"Illinois","lat":39.9537359,"lng":-74.1979576,"hometown_city":"Toms River","hometown_state":"NJ"},{"name":"Tyreek Jemison","year":2026,"position":"IOL","stars":4,"rating_247":91.0,"committed_to":"Georgia","lat":33.9237141,"lng":-84.8407732,"hometown_city":"Dallas","hometown_state":"GA"},{"name":"Gene Riordan","year":2026,"position":"IOL","stars":4,"rating_247":90.0,"committed_to":"Iowa","lat":41.794528,"lng":-87.92761808245767,"hometown_city":"Hinsdale","hometown_state":"IL"},{"name":"Zykie Helton","year":2026,"position":"IOL","stars":3,"rating_247":90.0,"committed_to":"Georgia","lat":33.5801103,"lng":-85.0766113,"hometown_city":"Carrollton","hometown_state":"GA"},{"name":"Leo Delaney","year":2026,"position":"IOL","stars":4,"rating_247":89.0,"committed_to":"Clemson","lat":35.2272,"lng":-80.843083,"hometown_city":"Charlotte","hometown_state":"NC"},{"name":"Brandon Anderson","year":2026,"position":"IOL","stars":3,"rating_247":89.0,"committed_to":"Missouri","lat":34.0234337,"lng":-84.6154897,"hometown_city":"Kennesaw","hometown_state":"GA"},{"name":"Tyler Chukuyem","year":2026,"position":"IOL","stars":4,"rating_247":89.0,"committed_to":"Florida","lat":33.7514966,"lng":-84.7477136,"hometown_city":"Douglasville","hometown_state":"GA"},{"name":"Ed Baker","year":2026,"position":"IOL","stars":null,"rating_247":88.0,"committed_to":"Tennessee","lat":39.055,"lng":-76.7909,"hometown_city":"Baltimore","hometown_state":"MD"},{"name":"Canon Pickett","year":2026,"position":"IOL","stars":3,"rating_247":87.0,"committed_to":"Miami","lat":27.9477595,"lng":-82.458444,"hometown_city":"Tampa","hometown_state":"FL"},{"name":"Desmond Green","year":2026,"position":"IOL","stars":3,"rating_247":87.0,"committed_to":"Florida","lat":33.406361000000004,"lng":-79.92930142942461,"hometown_city":"St. Stephen","hometown_state":"SC"},{"name":"Hayden Ainsworth","year":2026,"position":"IOL","stars":3,"rating_247":87.0,"committed_to":"Nebraska","lat":30.374673,"lng":-88.84594333482862,"hometown_city":"Biloxi","hometown_state":"MS"},{"name":"Maika Matelau","year":2026,"position":"IOL","stars":null,"rating_247":87.0,"committed_to":"Illinois","lat":37.1841,"lng":-119.4696,"hometown_city":"Walnut","hometown_state":"CA"},{"name":"George Williams-Haseotes","year":2026,"position":"IOL","stars":null,"rating_247":86.0,"committed_to":"Vanderbilt","lat":28.6305,"lng":-82.4497,"hometown_city":"Naples","hometown_state":"FL"},{"name":"Cam'Ron Thompson","year":2026,"position":"IOL","stars":3,"rating_247":86.0,"committed_to":"South Alabama","lat":30.6255617,"lng":-84.4153769,"hometown_city":"Havana","hometown_state":"FL"},{"name":"Brendan Alexander","year":2026,"position":"IOL","stars":3,"rating_247":85.0,"committed_to":"Northern Illinois","lat":40.6872885,"lng":-80.2714505,"hometown_city":"Monaca","hometown_state":"PA"},{"name":"Camden Goforth","year":2026,"position":"IOL","stars":3,"rating_247":85.0,"committed_to":"West Virginia","lat":35.4428864,"lng":-84.5930113,"hometown_city":"Athens","hometown_state":"TN"},{"name":"Langston Hogg","year":2026,"position":"IOL","stars":3,"rating_247":84.0,"committed_to":"Wake Forest","lat":34.1650972,"lng":-84.7999383,"hometown_city":"Cartersville","hometown_state":"GA"},{"name":"William Hathcock","year":2026,"position":"IOL","stars":null,"rating_247":84.0,"committed_to":"Jacksonville State","lat":28.6305,"lng":-82.4497,"hometown_city":"Perry","hometown_state":"FL"},{"name":"Steven Pickard Jr.","year":2026,"position":"IOL","stars":null,"rating_247":83.0,"committed_to":"Florida State","lat":28.6305,"lng":-82.4497,"hometown_city":"Bradenton","hometown_state":"FL"},{"name":"Vern Faulk","year":2026,"position":"IOL","stars":3,"rating_247":83.0,"committed_to":"Jacksonville State","lat":30.1174351,"lng":-83.5818147,"hometown_city":"Perry","hometown_state":"FL"},{"name":"Jordan Davis","year":2026,"position":"IOL","stars":3,"rating_247":82.0,"committed_to":"Florida A&M","lat":26.0112014,"lng":-80.1494901,"hometown_city":"Hollywood","hometown_state":"FL"},{"name":"Rodney Dunham","year":2026,"position":"Edge","stars":5,"rating_247":98.0,"committed_to":"Notre Dame","lat":35.2272,"lng":-80.843083,"hometown_city":"Charlotte","hometown_state":"NC"},{"name":"Julian Walker","year":2026,"position":"Edge","stars":4,"rating_247":97.0,"committed_to":"South Carolina","lat":34.08846885,"lng":-81.18021121302588,"hometown_city":"Irmo","hometown_state":"SC"},{"name":"Asharri Charles","year":2026,"position":"Edge","stars":4,"rating_247":95.0,"committed_to":"Miami","lat":27.0999188,"lng":-82.4543597,"hometown_city":"Venice","hometown_state":"FL"},{"name":"Ebenezer Ewetade","year":2026,"position":"Edge","stars":4,"rating_247":93.0,"committed_to":"Notre Dame","lat":35.7112642,"lng":-78.6141709,"hometown_city":"Garner","hometown_state":"NC"},{"name":"Zach Groves","year":2026,"position":"Edge","stars":4,"rating_247":92.0,"committed_to":"Tennessee","lat":36.5486597,"lng":-86.6961102,"hometown_city":"Cross Plains","hometown_state":"TN"},{"name":"Breeze Carter","year":2026,"position":"Edge","stars":null,"rating_247":91.0,"committed_to":"Tennessee","lat":32.6415,"lng":-83.4426,"hometown_city":"Douglasville","hometown_state":"GA"},{"name":"Elijah Littlejohn","year":2026,"position":"Edge","stars":4,"rating_247":90.0,"committed_to":"Georgia","lat":35.2272,"lng":-80.843083,"hometown_city":"Charlotte","hometown_state":"NC"},{"name":"Zavion Griffin-Haynes","year":2026,"position":"Edge","stars":3,"rating_247":89.0,"committed_to":"North Carolina","lat":35.9232862,"lng":-78.4573914,"hometown_city":"Rolesville","hometown_state":"NC"},{"name":"Jace McCallum","year":2026,"position":"Edge","stars":3,"rating_247":89.0,"committed_to":"Vanderbilt","lat":35.3262523,"lng":-80.6446563,"hometown_city":"Harrisburg","hometown_state":"NC"},{"name":"CJ Edwards","year":2026,"position":"Edge","stars":3,"rating_247":89.0,"committed_to":"Tennessee","lat":40.5431598,"lng":-74.3632049,"hometown_city":"Metuchen","hometown_state":"NJ"},{"name":"Cam Brooks","year":2026,"position":"Edge","stars":3,"rating_247":88.0,"committed_to":"Florida State","lat":30.8365815,"lng":-83.9787808,"hometown_city":"Thomasville","hometown_state":"GA"},{"name":"Keysaun Eleazer","year":2026,"position":"Edge","stars":3,"rating_247":88.0,"committed_to":"Stanford","lat":35.7803977,"lng":-78.6390989,"hometown_city":"Raleigh","hometown_state":"NC"},{"name":"Josh Warren Jr.","year":2026,"position":"Edge","stars":null,"rating_247":88.0,"committed_to":"North Carolina State","lat":32.6415,"lng":-83.4426,"hometown_city":"Milledgeville","hometown_state":"GA"},{"name":"Katrell Webb","year":2026,"position":"Edge","stars":3,"rating_247":87.0,"committed_to":"Purdue","lat":34.0514898,"lng":-84.0712997,"hometown_city":"Suwanee","hometown_state":"GA"},{"name":"Ben Mubenga","year":2026,"position":"Edge","stars":3,"rating_247":86.0,"committed_to":"Arkansas","lat":34.1206564,"lng":-84.0043513,"hometown_city":"Buford","hometown_state":"GA"},{"name":"Elijah Satchell","year":2026,"position":"Edge","stars":3,"rating_247":86.0,"committed_to":"North Carolina State","lat":39.9448402,"lng":-75.1198911,"hometown_city":"Camden","hometown_state":"NJ"},{"name":"Jacquey Ferguson Jr.","year":2026,"position":"Edge","stars":3,"rating_247":85.0,"committed_to":"North Carolina State","lat":27.7703796,"lng":-82.6695085,"hometown_city":"St. Petersburg","hometown_state":"FL"},{"name":"Lawrence Brown Jr.","year":2026,"position":"Edge","stars":null,"rating_247":85.0,"committed_to":"North Carolina State","lat":32.6415,"lng":-83.4426,"hometown_city":"Loganville","hometown_state":"GA"},{"name":"Colin Bussey","year":2026,"position":"Edge","stars":3,"rating_247":85.0,"committed_to":"Charlotte","lat":33.7514966,"lng":-84.7477136,"hometown_city":"Douglasville","hometown_state":"GA"},{"name":"Aiden Anderson","year":2026,"position":"Edge","stars":3,"rating_247":83.0,"committed_to":"Buffalo","lat":28.5421109,"lng":-81.3790304,"hometown_city":"Orlando","hometown_state":"FL"},{"name":"Srlondo Whiley","year":2026,"position":"Edge","stars":3,"rating_247":82.0,"committed_to":"West Florida","lat":28.5421109,"lng":-81.3790304,"hometown_city":"Orlando","hometown_state":"FL"},{"name":"Deuce Geralds","year":2026,"position":"DL","stars":4,"rating_247":96.0,"committed_to":"Louisiana State","lat":34.0514898,"lng":-84.0712997,"hometown_city":"Suwanee","hometown_state":"GA"},{"name":"Aiden Harris","year":2026,"position":"DL","stars":4,"rating_247":95.0,"committed_to":"South Carolina","lat":35.1170873,"lng":-80.723718,"hometown_city":"Matthews","hometown_state":"NC"},{"name":"Keshawn Stancil","year":2026,"position":"DL","stars":4,"rating_247":95.0,"committed_to":"Miami","lat":35.650711,"lng":-78.4563914,"hometown_city":"Clayton","hometown_state":"NC"},{"name":"Noah Clark","year":2026,"position":"DL","stars":4,"rating_247":94.0,"committed_to":"South Carolina","lat":35.996653,"lng":-78.9018053,"hometown_city":"Durham","hometown_state":"NC"},{"name":"James Johnson","year":2026,"position":"DL","stars":4,"rating_247":93.0,"committed_to":"Texas","lat":25.7742658,"lng":-80.1936589,"hometown_city":"Miami","hometown_state":"FL"},{"name":"Elijah Golden","year":2026,"position":"DL","stars":4,"rating_247":92.0,"committed_to":"Notre Dame","lat":27.3364347,"lng":-82.5306527,"hometown_city":"Sarasota","hometown_state":"FL"},{"name":"Kendall Guervil","year":2026,"position":"DL","stars":4,"rating_247":91.0,"committed_to":"Florida","lat":26.640628,"lng":-81.8723084,"hometown_city":"Fort Myers","hometown_state":"FL"},{"name":"Trashawn Ruffin","year":2026,"position":"DL","stars":null,"rating_247":90.0,"committed_to":"North Carolina","lat":35.5557,"lng":-79.3877,"hometown_city":"Mt. Olive","hometown_state":"NC"},{"name":"Djidjou Bah","year":2026,"position":"DL","stars":3,"rating_247":90.0,"committed_to":"Wisconsin","lat":35.0867577,"lng":-89.8100858,"hometown_city":"Germantown","hometown_state":"TN"},{"name":"Isaac Chukwurah","year":2026,"position":"DL","stars":3,"rating_247":90.0,"committed_to":"Miami","lat":39.6292788,"lng":-75.6582628,"hometown_city":"Bear","hometown_state":"DE"},{"name":"Kamron Wilson","year":2026,"position":"DL","stars":3,"rating_247":89.0,"committed_to":"Syracuse","lat":25.7742658,"lng":-80.1936589,"hometown_city":"Miami","hometown_state":"FL"},{"name":"Carter Luckie","year":2026,"position":"DL","stars":4,"rating_247":89.0,"committed_to":"Georgia","lat":33.9412127,"lng":-84.2135309,"hometown_city":"Norcross","hometown_state":"GA"},{"name":"AJ Lonon Jr.","year":2026,"position":"DL","stars":null,"rating_247":89.0,"committed_to":"Georgia","lat":32.6415,"lng":-83.4426,"hometown_city":"Athens","hometown_state":"GA"},{"name":"Damaad Lewis","year":2026,"position":"DL","stars":3,"rating_247":89.0,"committed_to":"North Carolina State","lat":35.2272,"lng":-80.843083,"hometown_city":"Charlotte","hometown_state":"NC"},{"name":"Tico Crittendon Jr.","year":2026,"position":"DL","stars":null,"rating_247":89.0,"committed_to":"Mississippi State","lat":32.6415,"lng":-83.4426,"hometown_city":"Lithonia","hometown_state":"GA"},{"name":"Logan Nagle","year":2026,"position":"DL","stars":3,"rating_247":89.0,"committed_to":"Miami","lat":40.9491723,"lng":-74.2376802,"hometown_city":"Wayne","hometown_state":"NJ"},{"name":"G'Nivre Carr","year":2026,"position":"DL","stars":3,"rating_247":88.0,"committed_to":"Florida","lat":27.4989278,"lng":-82.5748194,"hometown_city":"Bradenton","hometown_state":"FL"},{"name":"Preston Carey","year":2026,"position":"DL","stars":3,"rating_247":88.0,"committed_to":"Georgia","lat":27.4989278,"lng":-82.5748194,"hometown_city":"Bradenton","hometown_state":"FL"},{"name":"JaMarcus Whyce","year":2026,"position":"DL","stars":3,"rating_247":88.0,"committed_to":"Maryland","lat":39.7589478,"lng":-84.1916069,"hometown_city":"Dayton","hometown_state":"OH"},{"name":"James Carrington","year":2026,"position":"DL","stars":3,"rating_247":87.0,"committed_to":"Oklahoma","lat":33.6856969,"lng":-117.8259819,"hometown_city":"Irvine","hometown_state":"CA"},{"name":"Brian Harris","year":2026,"position":"DL","stars":3,"rating_247":87.0,"committed_to":"Oklahoma","lat":27.3027501,"lng":-80.4026589,"hometown_city":"St. Johns","hometown_state":"FL"},{"name":"Freddie Wilson","year":2026,"position":"DL","stars":3,"rating_247":86.0,"committed_to":"Georgia State","lat":29.101628050000002,"lng":-81.01059617608054,"hometown_city":"Port Orange","hometown_state":"FL"},{"name":"Jordan Woods","year":2026,"position":"DL","stars":3,"rating_247":86.0,"committed_to":"Georgia Tech","lat":33.5862149,"lng":-86.2860888,"hometown_city":"Pell City","hometown_state":"AL"},{"name":"Jowhar Franklin","year":2026,"position":"DL","stars":null,"rating_247":86.0,"committed_to":null,"lat":38.4937,"lng":-98.3804,"hometown_city":"Dodge City","hometown_state":"KS"},{"name":"Carmelo McKenzie","year":2026,"position":"DL","stars":3,"rating_247":85.0,"committed_to":"North Carolina State","lat":27.4989278,"lng":-82.5748194,"hometown_city":"Bradenton","hometown_state":"FL"},{"name":"Kendall Roseberry","year":2026,"position":"DL","stars":3,"rating_247":85.0,"committed_to":"Troy","lat":33.6676103,"lng":-84.0176904,"hometown_city":"Conyers","hometown_state":"GA"},{"name":"Kaden Briggs","year":2026,"position":"DL","stars":null,"rating_247":85.0,"committed_to":null,"lat":32.7364,"lng":-89.6678,"hometown_city":"Goodman","hometown_state":"MS"},{"name":"Tyler Atkinson","year":2026,"position":"LB","stars":5,"rating_247":97.0,"committed_to":"Texas","lat":33.8389977,"lng":-83.9007382,"hometown_city":"Loganville","hometown_state":"GA"},{"name":"Jordan Campbell","year":2026,"position":"LB","stars":4,"rating_247":93.0,"committed_to":"Miami","lat":25.896733849999997,"lng":-80.25949640850294,"hometown_city":"Opa Locka","hometown_state":"FL"},{"name":"Thomas Davis Jr.","year":2026,"position":"LB","stars":4,"rating_247":90.0,"committed_to":"Notre Dame","lat":35.1170873,"lng":-80.723718,"hometown_city":"Matthews","hometown_state":"NC"},{"name":"Nick Abrams II","year":2026,"position":"LB","stars":4,"rating_247":90.0,"committed_to":"Georgia","lat":39.4010753,"lng":-76.796299,"hometown_city":"Owings Mills","hometown_state":"MD"},{"name":"CJ Sanna","year":2026,"position":"LB","stars":4,"rating_247":90.0,"committed_to":"Ohio State","lat":40.1983958,"lng":-83.0101843,"hometown_city":"Lewis Center","hometown_state":"OH"},{"name":"Malik Morris","year":2026,"position":"LB","stars":4,"rating_247":89.0,"committed_to":"Florida","lat":28.0394654,"lng":-81.9498042,"hometown_city":"Lakeland","hometown_state":"FL"},{"name":"Andrew Harris","year":2026,"position":"LB","stars":4,"rating_247":89.0,"committed_to":"South Carolina","lat":35.1170873,"lng":-80.723718,"hometown_city":"Matthews","hometown_state":"NC"},{"name":"Kedric Golston II","year":2026,"position":"LB","stars":4,"rating_247":89.0,"committed_to":"Tennessee","lat":39.0437192,"lng":-77.4874899,"hometown_city":"Ashburn","hometown_state":"VA"},{"name":"Ziggy Moore","year":2026,"position":"LB","stars":null,"rating_247":89.0,"committed_to":"North Carolina State","lat":40.8781,"lng":-77.7996,"hometown_city":"Pittsburgh","hometown_state":"PA"},{"name":"Ant Davis","year":2026,"position":"LB","stars":null,"rating_247":88.0,"committed_to":"Mississippi","lat":32.6415,"lng":-83.4426,"hometown_city":"Loganville","hometown_state":"GA"},{"name":"Ja'Michael Garrett","year":2026,"position":"LB","stars":null,"rating_247":88.0,"committed_to":"Mississippi","lat":31.0689,"lng":-91.9968,"hometown_city":"Baton Rouge","hometown_state":"LA"},{"name":"Cameron Thomas","year":2026,"position":"LB","stars":null,"rating_247":88.0,"committed_to":"Illinois","lat":40.2862,"lng":-82.7937,"hometown_city":"West Chester","hometown_state":"OH"},{"name":"Kaden Carter","year":2026,"position":"LB","stars":3,"rating_247":88.0,"committed_to":"Maryland","lat":33.0545709,"lng":-84.1557496,"hometown_city":"Barnesville","hometown_state":"GA"},{"name":"Desmond Johnson","year":2026,"position":"LB","stars":3,"rating_247":87.0,"committed_to":"Pittsburgh","lat":25.7742658,"lng":-80.1936589,"hometown_city":"Miami","hometown_state":"FL"},{"name":"Adam Balogoun-Ali","year":2026,"position":"LB","stars":4,"rating_247":87.0,"committed_to":"Auburn","lat":26.715364,"lng":-80.0532942,"hometown_city":"West Palm Beach","hometown_state":"FL"},{"name":"Josh Pittman","year":2026,"position":"LB","stars":null,"rating_247":87.0,"committed_to":"Pittsburgh","lat":37.5215,"lng":-78.8537,"hometown_city":"Suffolk","hometown_state":"VA"},{"name":"Karon Maycock","year":2026,"position":"LB","stars":3,"rating_247":86.0,"committed_to":"Florida State","lat":25.7742658,"lng":-80.1936589,"hometown_city":"Miami","hometown_state":"FL"},{"name":"Chad Fairchild","year":2026,"position":"LB","stars":3,"rating_247":86.0,"committed_to":"East Carolina","lat":33.3870578,"lng":-84.2829784,"hometown_city":"Hampton","hometown_state":"GA"},{"name":"Jordan Moreta","year":2026,"position":"LB","stars":3,"rating_247":86.0,"committed_to":"North Carolina State","lat":40.9452911,"lng":-74.0735899,"hometown_city":"Paramus","hometown_state":"NJ"},{"name":"Bryce Robinson","year":2026,"position":"LB","stars":3,"rating_247":86.0,"committed_to":"Nevada, Las Vegas","lat":33.9528472,"lng":-84.5496148,"hometown_city":"Marietta","hometown_state":"GA"},{"name":"Charles Belser","year":2026,"position":"LB","stars":3,"rating_247":85.0,"committed_to":null,"lat":39.9527237,"lng":-75.1635262,"hometown_city":"Philadelphia","hometown_state":"PA"},{"name":"Caleb Gordon","year":2026,"position":"LB","stars":3,"rating_247":85.0,"committed_to":"North Carolina State","lat":35.2622158,"lng":-81.1838794,"hometown_city":"Gastonia","hometown_state":"NC"},{"name":"Danny Odem III","year":2026,"position":"CB","stars":null,"rating_247":98.0,"committed_to":"Nebraska","lat":28.6305,"lng":-82.4497,"hometown_city":"Orlando","hometown_state":"FL"},{"name":"Jorden Edmonds","year":2026,"position":"CB","stars":5,"rating_247":98.0,"committed_to":"Alabama","lat":33.9528472,"lng":-84.5496148,"hometown_city":"Marietta","hometown_state":"GA"},{"name":"Khary Adams","year":2026,"position":"CB","stars":5,"rating_247":97.0,"committed_to":"Notre Dame","lat":39.4018552,"lng":-76.602388,"hometown_city":"Towson","hometown_state":"MD"},{"name":"J'Zavien Currence","year":2026,"position":"CB","stars":4,"rating_247":96.0,"committed_to":"South Carolina","lat":34.9248667,"lng":-81.0250784,"hometown_city":"Rock Hill","hometown_state":"SC"},{"name":"Camdin Portis","year":2026,"position":"CB","stars":4,"rating_247":94.0,"committed_to":"Miami","lat":35.2272,"lng":-80.843083,"hometown_city":"Charlotte","hometown_state":"NC"},{"name":"Kosci Barnes","year":2026,"position":"CB","stars":4,"rating_247":94.0,"committed_to":"South Carolina","lat":36.0726355,"lng":-79.7919754,"hometown_city":"Greensboro","hometown_state":"NC"},{"name":"Andre Clarke Jr.","year":2026,"position":"CB","stars":4,"rating_247":90.0,"committed_to":"Kentucky","lat":37.5385087,"lng":-77.43428,"hometown_city":"Richmond","hometown_state":"VA"},{"name":"Jamareis Conyers","year":2026,"position":"CB","stars":3,"rating_247":89.0,"committed_to":"Rutgers","lat":27.871197,"lng":-82.3269883,"hometown_city":"Riverview","hometown_state":"FL"},{"name":"Sean Johnson","year":2026,"position":"CB","stars":3,"rating_247":89.0,"committed_to":"Maryland","lat":39.1278864,"lng":-76.6869128,"hometown_city":"Severn","hometown_state":"MD"},{"name":"Kealan Jones","year":2026,"position":"CB","stars":3,"rating_247":89.0,"committed_to":"Georgia Tech","lat":33.9528472,"lng":-84.5496148,"hometown_city":"Marietta","hometown_state":"GA"},{"name":"Nascar McCoy","year":2026,"position":"CB","stars":3,"rating_247":88.0,"committed_to":"Mississippi","lat":34.1206564,"lng":-84.0043513,"hometown_city":"Buford","hometown_state":"GA"},{"name":"Jontavius Wyman","year":2026,"position":"CB","stars":4,"rating_247":88.0,"committed_to":"Miami","lat":33.5215013,"lng":-84.3538128,"hometown_city":"Jonesboro","hometown_state":"GA"},{"name":"Chase Geter","year":2026,"position":"CB","stars":3,"rating_247":88.0,"committed_to":"Syracuse","lat":39.0437192,"lng":-77.4874899,"hometown_city":"Ashburn","hometown_state":"VA"},{"name":"Jaziel Hart","year":2026,"position":"CB","stars":3,"rating_247":87.0,"committed_to":"North Carolina","lat":37.270973,"lng":-79.9414313,"hometown_city":"Roanoke","hometown_state":"VA"},{"name":"DaQuwan Dunn","year":2026,"position":"CB","stars":3,"rating_247":87.0,"committed_to":"Arizona State","lat":32.9481789,"lng":-96.7297206,"hometown_city":"Richardson","hometown_state":"TX"},{"name":"Jordyn Best","year":2026,"position":"CB","stars":3,"rating_247":87.0,"committed_to":"North Carolina State","lat":34.0007493,"lng":-81.0343313,"hometown_city":"Columbia","hometown_state":"SC"},{"name":"Shmar Akande","year":2026,"position":"CB","stars":3,"rating_247":86.0,"committed_to":"Connecticut","lat":26.02322025,"lng":-80.34123906625615,"hometown_city":"Pembroke Pines","hometown_state":"FL"},{"name":"Jalen Williams","year":2026,"position":"CB","stars":3,"rating_247":86.0,"committed_to":"Arizona State","lat":33.9528472,"lng":-84.5496148,"hometown_city":"Marietta","hometown_state":"GA"},{"name":"Jordan Jackson","year":2026,"position":"CB","stars":3,"rating_247":85.0,"committed_to":"North Carolina State","lat":26.13784445,"lng":-81.75399813758739,"hometown_city":"Winter Park","hometown_state":"FL"},{"name":"Sean Williams","year":2026,"position":"CB","stars":3,"rating_247":84.0,"committed_to":"Florida Atlantic","lat":33.5670562,"lng":-84.5810418,"hometown_city":"Fairburn","hometown_state":"GA"},{"name":"Dontrae Walls","year":2026,"position":"CB","stars":null,"rating_247":null,"committed_to":null,"lat":37.5215,"lng":-78.8537,"hometown_city":"Newport News","hometown_state":"VA"},{"name":"Bralan Womack","year":2026,"position":"S","stars":5,"rating_247":97.0,"committed_to":"Mississippi State","lat":32.3095903,"lng":-90.1389757,"hometown_city":"Flowood","hometown_state":"MS"},{"name":"Ayden Pouncey","year":2026,"position":"S","stars":4,"rating_247":96.0,"committed_to":"Notre Dame","lat":26.13784445,"lng":-81.75399813758739,"hometown_city":"Winter Park","hometown_state":"FL"},{"name":"Devin Jackson","year":2026,"position":"S","stars":4,"rating_247":95.0,"committed_to":"Oregon","lat":28.5421109,"lng":-81.3790304,"hometown_city":"Orlando","hometown_state":"FL"},{"name":"Jordan Smith","year":2026,"position":"S","stars":4,"rating_247":94.0,"committed_to":"Georgia","lat":32.6200973,"lng":-83.606568,"hometown_city":"Warner Robins","hometown_state":"GA"},{"name":"Xavier Lherisse","year":2026,"position":"S","stars":4,"rating_247":91.0,"committed_to":"Oregon","lat":28.0836269,"lng":-80.6081089,"hometown_city":"Melbourne","hometown_state":"FL"},{"name":"Blake Stewart","year":2026,"position":"S","stars":3,"rating_247":90.0,"committed_to":"Georgia","lat":33.7490987,"lng":-84.3901849,"hometown_city":"Atlanta","hometown_state":"GA"},{"name":"Jowell Combay","year":2026,"position":"S","stars":3,"rating_247":89.0,"committed_to":"Tennessee","lat":33.9528472,"lng":-84.5496148,"hometown_city":"Marietta","hometown_state":"GA"},{"name":"CJ Hester","year":2026,"position":"S","stars":4,"rating_247":88.0,"committed_to":"Florida","lat":28.3553873,"lng":-80.7318827,"hometown_city":"Cocoa","hometown_state":"FL"},{"name":"Cortez Redding","year":2026,"position":"S","stars":4,"rating_247":88.0,"committed_to":"Miami","lat":33.5215013,"lng":-84.3538128,"hometown_city":"Jonesboro","hometown_state":"GA"},{"name":"D'Various Surratt","year":2026,"position":"S","stars":3,"rating_247":88.0,"committed_to":"North Carolina State","lat":35.2919489,"lng":-81.5402112,"hometown_city":"Shelby","hometown_state":"NC"},{"name":"Koby Sarkodie","year":2026,"position":"S","stars":3,"rating_247":88.0,"committed_to":"North Carolina State","lat":39.3265775,"lng":-76.7181764750945,"hometown_city":"Gwynn Oak","hometown_state":"MD"},{"name":"Nick Reddish","year":2026,"position":"S","stars":3,"rating_247":88.0,"committed_to":"Notre Dame","lat":35.2272,"lng":-80.843083,"hometown_city":"Charlotte","hometown_state":"NC"},{"name":"Chino Aguirre","year":2026,"position":"S","stars":null,"rating_247":88.0,"committed_to":"North Carolina State","lat":32.6415,"lng":-83.4426,"hometown_city":"Locust Grove","hometown_state":"GA"},{"name":"Lyrik Pettis","year":2026,"position":"S","stars":3,"rating_247":88.0,"committed_to":"Duke","lat":35.2919489,"lng":-81.5402112,"hometown_city":"Shelby","hometown_state":"NC"},{"name":"Jamar Owens","year":2026,"position":"S","stars":3,"rating_247":87.0,"committed_to":"Indiana","lat":33.7514966,"lng":-84.7477136,"hometown_city":"Douglasville","hometown_state":"GA"},{"name":"Tristen Hill","year":2026,"position":"S","stars":3,"rating_247":87.0,"committed_to":"North Carolina State","lat":34.0514898,"lng":-84.0712997,"hometown_city":"Suwanee","hometown_state":"GA"},{"name":"Djimon McLendon","year":2026,"position":"S","stars":3,"rating_247":87.0,"committed_to":"East Carolina","lat":33.8532701,"lng":-84.2200729,"hometown_city":"Tucker","hometown_state":"GA"},{"name":"Amari Jones","year":2026,"position":"S","stars":3,"rating_247":86.0,"committed_to":"South Florida","lat":27.4989278,"lng":-82.5748194,"hometown_city":"Bradenton","hometown_state":"FL"},{"name":"Dy'Lan Johnson","year":2026,"position":"S","stars":null,"rating_247":86.0,"committed_to":"North Carolina State","lat":32.7364,"lng":-89.6678,"hometown_city":"Fulton","hometown_state":"MS"},{"name":"Robert Tyson","year":2026,"position":"S","stars":null,"rating_247":null,"committed_to":null,"lat":32.6415,"lng":-83.4426,"hometown_city":"Marietta","hometown_state":"GA"},{"name":"Kendre Harrison","year":2026,"position":"ATH","stars":5,"rating_247":97.0,"committed_to":"Oregon","lat":36.3548586,"lng":-79.6644748,"hometown_city":"Reidsville","hometown_state":"NC"},{"name":"Samari Matthews","year":2026,"position":"ATH","stars":4,"rating_247":94.0,"committed_to":"Texas","lat":35.4817982,"lng":-80.8589501,"hometown_city":"Cornelius","hometown_state":"NC"},{"name":"Aaron Gregory","year":2026,"position":"ATH","stars":4,"rating_247":94.0,"committed_to":"Texas A&M","lat":33.7514966,"lng":-84.7477136,"hometown_city":"Douglasville","hometown_state":"GA"},{"name":"Tyren Hornes","year":2026,"position":"ATH","stars":4,"rating_247":93.0,"committed_to":"UCF","lat":27.3364347,"lng":-82.5306527,"hometown_city":"Sarasota","hometown_state":"FL"},{"name":"Peyton Dyer","year":2026,"position":"ATH","stars":4,"rating_247":91.0,"committed_to":"Southern California","lat":35.0457219,"lng":-85.3094883,"hometown_city":"Chattanooga","hometown_state":"TN"},{"name":"Sequel Patterson","year":2026,"position":"ATH","stars":4,"rating_247":91.0,"committed_to":"South Carolina","lat":35.0073697,"lng":-80.9450759,"hometown_city":"Fort Mill","hometown_state":"SC"},{"name":"EJ White","year":2026,"position":"ATH","stars":null,"rating_247":90.0,"committed_to":"Florida State","lat":28.6305,"lng":-82.4497,"hometown_city":"Vero Beach","hometown_state":"FL"},{"name":"Jyron Hughley","year":2026,"position":"ATH","stars":3,"rating_247":89.0,"committed_to":"West Virginia","lat":26.715364,"lng":-80.0532942,"hometown_city":"West Palm Beach","hometown_state":"FL"},{"name":"Dylan Wester","year":2026,"position":"ATH","stars":3,"rating_247":89.0,"committed_to":"Pittsburgh","lat":27.3364347,"lng":-82.5306527,"hometown_city":"Sarasota","hometown_state":"FL"},{"name":"Darnell Collins","year":2026,"position":"ATH","stars":3,"rating_247":88.0,"committed_to":"Georgia Tech","lat":34.257038,"lng":-85.1646726,"hometown_city":"Rome","hometown_state":"GA"},{"name":"Elias Coke","year":2026,"position":"ATH","stars":3,"rating_247":88.0,"committed_to":"Rutgers","lat":40.2663107,"lng":-76.8861122,"hometown_city":"Harrisburg","hometown_state":"PA"},{"name":"Tony Williams","year":2026,"position":"ATH","stars":3,"rating_247":86.0,"committed_to":"Illinois","lat":30.3321838,"lng":-81.655651,"hometown_city":"Jacksonville","hometown_state":"FL"},{"name":"Lex Willis","year":2026,"position":"ATH","stars":null,"rating_247":86.0,"committed_to":"Georgia Tech","lat":28.6305,"lng":-82.4497,"hometown_city":"Orlando","hometown_state":"FL"},{"name":"Dana Greenhow","year":2026,"position":"ATH","stars":3,"rating_247":86.0,"committed_to":"Purdue","lat":33.4713249,"lng":-84.5972005,"hometown_city":"Tyrone","hometown_state":"GA"},{"name":"Markel Dabney","year":2026,"position":"ATH","stars":3,"rating_247":86.0,"committed_to":"Michigan","lat":37.5385087,"lng":-77.43428,"hometown_city":"Richmond","hometown_state":"VA"},{"name":"KD Cotton","year":2026,"position":"ATH","stars":3,"rating_247":86.0,"committed_to":"Duke","lat":35.1170873,"lng":-80.723718,"hometown_city":"Matthews","hometown_state":"NC"},{"name":"Stephen Brown","year":2026,"position":"ATH","stars":3,"rating_247":85.0,"committed_to":"North Carolina State","lat":41.8755616,"lng":-87.6244212,"hometown_city":"Chicago","hometown_state":"IL"},{"name":"Jimmy Gregg","year":2026,"position":"P","stars":3,"rating_247":83.0,"committed_to":"Syracuse","lat":39.6296809,"lng":-79.9559437,"hometown_city":"Morgantown","hometown_state":"WV"},{"name":"Brooks Moore","year":2026,"position":"P","stars":null,"rating_247":80.0,"committed_to":"Tulane","lat":32.6415,"lng":-83.4426,"hometown_city":"Adel","hometown_state":"GA"}],"2027":[{"name":"Trae Taylor","year":2027,"position":"QB","stars":null,"rating_247":98.0,"committed_to":"Nebraska","lat":41.5378,"lng":-99.7951,"hometown_city":"Omaha","hometown_state":"NE"},{"name":"Gunner Rivers","year":2027,"position":"QB","stars":null,"rating_247":94.0,"committed_to":"North Carolina State","lat":32.7794,"lng":-86.8287,"hometown_city":"Fairhope","hometown_state":"AL"},{"name":"Peter Bourque","year":2027,"position":"QB","stars":null,"rating_247":94.0,"committed_to":"Virginia Tech","lat":42.2596,"lng":-71.8083,"hometown_city":"Marion","hometown_state":"MA"},{"name":"Davin Davidson","year":2027,"position":"QB","stars":null,"rating_247":90.0,"committed_to":"Florida","lat":28.6305,"lng":-82.4497,"hometown_city":"Sarasota","hometown_state":"FL"},{"name":"Colton Nussmeier","year":2027,"position":"QB","stars":null,"rating_247":90.0,"committed_to":"Georgia","lat":31.4757,"lng":-99.3312,"hometown_city":"Denton","hometown_state":"TX"},{"name":"Blake Roskopf","year":2027,"position":"QB","stars":null,"rating_247":90.0,"committed_to":"Washington","lat":34.2744,"lng":-111.6602,"hometown_city":"Goodyear","hometown_state":"AZ"},{"name":"Andre Adams","year":2027,"position":"QB","stars":null,"rating_247":89.0,"committed_to":"Colorado","lat":35.858,"lng":-86.3505,"hometown_city":"Antioch","hometown_state":"TN"},{"name":"Wonderful Monds IV","year":2027,"position":"QB","stars":null,"rating_247":88.0,"committed_to":"Notre Dame","lat":28.6305,"lng":-82.4497,"hometown_city":"Vero Beach","hometown_state":"FL"},{"name":"Aiden Gibson","year":2027,"position":"RB","stars":null,"rating_247":93.0,"committed_to":"Penn State","lat":33.9169,"lng":-80.8964,"hometown_city":"Woodruff","hometown_state":"SC"},{"name":"Nigel Newkirk","year":2027,"position":"RB","stars":null,"rating_247":89.0,"committed_to":"Alabama","lat":32.6415,"lng":-83.4426,"hometown_city":"Gainesville","hometown_state":"GA"},{"name":"Tai Phillips","year":2027,"position":"RB","stars":null,"rating_247":88.0,"committed_to":"Alabama","lat":33.9169,"lng":-80.8964,"hometown_city":"Columbia","hometown_state":"SC"},{"name":"Jeremiah Dent","year":2027,"position":"RB","stars":null,"rating_247":88.0,"committed_to":"Arkansas","lat":34.8938,"lng":-92.4426,"hometown_city":"Marion","hometown_state":"AR"},{"name":"Noah Parker","year":2027,"position":"RB","stars":null,"rating_247":87.0,"committed_to":"Georgia","lat":32.6415,"lng":-83.4426,"hometown_city":"Montezuma","hometown_state":"GA"},{"name":"Connail Jackson","year":2027,"position":"RB","stars":null,"rating_247":86.0,"committed_to":"UCF","lat":28.6305,"lng":-82.4497,"hometown_city":"Sarasota","hometown_state":"FL"},{"name":"Amos Bradford","year":2027,"position":"RB","stars":null,"rating_247":86.0,"committed_to":"Purdue","lat":28.6305,"lng":-82.4497,"hometown_city":"Hollywood","hometown_state":"FL"},{"name":"Christian Freeman","year":2027,"position":"RB","stars":null,"rating_247":86.0,"committed_to":"North Carolina State","lat":35.5557,"lng":-79.3877,"hometown_city":"Raleigh","hometown_state":"NC"},{"name":"Julian Baker","year":2027,"position":"RB","stars":null,"rating_247":null,"committed_to":"Kent State","lat":40.2862,"lng":-82.7937,"hometown_city":"Washington Court House","hometown_state":"OH"},{"name":"Jance Henry Jr.","year":2027,"position":"RB","stars":null,"rating_247":null,"committed_to":"Bowling Green","lat":40.2862,"lng":-82.7937,"hometown_city":"Akron","hometown_state":"OH"},{"name":"Julius Jones","year":2027,"position":"WR","stars":null,"rating_247":92.0,"committed_to":null,"lat":28.6305,"lng":-82.4497,"hometown_city":"Fort Lauderdale","hometown_state":"FL"},{"name":"Quentin Burrell","year":2027,"position":"WR","stars":null,"rating_247":90.0,"committed_to":"Michigan","lat":40.0417,"lng":-89.1965,"hometown_city":"Chicago","hometown_state":"IL"},{"name":"Ah'Mari Stevens","year":2027,"position":"WR","stars":null,"rating_247":90.0,"committed_to":"Louisiana State","lat":28.6305,"lng":-82.4497,"hometown_city":"Hollywood","hometown_state":"FL"},{"name":"Demarcus Brown","year":2027,"position":"WR","stars":null,"rating_247":89.0,"committed_to":"Virginia Tech","lat":37.5215,"lng":-78.8537,"hometown_city":"Roanoke","hometown_state":"VA"},{"name":"Iveon Lewis","year":2027,"position":"WR","stars":null,"rating_247":89.0,"committed_to":"Kentucky","lat":37.5215,"lng":-78.8537,"hometown_city":"Richmond","hometown_state":"VA"},{"name":"Brylan Oduor","year":2027,"position":"WR","stars":null,"rating_247":89.0,"committed_to":"Auburn","lat":35.858,"lng":-86.3505,"hometown_city":"Murfreesboro","hometown_state":"TN"},{"name":"Carlos Ferguson","year":2027,"position":"WR","stars":null,"rating_247":89.0,"committed_to":"Minnesota","lat":39.055,"lng":-76.7909,"hometown_city":"Owings Mills","hometown_state":"MD"},{"name":"Arnold Mugerwa","year":2027,"position":"WR","stars":null,"rating_247":89.0,"committed_to":"Rutgers","lat":40.8781,"lng":-77.7996,"hometown_city":"Johnstown","hometown_state":"PA"},{"name":"Anthony Jennings","year":2027,"position":"WR","stars":null,"rating_247":88.0,"committed_to":"Florida","lat":28.6305,"lng":-82.4497,"hometown_city":"Fort Lauderdale","hometown_state":"FL"},{"name":"Majay Thompson","year":2027,"position":"WR","stars":null,"rating_247":88.0,"committed_to":null,"lat":35.5557,"lng":-79.3877,"hometown_city":"Shelby","hometown_state":"NC"},{"name":"Jonathan Dillon","year":2027,"position":"WR","stars":null,"rating_247":88.0,"committed_to":null,"lat":35.5557,"lng":-79.3877,"hometown_city":"Durham","hometown_state":"NC"},{"name":"James Branch","year":2027,"position":"WR","stars":null,"rating_247":88.0,"committed_to":null,"lat":39.055,"lng":-76.7909,"hometown_city":"Baltimore","hometown_state":"MD"},{"name":"Anthony Roberts","year":2027,"position":"WR","stars":null,"rating_247":88.0,"committed_to":"Virginia Tech","lat":35.5557,"lng":-79.3877,"hometown_city":"Rolesville","hometown_state":"NC"},{"name":"Keland Shelton Jr.","year":2027,"position":"WR","stars":null,"rating_247":88.0,"committed_to":"Wake Forest","lat":35.5557,"lng":-79.3877,"hometown_city":"Charlotte","hometown_state":"NC"},{"name":"Brandon Leavell","year":2027,"position":"WR","stars":null,"rating_247":88.0,"committed_to":"Tennessee","lat":35.858,"lng":-86.3505,"hometown_city":"Madison","hometown_state":"TN"},{"name":"Charles Britton III","year":2027,"position":"WR","stars":null,"rating_247":88.0,"committed_to":null,"lat":44.3467,"lng":-85.4102,"hometown_city":"Belleville","hometown_state":"MI"},{"name":"Brock Burrus","year":2027,"position":"WR","stars":null,"rating_247":87.0,"committed_to":null,"lat":32.6415,"lng":-83.4426,"hometown_city":"Marietta","hometown_state":"GA"},{"name":"Tajeh Watson","year":2027,"position":"WR","stars":null,"rating_247":87.0,"committed_to":null,"lat":33.9169,"lng":-80.8964,"hometown_city":"Anderson","hometown_state":"SC"},{"name":"Maleek Miller","year":2027,"position":"WR","stars":null,"rating_247":87.0,"committed_to":null,"lat":33.9169,"lng":-80.8964,"hometown_city":"Irmo","hometown_state":"SC"},{"name":"Roscoe Hayes","year":2027,"position":"WR","stars":null,"rating_247":86.0,"committed_to":"West Virginia","lat":32.6415,"lng":-83.4426,"hometown_city":"Atlanta","hometown_state":"GA"},{"name":"Malik Ratliff","year":2027,"position":"WR","stars":null,"rating_247":86.0,"committed_to":null,"lat":33.9169,"lng":-80.8964,"hometown_city":"Rock Hill","hometown_state":"SC"},{"name":"Julian Cromartie","year":2027,"position":"WR","stars":null,"rating_247":86.0,"committed_to":"Clemson","lat":31.4757,"lng":-99.3312,"hometown_city":"The Woodlands","hometown_state":"TX"},{"name":"Jailyn Moore","year":2027,"position":"WR","stars":null,"rating_247":86.0,"committed_to":null,"lat":35.5557,"lng":-79.3877,"hometown_city":"Clemmons","hometown_state":"NC"},{"name":"Braylon Lane","year":2027,"position":"WR","stars":null,"rating_247":86.0,"committed_to":"Houston","lat":31.4757,"lng":-99.3312,"hometown_city":"Houston","hometown_state":"TX"},{"name":"Ryan Ferdinand","year":2027,"position":"WR","stars":null,"rating_247":85.0,"committed_to":null,"lat":28.6305,"lng":-82.4497,"hometown_city":"West Palm Beach","hometown_state":"FL"},{"name":"Khamarian Young","year":2027,"position":"WR","stars":null,"rating_247":85.0,"committed_to":null,"lat":28.6305,"lng":-82.4497,"hometown_city":"Hollywood","hometown_state":"FL"},{"name":"Lorontae Davis","year":2027,"position":"WR","stars":null,"rating_247":null,"committed_to":"Eastern Michigan","lat":28.6305,"lng":-82.4497,"hometown_city":"Boca Raton","hometown_state":"FL"},{"name":"Jayden St. Fort","year":2027,"position":"WR","stars":null,"rating_247":null,"committed_to":"Eastern Michigan","lat":28.6305,"lng":-82.4497,"hometown_city":"Boca Raton","hometown_state":"FL"},{"name":"Tre Brown","year":2027,"position":"WR","stars":null,"rating_247":null,"committed_to":null,"lat":31.4757,"lng":-99.3312,"hometown_city":"Humble","hometown_state":"TX"},{"name":"Khy'lieb Rodriguez","year":2027,"position":"WR","stars":null,"rating_247":null,"committed_to":null,"lat":35.5557,"lng":-79.3877,"hometown_city":"Charlotte","hometown_state":"NC"},{"name":"Jaxon Dollar","year":2027,"position":"TE","stars":null,"rating_247":98.0,"committed_to":"Georgia","lat":35.5557,"lng":-79.3877,"hometown_city":"Denver","hometown_state":"NC"},{"name":"Brock Williams","year":2027,"position":"TE","stars":null,"rating_247":93.0,"committed_to":"Texas","lat":40.0417,"lng":-89.1965,"hometown_city":"Libertyville","hometown_state":"IL"},{"name":"Landon Blum","year":2027,"position":"TE","stars":null,"rating_247":90.0,"committed_to":"Penn State","lat":42.0751,"lng":-93.496,"hometown_city":"Woodbine","hometown_state":"IA"},{"name":"Sam Faniel","year":2027,"position":"TE","stars":null,"rating_247":89.0,"committed_to":"Virginia Tech","lat":37.5215,"lng":-78.8537,"hometown_city":"Richmond","hometown_state":"VA"},{"name":"Colton Johnson","year":2027,"position":"TE","stars":null,"rating_247":88.0,"committed_to":null,"lat":35.858,"lng":-86.3505,"hometown_city":"Baxter","hometown_state":"TN"},{"name":"Grant Haviland","year":2027,"position":"TE","stars":null,"rating_247":88.0,"committed_to":"Vanderbilt","lat":32.6415,"lng":-83.4426,"hometown_city":"Alpharetta","hometown_state":"GA"},{"name":"Max Patterson","year":2027,"position":"TE","stars":null,"rating_247":88.0,"committed_to":"Pittsburgh","lat":32.6415,"lng":-83.4426,"hometown_city":"Suwanee","hometown_state":"GA"},{"name":"Trae Proctor","year":2027,"position":"TE","stars":null,"rating_247":87.0,"committed_to":"Kentucky","lat":28.6305,"lng":-82.4497,"hometown_city":"Plantation","hometown_state":"FL"},{"name":"Joey Hunter","year":2027,"position":"TE","stars":null,"rating_247":87.0,"committed_to":"Nebraska","lat":32.6415,"lng":-83.4426,"hometown_city":"Loganville","hometown_state":"GA"},{"name":"Carter Blackwell","year":2027,"position":"TE","stars":null,"rating_247":87.0,"committed_to":"Clemson","lat":32.6415,"lng":-83.4426,"hometown_city":"Leesburg","hometown_state":"GA"},{"name":"Joshua Pettigrew","year":2027,"position":"TE","stars":null,"rating_247":87.0,"committed_to":"Georgia Tech","lat":32.6415,"lng":-83.4426,"hometown_city":"Warner Robins","hometown_state":"GA"},{"name":"Michael Nnabuife","year":2027,"position":"TE","stars":null,"rating_247":86.0,"committed_to":"Alabama","lat":39.055,"lng":-76.7909,"hometown_city":"Baltimore","hometown_state":"MD"},{"name":"CJ Jordan II","year":2027,"position":"TE","stars":null,"rating_247":86.0,"committed_to":"North Carolina State","lat":32.6415,"lng":-83.4426,"hometown_city":"Marietta","hometown_state":"GA"},{"name":"Griffin Cockerham","year":2027,"position":"TE","stars":null,"rating_247":86.0,"committed_to":"North Carolina State","lat":35.5557,"lng":-79.3877,"hometown_city":"Raleigh","hometown_state":"NC"},{"name":"Mason Hall","year":2027,"position":"TE","stars":null,"rating_247":86.0,"committed_to":"Virginia","lat":32.6415,"lng":-83.4426,"hometown_city":"Watkinsville","hometown_state":"GA"},{"name":"Landon Wolny","year":2027,"position":"TE","stars":null,"rating_247":84.0,"committed_to":null,"lat":28.6305,"lng":-82.4497,"hometown_city":"Naples","hometown_state":"FL"},{"name":"David Tarawallie","year":2027,"position":"OT","stars":null,"rating_247":94.0,"committed_to":"Penn State","lat":40.2862,"lng":-82.7937,"hometown_city":"Painesville","hometown_state":"OH"},{"name":"Dominic Black","year":2027,"position":"OT","stars":null,"rating_247":91.0,"committed_to":"Kentucky","lat":40.2862,"lng":-82.7937,"hometown_city":"New Madison","hometown_state":"OH"},{"name":"John Archer","year":2027,"position":"OT","stars":null,"rating_247":91.0,"committed_to":"South Carolina","lat":35.5557,"lng":-79.3877,"hometown_city":"Fayetteville","hometown_state":"NC"},{"name":"Nate Carson","year":2027,"position":"OT","stars":null,"rating_247":90.0,"committed_to":null,"lat":33.9169,"lng":-80.8964,"hometown_city":"Columbia","hometown_state":"SC"},{"name":"Mason Wilt","year":2027,"position":"OT","stars":null,"rating_247":90.0,"committed_to":"Ohio State","lat":40.2862,"lng":-82.7937,"hometown_city":"Saint Clairsville","hometown_state":"OH"},{"name":"Jimmy Kalis","year":2027,"position":"OT","stars":null,"rating_247":90.0,"committed_to":"Ohio State","lat":40.8781,"lng":-77.7996,"hometown_city":"Pittsburgh","hometown_state":"PA"},{"name":"Davis Seaman","year":2027,"position":"OT","stars":null,"rating_247":90.0,"committed_to":"Ohio State","lat":40.2862,"lng":-82.7937,"hometown_city":"Columbus","hometown_state":"OH"},{"name":"Carter Jones","year":2027,"position":"OT","stars":null,"rating_247":90.0,"committed_to":"Clemson","lat":37.5215,"lng":-78.8537,"hometown_city":"Poquoson","hometown_state":"VA"},{"name":"Junior Saunders","year":2027,"position":"OT","stars":null,"rating_247":90.0,"committed_to":"Virginia Tech","lat":37.5215,"lng":-78.8537,"hometown_city":"Woodberry Forest","hometown_state":"VA"},{"name":"Kal-El Johnson","year":2027,"position":"OT","stars":null,"rating_247":90.0,"committed_to":null,"lat":40.2862,"lng":-82.7937,"hometown_city":"Cincinnati","hometown_state":"OH"},{"name":"JJ Brown","year":2027,"position":"OT","stars":null,"rating_247":90.0,"committed_to":"Clemson","lat":32.6415,"lng":-83.4426,"hometown_city":"Lilburn","hometown_state":"GA"},{"name":"Q'Mari Hudson","year":2027,"position":"OT","stars":null,"rating_247":89.0,"committed_to":null,"lat":37.5215,"lng":-78.8537,"hometown_city":"Chesapeake","hometown_state":"VA"},{"name":"Miller Westerfield","year":2027,"position":"OT","stars":null,"rating_247":89.0,"committed_to":null,"lat":32.6415,"lng":-83.4426,"hometown_city":"Roswell","hometown_state":"GA"},{"name":"Tye Kennedy","year":2027,"position":"OT","stars":null,"rating_247":88.0,"committed_to":null,"lat":34.2744,"lng":-111.6602,"hometown_city":"Mesa","hometown_state":"AZ"},{"name":"Reed Gerken","year":2027,"position":"OT","stars":null,"rating_247":88.0,"committed_to":"Kentucky","lat":40.2862,"lng":-82.7937,"hometown_city":"Perrysburg","hometown_state":"OH"},{"name":"Jacob Burns","year":2027,"position":"OT","stars":null,"rating_247":88.0,"committed_to":null,"lat":32.6415,"lng":-83.4426,"hometown_city":"Rabun Gap","hometown_state":"GA"},{"name":"Brody McNeel","year":2027,"position":"OT","stars":null,"rating_247":88.0,"committed_to":"Ohio State","lat":37.5215,"lng":-78.8537,"hometown_city":"Richmond","hometown_state":"VA"},{"name":"Conner Rutherford","year":2027,"position":"OT","stars":null,"rating_247":88.0,"committed_to":"North Carolina State","lat":40.2862,"lng":-82.7937,"hometown_city":"Chillicothe","hometown_state":"OH"},{"name":"Ryan Robbins","year":2027,"position":"OT","stars":null,"rating_247":88.0,"committed_to":"Penn State","lat":40.8781,"lng":-77.7996,"hometown_city":"Upper St. Clair","hometown_state":"PA"},{"name":"Ty Johnson","year":2027,"position":"OT","stars":null,"rating_247":88.0,"committed_to":"Georgia","lat":33.9169,"lng":-80.8964,"hometown_city":"Mount Pleasant","hometown_state":"SC"},{"name":"Kyle Nabrotzky","year":2027,"position":"OT","stars":null,"rating_247":88.0,"committed_to":null,"lat":35.858,"lng":-86.3505,"hometown_city":"Brentwood","hometown_state":"TN"},{"name":"Tre Warren III","year":2027,"position":"OT","stars":null,"rating_247":87.0,"committed_to":"North Carolina State","lat":32.6415,"lng":-83.4426,"hometown_city":"Columbus","hometown_state":"GA"},{"name":"Zaquan Linton","year":2027,"position":"OT","stars":null,"rating_247":86.0,"committed_to":"Colorado","lat":28.6305,"lng":-82.4497,"hometown_city":"Wellington","hometown_state":"FL"},{"name":"Clayton Lee","year":2027,"position":"OT","stars":null,"rating_247":86.0,"committed_to":null,"lat":28.6305,"lng":-82.4497,"hometown_city":"Callahan","hometown_state":"FL"},{"name":"Rance Brown","year":2027,"position":"OT","stars":null,"rating_247":86.0,"committed_to":"Auburn","lat":35.858,"lng":-86.3505,"hometown_city":"Brentwood","hometown_state":"TN"},{"name":"Luke Injaychock","year":2027,"position":"OT","stars":null,"rating_247":86.0,"committed_to":"Missouri","lat":40.0417,"lng":-89.1965,"hometown_city":"La Grange Park","hometown_state":"IL"},{"name":"KeeShun Jackson","year":2027,"position":"OT","stars":null,"rating_247":null,"committed_to":null,"lat":37.5347,"lng":-85.3021,"hometown_city":"Radcliff","hometown_state":"KY"},{"name":"Terrance Smith","year":2027,"position":"IOL","stars":null,"rating_247":95.0,"committed_to":null,"lat":40.8781,"lng":-77.7996,"hometown_city":"Lansdale","hometown_state":"PA"},{"name":"James Halter","year":2027,"position":"IOL","stars":null,"rating_247":94.0,"committed_to":"Notre Dame","lat":40.8781,"lng":-77.7996,"hometown_city":"Pittsburgh","hometown_state":"PA"},{"name":"Jordan Agbanoma","year":2027,"position":"IOL","stars":null,"rating_247":91.0,"committed_to":"Nebraska","lat":32.6415,"lng":-83.4426,"hometown_city":"Loganville","hometown_state":"GA"},{"name":"Elijah Hutcheson","year":2027,"position":"IOL","stars":null,"rating_247":91.0,"committed_to":"Florida","lat":37.5215,"lng":-78.8537,"hometown_city":"Roanoke","hometown_state":"VA"},{"name":"Kaden Buchanan","year":2027,"position":"IOL","stars":null,"rating_247":90.0,"committed_to":"Virginia Tech","lat":35.858,"lng":-86.3505,"hometown_city":"Lebanon","hometown_state":"TN"},{"name":"Jackson Roper","year":2027,"position":"IOL","stars":null,"rating_247":90.0,"committed_to":"UCLA","lat":38.9972,"lng":-105.5478,"hometown_city":"Englewood","hometown_state":"CO"},{"name":"Reed Ramsier","year":2027,"position":"IOL","stars":null,"rating_247":90.0,"committed_to":"Auburn","lat":28.6305,"lng":-82.4497,"hometown_city":"Orlando","hometown_state":"FL"},{"name":"Elijah Morrison","year":2027,"position":"IOL","stars":null,"rating_247":89.0,"committed_to":"Clemson","lat":32.6415,"lng":-83.4426,"hometown_city":"Dacula","hometown_state":"GA"},{"name":"Ian Walker","year":2027,"position":"IOL","stars":null,"rating_247":89.0,"committed_to":"Kentucky","lat":40.1907,"lng":-74.6728,"hometown_city":"Pennington","hometown_state":"NJ"},{"name":"Jordan Dillon","year":2027,"position":"IOL","stars":null,"rating_247":88.0,"committed_to":"Georgia Tech","lat":32.6415,"lng":-83.4426,"hometown_city":"Springfield","hometown_state":"GA"},{"name":"Owen Reilly","year":2027,"position":"IOL","stars":null,"rating_247":88.0,"committed_to":"Penn State","lat":39.055,"lng":-76.7909,"hometown_city":"Bel Air","hometown_state":"MD"},{"name":"KD Jones","year":2027,"position":"IOL","stars":null,"rating_247":88.0,"committed_to":"Nebraska","lat":32.6415,"lng":-83.4426,"hometown_city":"Loganville","hometown_state":"GA"},{"name":"Kyson Mallard","year":2027,"position":"IOL","stars":null,"rating_247":87.0,"committed_to":"Louisville","lat":32.6415,"lng":-83.4426,"hometown_city":"Albany","hometown_state":"GA"},{"name":"Bryson Hurt","year":2027,"position":"IOL","stars":null,"rating_247":87.0,"committed_to":null,"lat":32.6415,"lng":-83.4426,"hometown_city":"Gainesville","hometown_state":"GA"},{"name":"Brady Hull","year":2027,"position":"IOL","stars":null,"rating_247":86.0,"committed_to":"Kentucky","lat":37.5347,"lng":-85.3021,"hometown_city":"Somerset","hometown_state":"KY"},{"name":"Justyn Perez","year":2027,"position":"IOL","stars":null,"rating_247":86.0,"committed_to":"Eastern Kentucky","lat":37.5347,"lng":-85.3021,"hometown_city":"Versailles","hometown_state":"KY"},{"name":"Jon Sassic","year":2027,"position":"IOL","stars":null,"rating_247":86.0,"committed_to":"Penn State","lat":40.8781,"lng":-77.7996,"hometown_city":"Pittsburgh","hometown_state":"PA"},{"name":"Carter Mathis","year":2027,"position":"IOL","stars":null,"rating_247":85.0,"committed_to":"Pittsburgh","lat":32.6415,"lng":-83.4426,"hometown_city":"Gainesville","hometown_state":"GA"},{"name":"Ford Wade","year":2027,"position":"IOL","stars":null,"rating_247":83.0,"committed_to":"Mississippi","lat":32.7364,"lng":-89.6678,"hometown_city":"Oxford","hometown_state":"MS"},{"name":"Colt Hauser","year":2027,"position":"IOL","stars":null,"rating_247":82.0,"committed_to":"North Carolina State","lat":28.6305,"lng":-82.4497,"hometown_city":"West Palm Beach","hometown_state":"FL"},{"name":"Timothy Harvey","year":2027,"position":"IOL","stars":null,"rating_247":null,"committed_to":null,"lat":32.6415,"lng":-83.4426,"hometown_city":"Loganville","hometown_state":"GA"},{"name":"Jaiden Bryant","year":2027,"position":"Edge","stars":null,"rating_247":98.0,"committed_to":"Miami","lat":33.9169,"lng":-80.8964,"hometown_city":"Columbia","hometown_state":"SC"},{"name":"Abraham Sesay","year":2027,"position":"Edge","stars":null,"rating_247":98.0,"committed_to":null,"lat":40.8781,"lng":-77.7996,"hometown_city":"Exton","hometown_state":"PA"},{"name":"Rashad Streets","year":2027,"position":"Edge","stars":null,"rating_247":98.0,"committed_to":"Oregon","lat":35.5557,"lng":-79.3877,"hometown_city":"Raleigh","hometown_state":"NC"},{"name":"Zyron Forstall","year":2027,"position":"Edge","stars":null,"rating_247":98.0,"committed_to":"Texas A&M","lat":28.6305,"lng":-82.4497,"hometown_city":"Bradenton","hometown_state":"FL"},{"name":"Chris Whitehead","year":2027,"position":"Edge","stars":null,"rating_247":94.0,"committed_to":null,"lat":37.5215,"lng":-78.8537,"hometown_city":"Chesterfield","hometown_state":"VA"},{"name":"Isaac McNeil","year":2027,"position":"Edge","stars":null,"rating_247":94.0,"committed_to":"Auburn","lat":32.7794,"lng":-86.8287,"hometown_city":"Mobile","hometown_state":"AL"},{"name":"Aidan O'Neil","year":2027,"position":"Edge","stars":null,"rating_247":93.0,"committed_to":"Notre Dame","lat":40.1907,"lng":-74.6728,"hometown_city":"Ramsey","hometown_state":"NJ"},{"name":"Jackson Vaughn","year":2027,"position":"Edge","stars":null,"rating_247":92.0,"committed_to":"Notre Dame","lat":40.1907,"lng":-74.6728,"hometown_city":"Oradell","hometown_state":"NJ"},{"name":"Jackson Vaughn","year":2027,"position":"Edge","stars":null,"rating_247":92.0,"committed_to":"Notre Dame","lat":40.1907,"lng":-74.6728,"hometown_city":"Oradell","hometown_state":"NJ"},{"name":"Demarcus Deroche","year":2027,"position":"Edge","stars":null,"rating_247":90.0,"committed_to":"Miami","lat":28.6305,"lng":-82.4497,"hometown_city":"Fort Lauderdale","hometown_state":"FL"},{"name":"Desmond Malpress","year":2027,"position":"Edge","stars":null,"rating_247":90.0,"committed_to":"Clemson","lat":28.6305,"lng":-82.4497,"hometown_city":"Jacksonville","hometown_state":"FL"},{"name":"Justin Weeks","year":2027,"position":"Edge","stars":null,"rating_247":89.0,"committed_to":null,"lat":32.6415,"lng":-83.4426,"hometown_city":"Douglasville","hometown_state":"GA"},{"name":"Jayden Broadie","year":2027,"position":"Edge","stars":null,"rating_247":89.0,"committed_to":null,"lat":35.5557,"lng":-79.3877,"hometown_city":"Rolesville","hometown_state":"NC"},{"name":"T.K. Cunningham","year":2027,"position":"Edge","stars":null,"rating_247":89.0,"committed_to":null,"lat":34.2744,"lng":-111.6602,"hometown_city":"Chandler","hometown_state":"AZ"},{"name":"Chaz Gray","year":2027,"position":"Edge","stars":null,"rating_247":89.0,"committed_to":"Washington","lat":40.1907,"lng":-74.6728,"hometown_city":"Montvale","hometown_state":"NJ"},{"name":"Jaxon Holly","year":2027,"position":"Edge","stars":null,"rating_247":88.0,"committed_to":null,"lat":32.6415,"lng":-83.4426,"hometown_city":"Roswell","hometown_state":"GA"},{"name":"Adriel Rojas","year":2027,"position":"Edge","stars":null,"rating_247":88.0,"committed_to":"Duke","lat":32.6415,"lng":-83.4426,"hometown_city":"Cumming","hometown_state":"GA"},{"name":"Alex Johnson","year":2027,"position":"Edge","stars":null,"rating_247":88.0,"committed_to":"Boston College","lat":33.9169,"lng":-80.8964,"hometown_city":"Fort Mill","hometown_state":"SC"},{"name":"Jadell Carter","year":2027,"position":"Edge","stars":null,"rating_247":88.0,"committed_to":"North Carolina State","lat":28.6305,"lng":-82.4497,"hometown_city":"Fort Myers","hometown_state":"FL"},{"name":"Trevoris Finley","year":2027,"position":"Edge","stars":null,"rating_247":87.0,"committed_to":"West Virginia","lat":28.6305,"lng":-82.4497,"hometown_city":"Opa Locka","hometown_state":"FL"},{"name":"Esa Wittingburg","year":2027,"position":"Edge","stars":null,"rating_247":87.0,"committed_to":null,"lat":40.1907,"lng":-74.6728,"hometown_city":"East Orange","hometown_state":"NJ"},{"name":"Jared Zames","year":2027,"position":"Edge","stars":null,"rating_247":86.0,"committed_to":"Northwestern","lat":28.6305,"lng":-82.4497,"hometown_city":"Tampa","hometown_state":"FL"},{"name":"Hans Emery Julien","year":2027,"position":"Edge","stars":null,"rating_247":86.0,"committed_to":null,"lat":35.858,"lng":-86.3505,"hometown_city":"Chattanooga","hometown_state":"TN"},{"name":"JiQuan Rogers","year":2027,"position":"Edge","stars":null,"rating_247":86.0,"committed_to":"Clemson","lat":32.7794,"lng":-86.8287,"hometown_city":"Birmingham","hometown_state":"AL"},{"name":"Wilzard Sterling","year":2027,"position":"Edge","stars":null,"rating_247":null,"committed_to":null,"lat":28.6305,"lng":-82.4497,"hometown_city":"Boca Raton","hometown_state":"FL"},{"name":"Gehrig Felix","year":2027,"position":"Edge","stars":null,"rating_247":null,"committed_to":null,"lat":32.6415,"lng":-83.4426,"hometown_city":"Lawrenceville","hometown_state":"GA"},{"name":"Stanley Montgomery","year":2027,"position":"DL","stars":null,"rating_247":94.0,"committed_to":"Penn State","lat":40.8781,"lng":-77.7996,"hometown_city":"Philadelphia","hometown_state":"PA"},{"name":"Cahron Wheeler","year":2027,"position":"DL","stars":null,"rating_247":91.0,"committed_to":"Florida","lat":39.055,"lng":-76.7909,"hometown_city":"Baltimore","hometown_state":"MD"},{"name":"Seth Tillman","year":2027,"position":"DL","stars":null,"rating_247":91.0,"committed_to":null,"lat":33.9169,"lng":-80.8964,"hometown_city":"Rock Hill","hometown_state":"SC"},{"name":"Elijah Patmon","year":2027,"position":"DL","stars":null,"rating_247":90.0,"committed_to":"Texas A&M","lat":32.6415,"lng":-83.4426,"hometown_city":"Warner Robins","hometown_state":"GA"},{"name":"Joseph Buchanan","year":2027,"position":"DL","stars":null,"rating_247":90.0,"committed_to":"Virginia Tech","lat":39.055,"lng":-76.7909,"hometown_city":"Owings Mills","hometown_state":"MD"},{"name":"Nate Kamba","year":2027,"position":"DL","stars":null,"rating_247":90.0,"committed_to":null,"lat":35.5557,"lng":-79.3877,"hometown_city":"Charlotte","hometown_state":"NC"},{"name":"Stive-Bentley Keumajou Yondui","year":2027,"position":"DL","stars":null,"rating_247":89.0,"committed_to":"Florida","lat":28.6305,"lng":-82.4497,"hometown_city":"Miami","hometown_state":"FL"},{"name":"Antwan McKoy","year":2027,"position":"DL","stars":null,"rating_247":89.0,"committed_to":null,"lat":35.5557,"lng":-79.3877,"hometown_city":"St. Pauls","hometown_state":"NC"},{"name":"Dennis Glenn Jr.","year":2027,"position":"DL","stars":null,"rating_247":89.0,"committed_to":"Rutgers","lat":33.9169,"lng":-80.8964,"hometown_city":"Boiling Springs","hometown_state":"SC"},{"name":"Kaiden Robinson-Vickers","year":2027,"position":"DL","stars":null,"rating_247":88.0,"committed_to":null,"lat":28.6305,"lng":-82.4497,"hometown_city":"Hawthorne","hometown_state":"FL"},{"name":"De'Voun Kendrick","year":2027,"position":"DL","stars":null,"rating_247":88.0,"committed_to":"Florida","lat":28.6305,"lng":-82.4497,"hometown_city":"Tampa","hometown_state":"FL"},{"name":"Malachi Brown","year":2027,"position":"DL","stars":null,"rating_247":88.0,"committed_to":"Kentucky","lat":37.5347,"lng":-85.3021,"hometown_city":"Corbin","hometown_state":"KY"},{"name":"Jason Lewis","year":2027,"position":"DL","stars":null,"rating_247":88.0,"committed_to":null,"lat":28.6305,"lng":-82.4497,"hometown_city":"Kissimmee","hometown_state":"FL"},{"name":"Jaden Wuerth","year":2027,"position":"DL","stars":null,"rating_247":88.0,"committed_to":"Clemson","lat":33.9169,"lng":-80.8964,"hometown_city":"Irmo","hometown_state":"SC"},{"name":"Joseph Graves","year":2027,"position":"DL","stars":null,"rating_247":87.0,"committed_to":null,"lat":28.6305,"lng":-82.4497,"hometown_city":"Bradenton","hometown_state":"FL"},{"name":"Waylon Wooten","year":2027,"position":"DL","stars":null,"rating_247":87.0,"committed_to":"Georgia","lat":32.6415,"lng":-83.4426,"hometown_city":"Loganville","hometown_state":"GA"},{"name":"Alexander Taylor","year":2027,"position":"DL","stars":null,"rating_247":87.0,"committed_to":"Virginia Tech","lat":39.055,"lng":-76.7909,"hometown_city":"Baltimore","hometown_state":"MD"},{"name":"Jesiah Fields","year":2027,"position":"DL","stars":null,"rating_247":87.0,"committed_to":"Louisville","lat":35.5557,"lng":-79.3877,"hometown_city":"Charlotte","hometown_state":"NC"},{"name":"Errol Demontagnac","year":2027,"position":"DL","stars":null,"rating_247":86.0,"committed_to":"Nebraska","lat":28.6305,"lng":-82.4497,"hometown_city":"Seffner","hometown_state":"FL"},{"name":"Gene Jones","year":2027,"position":"DL","stars":null,"rating_247":86.0,"committed_to":"Virginia","lat":37.5215,"lng":-78.8537,"hometown_city":"Hampton","hometown_state":"VA"},{"name":"Amir Moore","year":2027,"position":"DL","stars":null,"rating_247":86.0,"committed_to":"North Carolina State","lat":35.5557,"lng":-79.3877,"hometown_city":"Harrells","hometown_state":"NC"},{"name":"Julius LaRosa III","year":2027,"position":"DL","stars":null,"rating_247":86.0,"committed_to":"North Carolina State","lat":28.6305,"lng":-82.4497,"hometown_city":"Jacksonville","hometown_state":"FL"},{"name":"Charles Nance","year":2027,"position":"DL","stars":null,"rating_247":86.0,"committed_to":null,"lat":32.6415,"lng":-83.4426,"hometown_city":"Vienna","hometown_state":"GA"},{"name":"Lorenzo Tartamella","year":2027,"position":"DL","stars":null,"rating_247":85.0,"committed_to":"Navy","lat":40.1907,"lng":-74.6728,"hometown_city":"Red Bank","hometown_state":"NJ"},{"name":"Steven Hannon","year":2027,"position":"DL","stars":null,"rating_247":null,"committed_to":null,"lat":32.6415,"lng":-83.4426,"hometown_city":"Tyrone","hometown_state":"GA"},{"name":"Kennan Burtch","year":2027,"position":"DL","stars":null,"rating_247":null,"committed_to":null,"lat":32.6415,"lng":-83.4426,"hometown_city":"Carnesville","hometown_state":"GA"},{"name":"Jayin Talib","year":2027,"position":"DL","stars":null,"rating_247":null,"committed_to":null,"lat":31.4757,"lng":-99.3312,"hometown_city":"Allen","hometown_state":"TX"},{"name":"Roman Igwebuike","year":2027,"position":"LB","stars":null,"rating_247":91.0,"committed_to":null,"lat":40.0417,"lng":-89.1965,"hometown_city":"Chicago","hometown_state":"IL"},{"name":"Quinton Cypher","year":2027,"position":"LB","stars":null,"rating_247":90.0,"committed_to":"Ohio State","lat":35.5557,"lng":-79.3877,"hometown_city":"Raleigh","hometown_state":"NC"},{"name":"Ja'Bios Smith","year":2027,"position":"LB","stars":null,"rating_247":90.0,"committed_to":"Florida","lat":32.6415,"lng":-83.4426,"hometown_city":"Swainsboro","hometown_state":"GA"},{"name":"Mikahi Allen","year":2027,"position":"LB","stars":null,"rating_247":90.0,"committed_to":null,"lat":40.1907,"lng":-74.6728,"hometown_city":"Ramsey","hometown_state":"NJ"},{"name":"Kobe Rhymes","year":2027,"position":"LB","stars":null,"rating_247":90.0,"committed_to":"Missouri","lat":38.3566,"lng":-92.458,"hometown_city":"Kansas City","hometown_state":"MO"},{"name":"Kareem Palmer","year":2027,"position":"LB","stars":null,"rating_247":89.0,"committed_to":"Auburn","lat":32.6415,"lng":-83.4426,"hometown_city":"Lyons","hometown_state":"GA"},{"name":"Jeremiah Culpepper","year":2027,"position":"LB","stars":null,"rating_247":89.0,"committed_to":"Mississippi","lat":32.6415,"lng":-83.4426,"hometown_city":"LaGrange","hometown_state":"GA"},{"name":"Ba'Roc Willis","year":2027,"position":"LB","stars":null,"rating_247":88.0,"committed_to":"Colorado","lat":32.7794,"lng":-86.8287,"hometown_city":"Pell City","hometown_state":"AL"},{"name":"Jalaythan Mayfield","year":2027,"position":"LB","stars":null,"rating_247":88.0,"committed_to":null,"lat":35.5557,"lng":-79.3877,"hometown_city":"Lincolnton","hometown_state":"NC"},{"name":"Drew Williams","year":2027,"position":"LB","stars":null,"rating_247":88.0,"committed_to":"Kentucky","lat":32.6415,"lng":-83.4426,"hometown_city":"Canton","hometown_state":"GA"},{"name":"Zykee Scott","year":2027,"position":"LB","stars":null,"rating_247":88.0,"committed_to":"North Carolina","lat":40.8781,"lng":-77.7996,"hometown_city":"Wyndmoor","hometown_state":"PA"},{"name":"Ethan Hauser","year":2027,"position":"LB","stars":null,"rating_247":88.0,"committed_to":"Vanderbilt","lat":32.6415,"lng":-83.4426,"hometown_city":"Buford","hometown_state":"GA"},{"name":"Theo Wilson","year":2027,"position":"LB","stars":null,"rating_247":88.0,"committed_to":null,"lat":28.6305,"lng":-82.4497,"hometown_city":"Seffner","hometown_state":"FL"},{"name":"Jake Godfree","year":2027,"position":"LB","stars":null,"rating_247":87.0,"committed_to":"North Carolina State","lat":32.6415,"lng":-83.4426,"hometown_city":"Suwanee","hometown_state":"GA"},{"name":"Temorris Campbell Jr.","year":2027,"position":"LB","stars":null,"rating_247":87.0,"committed_to":"Georgia","lat":28.6305,"lng":-82.4497,"hometown_city":"Opa Locka","hometown_state":"FL"},{"name":"Tripp Keller","year":2027,"position":"LB","stars":null,"rating_247":87.0,"committed_to":"Duke","lat":28.6305,"lng":-82.4497,"hometown_city":"Tampa","hometown_state":"FL"},{"name":"Marshaun Ivy","year":2027,"position":"LB","stars":null,"rating_247":87.0,"committed_to":"Arizona State","lat":38.3566,"lng":-92.458,"hometown_city":"St. Louis","hometown_state":"MO"},{"name":"Jahmiere Daniels-Portis","year":2027,"position":"LB","stars":null,"rating_247":87.0,"committed_to":null,"lat":40.2862,"lng":-82.7937,"hometown_city":"Springfield","hometown_state":"OH"},{"name":"Noah Renes","year":2027,"position":"LB","stars":null,"rating_247":86.0,"committed_to":null,"lat":28.6305,"lng":-82.4497,"hometown_city":"Niceville","hometown_state":"FL"},{"name":"Jerrell Bridges","year":2027,"position":"LB","stars":null,"rating_247":86.0,"committed_to":"Houston","lat":31.4757,"lng":-99.3312,"hometown_city":"Midlothian","hometown_state":"TX"},{"name":"Olrick Johnson III","year":2027,"position":"LB","stars":null,"rating_247":86.0,"committed_to":null,"lat":32.6415,"lng":-83.4426,"hometown_city":"Kennesaw","hometown_state":"GA"},{"name":"Zion Paul","year":2027,"position":"LB","stars":null,"rating_247":null,"committed_to":null,"lat":32.6415,"lng":-83.4426,"hometown_city":"Warner Robins","hometown_state":"GA"},{"name":"Tyler Goebbel","year":2027,"position":"LB","stars":null,"rating_247":null,"committed_to":"Charlotte","lat":35.5557,"lng":-79.3877,"hometown_city":"Apex","hometown_state":"NC"},{"name":"Xavier Hasan","year":2027,"position":"CB","stars":null,"rating_247":94.0,"committed_to":"Notre Dame","lat":35.5557,"lng":-79.3877,"hometown_city":"Raleigh","hometown_state":"NC"},{"name":"Joshua Dobson","year":2027,"position":"CB","stars":null,"rating_247":94.0,"committed_to":null,"lat":35.5557,"lng":-79.3877,"hometown_city":"Cornelius","hometown_state":"NC"},{"name":"Amare Nugent","year":2027,"position":"CB","stars":null,"rating_247":90.0,"committed_to":"Florida","lat":28.6305,"lng":-82.4497,"hometown_city":"Plantation","hometown_state":"FL"},{"name":"Bryce Williams","year":2027,"position":"CB","stars":null,"rating_247":90.0,"committed_to":"Nebraska","lat":28.6305,"lng":-82.4497,"hometown_city":"Fort Lauderdale","hometown_state":"FL"},{"name":"Aidyn Wiggins","year":2027,"position":"CB","stars":null,"rating_247":89.0,"committed_to":"Auburn","lat":33.9169,"lng":-80.8964,"hometown_city":"Duncan","hometown_state":"SC"},{"name":"Chase Johnson","year":2027,"position":"CB","stars":null,"rating_247":89.0,"committed_to":"Virginia Tech","lat":32.6415,"lng":-83.4426,"hometown_city":"Twin City","hometown_state":"GA"},{"name":"MJ Burnett","year":2027,"position":"CB","stars":null,"rating_247":89.0,"committed_to":"Georgia Tech","lat":32.6415,"lng":-83.4426,"hometown_city":"Marietta","hometown_state":"GA"},{"name":"Darrius White","year":2027,"position":"CB","stars":null,"rating_247":89.0,"committed_to":null,"lat":32.6415,"lng":-83.4426,"hometown_city":"Fairburn","hometown_state":"GA"},{"name":"Bryce Woods","year":2027,"position":"CB","stars":null,"rating_247":88.0,"committed_to":"Virginia Tech","lat":32.6415,"lng":-83.4426,"hometown_city":"College Park","hometown_state":"GA"},{"name":"Akedran Crumel","year":2027,"position":"CB","stars":null,"rating_247":88.0,"committed_to":null,"lat":35.5557,"lng":-79.3877,"hometown_city":"Clayton","hometown_state":"NC"},{"name":"Khamani Estrada","year":2027,"position":"CB","stars":null,"rating_247":88.0,"committed_to":null,"lat":32.6415,"lng":-83.4426,"hometown_city":"Atlanta","hometown_state":"GA"},{"name":"Taylor Daniels","year":2027,"position":"CB","stars":null,"rating_247":88.0,"committed_to":"Minnesota","lat":40.1907,"lng":-74.6728,"hometown_city":"West Orange","hometown_state":"NJ"},{"name":"Masiia Acrey","year":2027,"position":"CB","stars":null,"rating_247":86.0,"committed_to":"Syracuse","lat":40.8781,"lng":-77.7996,"hometown_city":"Philadelphia","hometown_state":"PA"},{"name":"Miguel Wilson","year":2027,"position":"CB","stars":null,"rating_247":86.0,"committed_to":"Kentucky","lat":32.7794,"lng":-86.8287,"hometown_city":"Mobile","hometown_state":"AL"},{"name":"Jett Watson","year":2027,"position":"CB","stars":null,"rating_247":86.0,"committed_to":"Boston College","lat":32.6415,"lng":-83.4426,"hometown_city":"Loganville","hometown_state":"GA"},{"name":"Kaiden Watkins","year":2027,"position":"CB","stars":null,"rating_247":86.0,"committed_to":null,"lat":33.9169,"lng":-80.8964,"hometown_city":"Rock Hill","hometown_state":"SC"},{"name":"Larry Morgan III","year":2027,"position":"CB","stars":null,"rating_247":86.0,"committed_to":"South Florida","lat":28.6305,"lng":-82.4497,"hometown_city":"Boca Raton","hometown_state":"FL"},{"name":"Rilee Drew","year":2027,"position":"CB","stars":null,"rating_247":85.0,"committed_to":"Wake Forest","lat":32.6415,"lng":-83.4426,"hometown_city":"Loganville","hometown_state":"GA"},{"name":"Ta'Shawn Poole","year":2027,"position":"S","stars":null,"rating_247":93.0,"committed_to":null,"lat":32.6415,"lng":-83.4426,"hometown_city":"Macon","hometown_state":"GA"},{"name":"Chance Gilbert","year":2027,"position":"S","stars":null,"rating_247":92.0,"committed_to":"Auburn","lat":32.6415,"lng":-83.4426,"hometown_city":"Sharpsburg","hometown_state":"GA"},{"name":"Davion Jones","year":2027,"position":"S","stars":null,"rating_247":91.0,"committed_to":null,"lat":35.5557,"lng":-79.3877,"hometown_city":"Cornelius","hometown_state":"NC"},{"name":"KJ Caldwell","year":2027,"position":"S","stars":null,"rating_247":91.0,"committed_to":"North Carolina State","lat":32.6415,"lng":-83.4426,"hometown_city":"Lilburn","hometown_state":"GA"},{"name":"Jaylyn Jones","year":2027,"position":"S","stars":null,"rating_247":90.0,"committed_to":"Miami","lat":28.6305,"lng":-82.4497,"hometown_city":"Hollywood","hometown_state":"FL"},{"name":"Jeremiah Proctor","year":2027,"position":"S","stars":null,"rating_247":90.0,"committed_to":"Pittsburgh","lat":32.6415,"lng":-83.4426,"hometown_city":"Gainesville","hometown_state":"GA"},{"name":"Seth Williams","year":2027,"position":"S","stars":null,"rating_247":90.0,"committed_to":null,"lat":32.6415,"lng":-83.4426,"hometown_city":"Atlanta","hometown_state":"GA"},{"name":"Jayvon Dawson","year":2027,"position":"S","stars":null,"rating_247":89.0,"committed_to":"Miami","lat":28.6305,"lng":-82.4497,"hometown_city":"Lantana","hometown_state":"FL"},{"name":"Jernard Albright","year":2027,"position":"S","stars":null,"rating_247":89.0,"committed_to":"Florida State","lat":32.6415,"lng":-83.4426,"hometown_city":"Springfield","hometown_state":"GA"},{"name":"Kamarion Johnson","year":2027,"position":"S","stars":null,"rating_247":89.0,"committed_to":"Florida","lat":32.6415,"lng":-83.4426,"hometown_city":"Homerville","hometown_state":"GA"},{"name":"Brandon Lockley","year":2027,"position":"S","stars":null,"rating_247":89.0,"committed_to":"Oregon","lat":40.8781,"lng":-77.7996,"hometown_city":"Philadelphia","hometown_state":"PA"},{"name":"Kennedy Green","year":2027,"position":"S","stars":null,"rating_247":88.0,"committed_to":null,"lat":32.6415,"lng":-83.4426,"hometown_city":"Douglasville","hometown_state":"GA"},{"name":"Alex Scott","year":2027,"position":"S","stars":null,"rating_247":88.0,"committed_to":"North Carolina State","lat":32.6415,"lng":-83.4426,"hometown_city":"Lyons","hometown_state":"GA"},{"name":"Robert Geathers III","year":2027,"position":"S","stars":null,"rating_247":88.0,"committed_to":null,"lat":35.5557,"lng":-79.3877,"hometown_city":"Charlotte","hometown_state":"NC"},{"name":"London Goggans","year":2027,"position":"S","stars":null,"rating_247":87.0,"committed_to":"Kansas State","lat":32.6415,"lng":-83.4426,"hometown_city":"Loganville","hometown_state":"GA"},{"name":"Jameer Cantrell","year":2027,"position":"S","stars":null,"rating_247":87.0,"committed_to":null,"lat":32.6415,"lng":-83.4426,"hometown_city":"Buford","hometown_state":"GA"},{"name":"Aroson Randle Jr.","year":2027,"position":"ATH","stars":null,"rating_247":94.0,"committed_to":"Miami","lat":35.5557,"lng":-79.3877,"hometown_city":"Garner","hometown_state":"NC"},{"name":"Corey Hadley Jr.","year":2027,"position":"ATH","stars":null,"rating_247":90.0,"committed_to":"Nebraska","lat":32.6415,"lng":-83.4426,"hometown_city":"Tyrone","hometown_state":"GA"},{"name":"Austin Barrett","year":2027,"position":"ATH","stars":null,"rating_247":89.0,"committed_to":"Virginia Tech","lat":40.1907,"lng":-74.6728,"hometown_city":"Paramus","hometown_state":"NJ"},{"name":"Marquis Bryant","year":2027,"position":"ATH","stars":null,"rating_247":88.0,"committed_to":"Kentucky","lat":35.5557,"lng":-79.3877,"hometown_city":"Rolesville","hometown_state":"NC"},{"name":"Turmarian Moreland","year":2027,"position":"ATH","stars":null,"rating_247":88.0,"committed_to":null,"lat":28.6305,"lng":-82.4497,"hometown_city":"West Palm Beach","hometown_state":"FL"},{"name":"Lance Henderson","year":2027,"position":"ATH","stars":null,"rating_247":88.0,"committed_to":"Duke","lat":35.5557,"lng":-79.3877,"hometown_city":"Durham","hometown_state":"NC"},{"name":"Matt Williams","year":2027,"position":"ATH","stars":null,"rating_247":88.0,"committed_to":"Vanderbilt","lat":37.5215,"lng":-78.8537,"hometown_city":"Norfolk","hometown_state":"VA"},{"name":"Jonathan Galette","year":2027,"position":"ATH","stars":null,"rating_247":87.0,"committed_to":"Penn State","lat":40.1907,"lng":-74.6728,"hometown_city":"Montvale","hometown_state":"NJ"},{"name":"Tyson Washington","year":2027,"position":"ATH","stars":null,"rating_247":87.0,"committed_to":null,"lat":37.5215,"lng":-78.8537,"hometown_city":"Springfield","hometown_state":"VA"},{"name":"Kyle Davis","year":2027,"position":"ATH","stars":null,"rating_247":87.0,"committed_to":null,"lat":39.055,"lng":-76.7909,"hometown_city":"North Bethesda","hometown_state":"MD"},{"name":"Julian Elzey","year":2027,"position":"ATH","stars":null,"rating_247":87.0,"committed_to":"Georgia Tech","lat":32.6415,"lng":-83.4426,"hometown_city":"Snellville","hometown_state":"GA"},{"name":"James Westervelt","year":2027,"position":"ATH","stars":null,"rating_247":85.0,"committed_to":"Virginia","lat":39.055,"lng":-76.7909,"hometown_city":"Bel Air","hometown_state":"MD"},{"name":"Brawley Tuitupou","year":2027,"position":"ATH","stars":null,"rating_247":83.0,"committed_to":null,"lat":39.321,"lng":-111.0937,"hometown_city":"Orem","hometown_state":"UT"},{"name":"JoNavan Bryant","year":2027,"position":"ATH","stars":null,"rating_247":null,"committed_to":null,"lat":28.6305,"lng":-82.4497,"hometown_city":"Pensacola","hometown_state":"FL"},{"name":"Jayden Paulino","year":2027,"position":"ATH","stars":null,"rating_247":null,"committed_to":null,"lat":40.1907,"lng":-74.6728,"hometown_city":"Wayne","hometown_state":"NJ"},{"name":"Moses Barker","year":2027,"position":"K","stars":null,"rating_247":null,"committed_to":"North Carolina State","lat":35.5557,"lng":-79.3877,"hometown_city":"Fuquay Varina","hometown_state":"NC"}],"2028":[{"name":"Kaden Craft","year":2028,"position":"QB","stars":null,"rating_247":90.0,"committed_to":null,"lat":35.5557,"lng":-79.3877,"hometown_city":"Mooresville","hometown_state":"NC"},{"name":"Chris Miller","year":2028,"position":"QB","stars":null,"rating_247":null,"committed_to":null,"lat":32.6415,"lng":-83.4426,"hometown_city":"Acworth","hometown_state":"GA"},{"name":"Kevin Hartsfield","year":2028,"position":"RB","stars":null,"rating_247":90.0,"committed_to":null,"lat":32.6415,"lng":-83.4426,"hometown_city":"Covington","hometown_state":"GA"},{"name":"Taihj Moore","year":2028,"position":"RB","stars":null,"rating_247":89.0,"committed_to":null,"lat":28.6305,"lng":-82.4497,"hometown_city":"DeLand","hometown_state":"FL"},{"name":"Jacez Walton","year":2028,"position":"RB","stars":null,"rating_247":87.0,"committed_to":null,"lat":32.6415,"lng":-83.4426,"hometown_city":"Carrollton","hometown_state":"GA"},{"name":"Matthew Rogers","year":2028,"position":"RB","stars":null,"rating_247":87.0,"committed_to":null,"lat":35.858,"lng":-86.3505,"hometown_city":"Knoxville","hometown_state":"TN"},{"name":"Jordan McNeil","year":2028,"position":"RB","stars":null,"rating_247":null,"committed_to":null,"lat":32.6415,"lng":-83.4426,"hometown_city":"Thomasville","hometown_state":"GA"},{"name":"Derrell Hines Jr.","year":2028,"position":"WR","stars":null,"rating_247":90.0,"committed_to":null,"lat":28.6305,"lng":-82.4497,"hometown_city":"Tampa","hometown_state":"FL"},{"name":"Bubba Brown","year":2028,"position":"WR","stars":null,"rating_247":90.0,"committed_to":null,"lat":32.6415,"lng":-83.4426,"hometown_city":"Valdosta","hometown_state":"GA"},{"name":"Tromon Isaac Jr.","year":2028,"position":"WR","stars":null,"rating_247":90.0,"committed_to":null,"lat":28.6305,"lng":-82.4497,"hometown_city":"Hollywood","hometown_state":"FL"},{"name":"Nate Dollard","year":2028,"position":"WR","stars":null,"rating_247":90.0,"committed_to":null,"lat":35.5557,"lng":-79.3877,"hometown_city":"Charlotte","hometown_state":"NC"},{"name":"Peter Pierre","year":2028,"position":"WR","stars":null,"rating_247":90.0,"committed_to":null,"lat":28.6305,"lng":-82.4497,"hometown_city":"Hollywood","hometown_state":"FL"},{"name":"Jaden Jones","year":2028,"position":"WR","stars":null,"rating_247":90.0,"committed_to":null,"lat":40.8781,"lng":-77.7996,"hometown_city":"Pittsburgh","hometown_state":"PA"},{"name":"Marshaun Thornton","year":2028,"position":"WR","stars":null,"rating_247":89.0,"committed_to":null,"lat":40.0417,"lng":-89.1965,"hometown_city":"Chicago","hometown_state":"IL"},{"name":"Seven Rashad","year":2028,"position":"WR","stars":null,"rating_247":87.0,"committed_to":null,"lat":32.6415,"lng":-83.4426,"hometown_city":"Buford","hometown_state":"GA"},{"name":"Roderick Boyd Jr.","year":2028,"position":"WR","stars":null,"rating_247":87.0,"committed_to":null,"lat":31.4757,"lng":-99.3312,"hometown_city":"Humble","hometown_state":"TX"},{"name":"Isaiah Brown","year":2028,"position":"WR","stars":null,"rating_247":null,"committed_to":null,"lat":32.6415,"lng":-83.4426,"hometown_city":"Springfield","hometown_state":"GA"},{"name":"Avery Thompson","year":2028,"position":"WR","stars":null,"rating_247":null,"committed_to":null,"lat":37.5347,"lng":-85.3021,"hometown_city":"Paducah","hometown_state":"KY"},{"name":"Trey Finney","year":2028,"position":"WR","stars":null,"rating_247":null,"committed_to":null,"lat":31.4757,"lng":-99.3312,"hometown_city":"Willis","hometown_state":"TX"},{"name":"Corey Smith Jr.","year":2028,"position":"WR","stars":null,"rating_247":null,"committed_to":null,"lat":39.055,"lng":-76.7909,"hometown_city":"Olney","hometown_state":"MD"},{"name":"Joseph Gibbs","year":2028,"position":"WR","stars":null,"rating_247":null,"committed_to":null,"lat":35.5557,"lng":-79.3877,"hometown_city":"Haw River","hometown_state":"NC"},{"name":"Corey Smith","year":2028,"position":"WR","stars":null,"rating_247":null,"committed_to":null,"lat":39.055,"lng":-76.7909,"hometown_city":"Olney","hometown_state":"MD"},{"name":"Jevyn Severson","year":2028,"position":"TE","stars":null,"rating_247":90.0,"committed_to":null,"lat":42.0751,"lng":-93.496,"hometown_city":"Madrid","hometown_state":"IA"},{"name":"Xevien Brinson","year":2028,"position":"TE","stars":null,"rating_247":90.0,"committed_to":null,"lat":32.6415,"lng":-83.4426,"hometown_city":"Stone Mountain","hometown_state":"GA"},{"name":"Faraji Tucker","year":2028,"position":"TE","stars":null,"rating_247":null,"committed_to":null,"lat":32.6415,"lng":-83.4426,"hometown_city":"Douglasville","hometown_state":"GA"},{"name":"Luke Sohyda","year":2028,"position":"TE","stars":null,"rating_247":null,"committed_to":null,"lat":40.8781,"lng":-77.7996,"hometown_city":"Canonsburg","hometown_state":"PA"},{"name":"Bennett Conyers","year":2028,"position":"TE","stars":null,"rating_247":null,"committed_to":null,"lat":35.858,"lng":-86.3505,"hometown_city":"Nashville","hometown_state":"TN"},{"name":"Nation Farmer","year":2028,"position":"OT","stars":null,"rating_247":91.0,"committed_to":null,"lat":28.6305,"lng":-82.4497,"hometown_city":"Bradenton","hometown_state":"FL"},{"name":"Grayson Williams","year":2028,"position":"OT","stars":null,"rating_247":90.0,"committed_to":null,"lat":35.5557,"lng":-79.3877,"hometown_city":"Raleigh","hometown_state":"NC"},{"name":"Omari Lawson","year":2028,"position":"OT","stars":null,"rating_247":90.0,"committed_to":"Syracuse","lat":28.6305,"lng":-82.4497,"hometown_city":"Jacksonville","hometown_state":"FL"},{"name":"Jackson Snelling","year":2028,"position":"OT","stars":null,"rating_247":90.0,"committed_to":null,"lat":28.6305,"lng":-82.4497,"hometown_city":"Sarasota","hometown_state":"FL"},