{"2026":[{"name":"Brady Palmer","year":2026,"position":"QB","stars":3,"rating_247":83.0,"committed_to":"Temple","lat":26.1223084,"lng":-80.1433786,"hometown_city":"Fort Lauderdale","hometown_state":"FL"},{"name":"Patrick Greisen","year":2026,"position":"QB","stars":3,"rating_247":83.0,"committed_to":"South Dakota","lat":44.4487476,"lng":-88.0601086,"hometown_city":"De Pere","hometown_state":"WI"},{"name":"Nick Kinsey","year":2026,"position":"QB","stars":3,"rating_247":82.0,"committed_to":"Eastern Michigan","lat":41.083064,"lng":-81.518485,"hometown_city":"Akron","hometown_state":"OH"},{"name":"Kaden Harney","year":2026,"position":"QB","stars":null,"rating_247":null,"committed_to":"South Dakota State","lat":46.2807,"lng":-94.3053,"hometown_city":"Osseo","hometown_state":"MN"},{"name":"Max Warner","year":2026,"position":"RB","stars":null,"rating_247":87.0,"committed_to":"Missouri","lat":40.0417,"lng":-89.1965,"hometown_city":"Chicago","hometown_state":"IL"},{"name":"Jordan Taylor","year":2026,"position":"RB","stars":3,"rating_247":86.0,"committed_to":"Lindenwood","lat":38.6268039,"lng":-90.1994097,"hometown_city":"St. Louis","hometown_state":"MO"},{"name":"Gunner Thielges","year":2026,"position":"RB","stars":null,"rating_247":85.0,"committed_to":"North Dakota State","lat":47.4501,"lng":-100.4659,"hometown_city":"Lamoure","hometown_state":"ND"},{"name":"Godson Rufus-Okomhanru","year":2026,"position":"RB","stars":null,"rating_247":84.0,"committed_to":"North Dakota State","lat":46.2807,"lng":-94.3053,"hometown_city":"Saint Paul","hometown_state":"MN"},{"name":"Braylon Toliver","year":2026,"position":"RB","stars":3,"rating_247":83.0,"committed_to":"North Dakota State","lat":40.0146297,"lng":-105.10395109684542,"hometown_city":"Erie","hometown_state":"CO"},{"name":"Jahan Abubakar","year":2026,"position":"RB","stars":null,"rating_247":null,"committed_to":"South Dakota","lat":40.0417,"lng":-89.1965,"hometown_city":"New Lenox","hometown_state":"IL"},{"name":"Robert Haynes IV","year":2026,"position":"WR","stars":3,"rating_247":86.0,"committed_to":"Hawaii","lat":29.6185669,"lng":-95.5377215,"hometown_city":"Missouri City","hometown_state":"TX"},{"name":"Myles Ellis","year":2026,"position":"WR","stars":null,"rating_247":85.0,"committed_to":"North Dakota State","lat":40.0417,"lng":-89.1965,"hometown_city":"Flossmoor","hometown_state":"IL"},{"name":"Kye Schlichting","year":2026,"position":"WR","stars":null,"rating_247":85.0,"committed_to":"North Dakota State","lat":47.4501,"lng":-100.4659,"hometown_city":"West Fargo","hometown_state":"ND"},{"name":"Jermaine Green","year":2026,"position":"WR","stars":3,"rating_247":83.0,"committed_to":"Northern Illinois","lat":41.1366494,"lng":-95.8907373,"hometown_city":"Bellevue","hometown_state":"NE"},{"name":"Q Barnslater","year":2026,"position":"WR","stars":null,"rating_247":83.0,"committed_to":"North Dakota State","lat":46.2807,"lng":-94.3053,"hometown_city":"Apple Valley","hometown_state":"MN"},{"name":"Jhace Woods","year":2026,"position":"WR","stars":null,"rating_247":null,"committed_to":"South Dakota State","lat":44.4443,"lng":-100.2263,"hometown_city":"Sioux Falls","hometown_state":"SD"},{"name":"Tyler Ruxer","year":2026,"position":"TE","stars":4,"rating_247":89.0,"committed_to":"Oklahoma","lat":38.1211634,"lng":-86.9986077,"hometown_city":"Lincoln City","hometown_state":"IN"},{"name":"Kade Bush","year":2026,"position":"TE","stars":3,"rating_247":86.0,"committed_to":"West Virginia","lat":44.8618403,"lng":-93.5307207,"hometown_city":"Chanhassen","hometown_state":"MN"},{"name":"Will Vala","year":2026,"position":"TE","stars":3,"rating_247":86.0,"committed_to":"Illinois","lat":41.7938195,"lng":-88.010376,"hometown_city":"Downers Grove","hometown_state":"IL"},{"name":"Dallas Gaius-Anyaegbu","year":2026,"position":"TE","stars":3,"rating_247":83.0,"committed_to":"Fresno State","lat":41.2587459,"lng":-95.9383758,"hometown_city":"Omaha","hometown_state":"NE"},{"name":"Gabe Sema","year":2026,"position":"TE","stars":3,"rating_247":83.0,"committed_to":"Northern Arizona","lat":40.0146297,"lng":-105.10395109684542,"hometown_city":"Erie","hometown_state":"CO"},{"name":"Caden Ward","year":2026,"position":"TE","stars":3,"rating_247":83.0,"committed_to":"North Dakota State","lat":29.3685674,"lng":-94.9713134,"hometown_city":"La Marque","hometown_state":"TX"},{"name":"Colten Gunderson","year":2026,"position":"TE","stars":null,"rating_247":null,"committed_to":"North Dakota State","lat":46.2807,"lng":-94.3053,"hometown_city":"Prior Lake","hometown_state":"MN"},{"name":"Grant Kuhlmann","year":2026,"position":"TE","stars":null,"rating_247":null,"committed_to":"South Dakota State","lat":41.5378,"lng":-99.7951,"hometown_city":"Lincoln","hometown_state":"NE"},{"name":"Carson Nielsen","year":2026,"position":"OT","stars":4,"rating_247":91.0,"committed_to":"Iowa","lat":42.4979693,"lng":-92.3329637,"hometown_city":"Waterloo","hometown_state":"IA"},{"name":"Jack Fuchs","year":2026,"position":"OT","stars":3,"rating_247":88.0,"committed_to":"Northwestern","lat":36.3049177,"lng":-86.621443,"hometown_city":"Hendersonville","hometown_state":"TN"},{"name":"Leighton Burbach","year":2026,"position":"OT","stars":3,"rating_247":88.0,"committed_to":"Northwestern","lat":42.0283379,"lng":-97.4169964,"hometown_city":"Norfolk","hometown_state":"NE"},{"name":"Gavin Meier","year":2026,"position":"OT","stars":3,"rating_247":88.0,"committed_to":"Minnesota","lat":42.6829765,"lng":-89.0226793,"hometown_city":"Janesville","hometown_state":"WI"},{"name":"Trey McPartland","year":2026,"position":"OT","stars":null,"rating_247":84.0,"committed_to":"North Dakota State","lat":47.4501,"lng":-100.4659,"hometown_city":"Valley City","hometown_state":"ND"},{"name":"Aiden Wunderlich","year":2026,"position":"OT","stars":null,"rating_247":null,"committed_to":"North Dakota","lat":47.4501,"lng":-100.4659,"hometown_city":"Casselton","hometown_state":"ND"},{"name":"Wyatt Graffin","year":2026,"position":"IOL","stars":3,"rating_247":86.0,"committed_to":"Central Michigan","lat":43.3392616,"lng":-89.0157723,"hometown_city":"Columbus","hometown_state":"WI"},{"name":"Earl Brown","year":2026,"position":"IOL","stars":null,"rating_247":86.0,"committed_to":"North Dakota State","lat":46.2807,"lng":-94.3053,"hometown_city":"Pillager","hometown_state":"MN"},{"name":"Tucker Thieneman","year":2026,"position":"IOL","stars":3,"rating_247":85.0,"committed_to":"North Dakota State","lat":43.0805651,"lng":-88.2612045,"hometown_city":"Pewaukee","hometown_state":"WI"},{"name":"Andrew Hine","year":2026,"position":"IOL","stars":null,"rating_247":null,"committed_to":"Army","lat":42.0751,"lng":-93.496,"hometown_city":"Waukee","hometown_state":"IA"},{"name":"Solomon Baker","year":2026,"position":"Edge","stars":3,"rating_247":85.0,"committed_to":"Fresno State","lat":41.2587459,"lng":-95.9383758,"hometown_city":"Omaha","hometown_state":"NE"},{"name":"Ian Campbell","year":2026,"position":"Edge","stars":3,"rating_247":82.0,"committed_to":"Navy","lat":41.5263603,"lng":-88.0840212,"hometown_city":"Joliet","hometown_state":"IL"},{"name":"Elias Janssen","year":2026,"position":"Edge","stars":null,"rating_247":null,"committed_to":"South Dakota State","lat":44.6243,"lng":-89.9941,"hometown_city":"Kimberly","hometown_state":"WI"},{"name":"Hudson Parliament","year":2026,"position":"DL","stars":4,"rating_247":89.0,"committed_to":"Iowa","lat":43.594727,"lng":-96.572128,"hometown_city":"Brandon","hometown_state":"SD"},{"name":"Sawyer Jezierski","year":2026,"position":"DL","stars":3,"rating_247":87.0,"committed_to":"Iowa","lat":44.8897027,"lng":-93.3501222,"hometown_city":"Edina","hometown_state":"MN"},{"name":"Aiden Solecki","year":2026,"position":"DL","stars":3,"rating_247":85.0,"committed_to":"Purdue","lat":41.7938195,"lng":-88.010376,"hometown_city":"Downers Grove","hometown_state":"IL"},{"name":"Ryan Westrich","year":2026,"position":"DL","stars":null,"rating_247":84.0,"committed_to":"Western Michigan","lat":44.6243,"lng":-89.9941,"hometown_city":"Bonduel","hometown_state":"WI"},{"name":"Daniel Devine","year":2026,"position":"DL","stars":null,"rating_247":84.0,"committed_to":"North Dakota State","lat":46.2807,"lng":-94.3053,"hometown_city":"Minneapolis","hometown_state":"MN"},{"name":"Skyler Werner","year":2026,"position":"DL","stars":null,"rating_247":82.0,"committed_to":"North Dakota State","lat":46.2807,"lng":-94.3053,"hometown_city":"Prior Lake","hometown_state":"MN"},{"name":"Zach Hellendrung","year":2026,"position":"DL","stars":null,"rating_247":82.0,"committed_to":"North Dakota State","lat":44.6243,"lng":-89.9941,"hometown_city":"Boyceville","hometown_state":"WI"},{"name":"Jason Hunter Jr.","year":2026,"position":"DL","stars":null,"rating_247":null,"committed_to":"North Dakota State","lat":47.4501,"lng":-100.4659,"hometown_city":"Fargo","hometown_state":"ND"},{"name":"Hans Pederson","year":2026,"position":"DL","stars":null,"rating_247":null,"committed_to":"Army","lat":46.2807,"lng":-94.3053,"hometown_city":"Buffalo","hometown_state":"MN"},{"name":"Ben Wenzel","year":2026,"position":"LB","stars":3,"rating_247":86.0,"committed_to":"Wisconsin","lat":44.2611337,"lng":-88.4067604,"hometown_city":"Appleton","hometown_state":"WI"},{"name":"Cash Danner","year":2026,"position":"LB","stars":null,"rating_247":84.0,"committed_to":"North Dakota State","lat":47.4501,"lng":-100.4659,"hometown_city":"Thompson","hometown_state":"ND"},{"name":"Jack Wilson","year":2026,"position":"LB","stars":3,"rating_247":83.0,"committed_to":"North Dakota State","lat":43.008665,"lng":-89.7384145,"hometown_city":"Mount Horeb","hometown_state":"WI"},{"name":"Trashundon Neal","year":2026,"position":"CB","stars":null,"rating_247":88.0,"committed_to":"Missouri","lat":38.3566,"lng":-92.458,"hometown_city":"Liberty","hometown_state":"MO"},{"name":"Lavonte Williams","year":2026,"position":"CB","stars":null,"rating_247":87.0,"committed_to":"Louisiana State","lat":32.6415,"lng":-83.4426,"hometown_city":"Milledgeville","hometown_state":"GA"},{"name":"Garrick Dixon","year":2026,"position":"CB","stars":3,"rating_247":86.0,"committed_to":"Kansas State","lat":38.7910374,"lng":-90.7039107,"hometown_city":"O'Fallon","hometown_state":"MO"},{"name":"Kobe Russell","year":2026,"position":"CB","stars":3,"rating_247":85.0,"committed_to":"North Dakota State","lat":44.7488565,"lng":-92.8021471,"hometown_city":"Prescott","hometown_state":"WI"},{"name":"Robert Hunter","year":2026,"position":"CB","stars":null,"rating_247":85.0,"committed_to":"South Dakota State","lat":38.4937,"lng":-98.3804,"hometown_city":"Hutchinson","hometown_state":"KS"},{"name":"Brayden Dozier","year":2026,"position":"CB","stars":3,"rating_247":84.0,"committed_to":"North Dakota State","lat":45.11715785,"lng":-93.39877096552499,"hometown_city":"Osseo","hometown_state":"MN"},{"name":"Deron Russell","year":2026,"position":"CB","stars":null,"rating_247":84.0,"committed_to":"North Dakota State","lat":46.2807,"lng":-94.3053,"hometown_city":"Waseca","hometown_state":"MN"},{"name":"Kendall Griffin","year":2026,"position":"CB","stars":3,"rating_247":82.0,"committed_to":"Wyoming","lat":41.8755616,"lng":-87.6244212,"hometown_city":"Chicago","hometown_state":"IL"},{"name":"Bryson Williams","year":2026,"position":"S","stars":3,"rating_247":87.0,"committed_to":"Penn State","lat":41.2587459,"lng":-95.9383758,"hometown_city":"Omaha","hometown_state":"NE"},{"name":"Damarius Lavender","year":2026,"position":"S","stars":3,"rating_247":83.0,"committed_to":null,"lat":39.6482059,"lng":-104.9879641,"hometown_city":"Englewood","hometown_state":"CO"},{"name":"Julian Manson","year":2026,"position":"ATH","stars":4,"rating_247":90.0,"committed_to":"Iowa","lat":41.6612561,"lng":-91.5299106,"hometown_city":"Iowa City","hometown_state":"IA"},{"name":"Pierce Petersohn","year":2026,"position":"ATH","stars":4,"rating_247":89.0,"committed_to":"Virginia Tech","lat":44.0280202,"lng":-92.8547287,"hometown_city":"Dodge Center","hometown_state":"MN"},{"name":"Brody Schaffer","year":2026,"position":"ATH","stars":null,"rating_247":89.0,"committed_to":"Iowa","lat":44.6243,"lng":-89.9941,"hometown_city":"Winneconne","hometown_state":"WI"},{"name":"Jett Goldsberry","year":2026,"position":"ATH","stars":3,"rating_247":88.0,"committed_to":"Purdue","lat":38.1211634,"lng":-86.9986077,"hometown_city":"Lincoln City","hometown_state":"IN"},{"name":"Keaton Reinke","year":2026,"position":"ATH","stars":3,"rating_247":86.0,"committed_to":"Northwestern","lat":41.9139509,"lng":-88.31253,"hometown_city":"St. Charles","hometown_state":"IL"},{"name":"Brandon Walton","year":2026,"position":"ATH","stars":3,"rating_247":85.0,"committed_to":"North Dakota State","lat":42.5846773,"lng":-87.8212263,"hometown_city":"Kenosha","hometown_state":"WI"},{"name":"Caden Considine","year":2026,"position":"ATH","stars":null,"rating_247":84.0,"committed_to":"Illinois","lat":40.0417,"lng":-89.1965,"hometown_city":"Byron","hometown_state":"IL"},{"name":"Michael Farr","year":2026,"position":"ATH","stars":3,"rating_247":84.0,"committed_to":"South Dakota State","lat":42.7260523,"lng":-87.7825242,"hometown_city":"Racine","hometown_state":"WI"},{"name":"Zach Becker","year":2026,"position":"ATH","stars":3,"rating_247":84.0,"committed_to":"Ball State","lat":42.1900249,"lng":-87.9084039,"hometown_city":"Lincolnshire","hometown_state":"IL"},{"name":"AJ Seymour","year":2026,"position":"ATH","stars":null,"rating_247":81.0,"committed_to":"Ball State","lat":44.6243,"lng":-89.9941,"hometown_city":"Brookfield","hometown_state":"WI"},{"name":"Eli Robbins","year":2026,"position":"ATH","stars":null,"rating_247":null,"committed_to":"Iowa","lat":42.0751,"lng":-93.496,"hometown_city":"Norwalk","hometown_state":"IA"},{"name":"Amari Williams","year":2026,"position":"ATH","stars":null,"rating_247":null,"committed_to":"South Dakota State","lat":38.3566,"lng":-92.458,"hometown_city":"St. Louis","hometown_state":"MO"},{"name":"Noah Daniel","year":2026,"position":"ATH","stars":null,"rating_247":null,"committed_to":"Iowa","lat":42.0751,"lng":-93.496,"hometown_city":"Fort Dodge","hometown_state":"IA"},{"name":"Isaiah Oliver","year":2026,"position":"ATH","stars":null,"rating_247":null,"committed_to":"Iowa","lat":42.0751,"lng":-93.496,"hometown_city":"Waukee","hometown_state":"IA"},{"name":"Rashad Smith","year":2026,"position":"ATH","stars":null,"rating_247":null,"committed_to":null,"lat":28.6305,"lng":-82.4497,"hometown_city":"Largo","hometown_state":"FL"}],"2027":[{"name":"Carter Temple","year":2027,"position":"QB","stars":null,"rating_247":87.0,"committed_to":"North Dakota State","lat":38.3566,"lng":-92.458,"hometown_city":"Kearney","hometown_state":"MO"},{"name":"Jett Feeney","year":2027,"position":"QB","stars":null,"rating_247":86.0,"committed_to":"Minnesota","lat":46.2807,"lng":-94.3053,"hometown_city":"Moorhead","hometown_state":"MN"},{"name":"Michael Vander Luitgaren","year":2027,"position":"QB","stars":null,"rating_247":83.0,"committed_to":"Wyoming","lat":40.0417,"lng":-89.1965,"hometown_city":"Batavia","hometown_state":"IL"},{"name":"Marquise Reese","year":2027,"position":"QB","stars":null,"rating_247":null,"committed_to":"Colorado State","lat":38.9972,"lng":-105.5478,"hometown_city":"Littleton","hometown_state":"CO"},{"name":"Kason Delgado","year":2027,"position":"QB","stars":null,"rating_247":null,"committed_to":null,"lat":35.5889,"lng":-97.4943,"hometown_city":"Mustang","hometown_state":"OK"},{"name":"Taye Reich","year":2027,"position":"RB","stars":null,"rating_247":87.0,"committed_to":"Minnesota","lat":46.2807,"lng":-94.3053,"hometown_city":"Moorhead","hometown_state":"MN"},{"name":"Kylonn Haynie","year":2027,"position":"RB","stars":null,"rating_247":86.0,"committed_to":null,"lat":41.5378,"lng":-99.7951,"hometown_city":"Omaha","hometown_state":"NE"},{"name":"Martin Sleen","year":2027,"position":"RB","stars":null,"rating_247":null,"committed_to":"North Dakota State","lat":46.2807,"lng":-94.3053,"hometown_city":"Duluth","hometown_state":"MN"},{"name":"Austyn Wittek","year":2027,"position":"RB","stars":null,"rating_247":null,"committed_to":"North Dakota State","lat":44.6243,"lng":-89.9941,"hometown_city":"New Richmond","hometown_state":"WI"},{"name":"Steven Alexis","year":2027,"position":"RB","stars":null,"rating_247":null,"committed_to":"Colorado","lat":28.6305,"lng":-82.4497,"hometown_city":"St. Petersburg","hometown_state":"FL"},{"name":"Zach Shatek","year":2027,"position":"RB","stars":null,"rating_247":null,"committed_to":"South Dakota State","lat":46.2807,"lng":-94.3053,"hometown_city":"Hastings","hometown_state":"MN"},{"name":"Iveon Lewis","year":2027,"position":"WR","stars":null,"rating_247":89.0,"committed_to":"Kentucky","lat":37.5215,"lng":-78.8537,"hometown_city":"Richmond","hometown_state":"VA"},{"name":"Jason Wooden","year":2027,"position":"WR","stars":null,"rating_247":85.0,"committed_to":"Iowa State","lat":31.4757,"lng":-99.3312,"hometown_city":"McKinney","hometown_state":"TX"},{"name":"Ake O'Neal","year":2027,"position":"WR","stars":null,"rating_247":85.0,"committed_to":null,"lat":31.4757,"lng":-99.3312,"hometown_city":"Argyle","hometown_state":"TX"},{"name":"Jeremy Tolliver","year":2027,"position":"WR","stars":null,"rating_247":null,"committed_to":"North Dakota State","lat":28.6305,"lng":-82.4497,"hometown_city":"Tampa","hometown_state":"FL"},{"name":"Zach Forbish","year":2027,"position":"WR","stars":null,"rating_247":null,"committed_to":"Michigan State","lat":31.4757,"lng":-99.3312,"hometown_city":"Frisco","hometown_state":"TX"},{"name":"Ebube Ezukanma","year":2027,"position":"WR","stars":null,"rating_247":null,"committed_to":"North Dakota State","lat":31.4757,"lng":-99.3312,"hometown_city":"Keller","hometown_state":"TX"},{"name":"Drake Mikkelsen","year":2027,"position":"TE","stars":null,"rating_247":90.0,"committed_to":"Minnesota","lat":44.4443,"lng":-100.2263,"hometown_city":"Lennox","hometown_state":"SD"},{"name":"Korz Loken","year":2027,"position":"TE","stars":null,"rating_247":90.0,"committed_to":"Wisconsin","lat":44.6243,"lng":-89.9941,"hometown_city":"Iola","hometown_state":"WI"},{"name":"Ben Hynek","year":2027,"position":"TE","stars":null,"rating_247":89.0,"committed_to":"Kansas State","lat":47.4501,"lng":-100.4659,"hometown_city":"Stanley","hometown_state":"ND"},{"name":"Drew Kessel","year":2027,"position":"TE","stars":null,"rating_247":87.0,"committed_to":"North Dakota State","lat":47.4501,"lng":-100.4659,"hometown_city":"Fargo","hometown_state":"ND"},{"name":"Nate Roberts","year":2027,"position":"TE","stars":null,"rating_247":null,"committed_to":null,"lat":40.0417,"lng":-89.1965,"hometown_city":"Bloomington","hometown_state":"IL"},{"name":"Brett Livingston","year":2027,"position":"TE","stars":null,"rating_247":null,"committed_to":null,"lat":47.4501,"lng":-100.4659,"hometown_city":"West Fargo","hometown_state":"ND"},{"name":"Hunter Peterson","year":2027,"position":"TE","stars":null,"rating_247":null,"committed_to":"North Dakota State","lat":44.4443,"lng":-100.2263,"hometown_city":"Watertown","hometown_state":"SD"},{"name":"Brett Singler","year":2027,"position":"TE","stars":null,"rating_247":null,"committed_to":null,"lat":44.6243,"lng":-89.9941,"hometown_city":"Shiocton","hometown_state":"WI"},{"name":"Cole Reiter","year":2027,"position":"OT","stars":null,"rating_247":91.0,"committed_to":"Wisconsin","lat":44.6243,"lng":-89.9941,"hometown_city":"Germantown","hometown_state":"WI"},{"name":"Nate Brenneman","year":2027,"position":"OT","stars":null,"rating_247":89.0,"committed_to":"Iowa","lat":42.0751,"lng":-93.496,"hometown_city":"Rock Valley","hometown_state":"IA"},{"name":"Brady Moranski","year":2027,"position":"OT","stars":null,"rating_247":86.0,"committed_to":"Wake Forest","lat":44.6243,"lng":-89.9941,"hometown_city":"Germantown","hometown_state":"WI"},{"name":"Peyton Schuster","year":2027,"position":"OT","stars":null,"rating_247":83.0,"committed_to":"Wake Forest","lat":44.6243,"lng":-89.9941,"hometown_city":"Waterford","hometown_state":"WI"},{"name":"Brendan Meaney","year":2027,"position":"OT","stars":null,"rating_247":null,"committed_to":null,"lat":42.0751,"lng":-93.496,"hometown_city":"Janesville","hometown_state":"IA"},{"name":"Bryce Vigness","year":2027,"position":"IOL","stars":null,"rating_247":87.0,"committed_to":"North Dakota State","lat":41.5378,"lng":-99.7951,"hometown_city":"Papillion","hometown_state":"NE"},{"name":"Will Clausen","year":2027,"position":"IOL","stars":null,"rating_247":87.0,"committed_to":"Minnesota","lat":42.0751,"lng":-93.496,"hometown_city":"Cedar Rapids","hometown_state":"IA"},{"name":"Andrew Matt","year":2027,"position":"IOL","stars":null,"rating_247":null,"committed_to":"North Dakota State","lat":47.4501,"lng":-100.4659,"hometown_city":"Carrington","hometown_state":"ND"},{"name":"Jack Tabbert","year":2027,"position":"IOL","stars":null,"rating_247":null,"committed_to":"Wisconsin","lat":44.6243,"lng":-89.9941,"hometown_city":"Pewaukee","hometown_state":"WI"},{"name":"Jerrence Knoblock","year":2027,"position":"Edge","stars":null,"rating_247":89.0,"committed_to":"Iowa","lat":42.0751,"lng":-93.496,"hometown_city":"Inwood","hometown_state":"IA"},{"name":"Clarence Johnson Jr.","year":2027,"position":"Edge","stars":null,"rating_247":89.0,"committed_to":"Kansas","lat":46.2807,"lng":-94.3053,"hometown_city":"Saint Paul","hometown_state":"MN"},{"name":"Dorian Ward","year":2027,"position":"Edge","stars":null,"rating_247":null,"committed_to":"North Dakota State","lat":46.2807,"lng":-94.3053,"hometown_city":"Minneapolis","hometown_state":"MN"},{"name":"Guardian Harris","year":2027,"position":"Edge","stars":null,"rating_247":null,"committed_to":"North Dakota State","lat":44.6243,"lng":-89.9941,"hometown_city":"Fond Du Lac","hometown_state":"WI"},{"name":"Jacob Sokoll","year":2027,"position":"Edge","stars":null,"rating_247":null,"committed_to":"North Dakota State","lat":46.2807,"lng":-94.3053,"hometown_city":"Saint Paul","hometown_state":"MN"},{"name":"Mason Cotton Mehta","year":2027,"position":"Edge","stars":null,"rating_247":null,"committed_to":null,"lat":41.5378,"lng":-99.7951,"hometown_city":"Lincoln","hometown_state":"NE"},{"name":"Hunter Black","year":2027,"position":"Edge","stars":null,"rating_247":null,"committed_to":null,"lat":31.4757,"lng":-99.3312,"hometown_city":"Bryan","hometown_state":"TX"},{"name":"Luke Starcevic","year":2027,"position":"DL","stars":null,"rating_247":91.0,"committed_to":"Clemson","lat":47.4501,"lng":-100.4659,"hometown_city":"Kindred","hometown_state":"ND"},{"name":"Nehemiah Ombati","year":2027,"position":"DL","stars":null,"rating_247":89.0,"committed_to":"Nebraska","lat":46.2807,"lng":-94.3053,"hometown_city":"Shakopee","hometown_state":"MN"},{"name":"Tiki Teeples","year":2027,"position":"DL","stars":null,"rating_247":86.0,"committed_to":"Utah","lat":34.2744,"lng":-111.6602,"hometown_city":"Waddell","hometown_state":"AZ"},{"name":"Jameson Honey","year":2027,"position":"DL","stars":null,"rating_247":86.0,"committed_to":"Northern Illinois","lat":38.3566,"lng":-92.458,"hometown_city":"St. Louis","hometown_state":"MO"},{"name":"Gage Geyer","year":2027,"position":"DL","stars":null,"rating_247":86.0,"committed_to":"Minnesota","lat":46.2807,"lng":-94.3053,"hometown_city":"Edina","hometown_state":"MN"},{"name":"Ethan Howey","year":2027,"position":"DL","stars":null,"rating_247":85.0,"committed_to":"North Dakota","lat":47.4501,"lng":-100.4659,"hometown_city":"Minot","hometown_state":"ND"},{"name":"Brenham Cherne","year":2027,"position":"DL","stars":null,"rating_247":84.0,"committed_to":null,"lat":31.4757,"lng":-99.3312,"hometown_city":"Melissa","hometown_state":"TX"},{"name":"Zivad Robinson","year":2027,"position":"DL","stars":null,"rating_247":84.0,"committed_to":"Iowa State","lat":46.2807,"lng":-94.3053,"hometown_city":"Minneapolis","hometown_state":"MN"},{"name":"Andrew Oldham","year":2027,"position":"DL","stars":null,"rating_247":null,"committed_to":null,"lat":38.3566,"lng":-92.458,"hometown_city":"Chesterfield","hometown_state":"MO"},{"name":"Lucas Diehl","year":2027,"position":"DL","stars":null,"rating_247":null,"committed_to":"North Dakota State","lat":42.0751,"lng":-93.496,"hometown_city":"Carroll","hometown_state":"IA"},{"name":"Leif Karlson","year":2027,"position":"DL","stars":null,"rating_247":null,"committed_to":"South Dakota State","lat":44.4443,"lng":-100.2263,"hometown_city":"Lennox","hometown_state":"SD"},{"name":"Jack Noonan","year":2027,"position":"DL","stars":null,"rating_247":null,"committed_to":"North Dakota State","lat":46.2807,"lng":-94.3053,"hometown_city":"Rosemount","hometown_state":"MN"},{"name":"Andrej Sabatka","year":2027,"position":"DL","stars":null,"rating_247":null,"committed_to":"North Dakota State","lat":41.5378,"lng":-99.7951,"hometown_city":"Hastings","hometown_state":"NE"},{"name":"Tate Wallace","year":2027,"position":"LB","stars":null,"rating_247":90.0,"committed_to":"Minnesota","lat":42.0751,"lng":-93.496,"hometown_city":"Iowa City","hometown_state":"IA"},{"name":"Kason Clayborne","year":2027,"position":"LB","stars":null,"rating_247":87.0,"committed_to":"Minnesota","lat":42.0751,"lng":-93.496,"hometown_city":"Sioux City","hometown_state":"IA"},{"name":"Keaton Wollan","year":2027,"position":"LB","stars":null,"rating_247":86.0,"committed_to":"Wisconsin","lat":44.6243,"lng":-89.9941,"hometown_city":"Amery","hometown_state":"WI"},{"name":"Blake Loughlin","year":2027,"position":"LB","stars":null,"rating_247":86.0,"committed_to":"Northwestern","lat":46.2807,"lng":-94.3053,"hometown_city":"Shakopee","hometown_state":"MN"},{"name":"Matthew Brady","year":2027,"position":"LB","stars":null,"rating_247":85.0,"committed_to":"Michigan State","lat":40.0417,"lng":-89.1965,"hometown_city":"Bloomington","hometown_state":"IL"},{"name":"Andrew McGee","year":2027,"position":"LB","stars":null,"rating_247":null,"committed_to":"North Dakota","lat":46.2807,"lng":-94.3053,"hometown_city":"Shakopee","hometown_state":"MN"},{"name":"Xavier Jones","year":2027,"position":"LB","stars":null,"rating_247":null,"committed_to":null,"lat":42.0751,"lng":-93.496,"hometown_city":"Sergeant Bluff","hometown_state":"IA"},{"name":"Hayden Waller","year":2027,"position":"LB","stars":null,"rating_247":null,"committed_to":null,"lat":31.4757,"lng":-99.3312,"hometown_city":"Brock","hometown_state":"TX"},{"name":"Miles Felton","year":2027,"position":"LB","stars":null,"rating_247":null,"committed_to":null,"lat":46.2807,"lng":-94.3053,"hometown_city":"Champlin","hometown_state":"MN"},{"name":"Ashton Van Beek","year":2027,"position":"LB","stars":null,"rating_247":null,"committed_to":"North Dakota State","lat":44.6243,"lng":-89.9941,"hometown_city":"Neenah","hometown_state":"WI"},{"name":"Zion Garrett","year":2027,"position":"LB","stars":null,"rating_247":null,"committed_to":null,"lat":28.6305,"lng":-82.4497,"hometown_city":"Tampa","hometown_state":"FL"},{"name":"Turner Hanke","year":2027,"position":"LB","stars":null,"rating_247":null,"committed_to":"South Dakota State","lat":41.5378,"lng":-99.7951,"hometown_city":"Central City","hometown_state":"NE"},{"name":"John Catlin IV","year":2027,"position":"CB","stars":null,"rating_247":87.0,"committed_to":null,"lat":31.4757,"lng":-99.3312,"hometown_city":"Denton","hometown_state":"TX"},{"name":"Zak Walker","year":2027,"position":"CB","stars":null,"rating_247":87.0,"committed_to":"Minnesota","lat":46.2807,"lng":-94.3053,"hometown_city":"Moorhead","hometown_state":"MN"},{"name":"Azavier McDaniel","year":2027,"position":"CB","stars":null,"rating_247":84.0,"committed_to":null,"lat":39.3289,"lng":-116.6312,"hometown_city":"Las Vegas","hometown_state":"NV"},{"name":"Aiden Green","year":2027,"position":"CB","stars":null,"rating_247":null,"committed_to":"Western Michigan","lat":47.4501,"lng":-100.4659,"hometown_city":"West Fargo","hometown_state":"ND"},{"name":"Jackson Cook","year":2027,"position":"CB","stars":null,"rating_247":null,"committed_to":"North Dakota State","lat":40.0417,"lng":-89.1965,"hometown_city":"Machesney Park","hometown_state":"IL"},{"name":"Cashmere Coleman","year":2027,"position":"CB","stars":null,"rating_247":null,"committed_to":null,"lat":40.0417,"lng":-89.1965,"hometown_city":"La Grange Park","hometown_state":"IL"},{"name":"Shahariam Thurston","year":2027,"position":"CB","stars":null,"rating_247":null,"committed_to":null,"lat":31.4757,"lng":-99.3312,"hometown_city":"Arlington","hometown_state":"TX"},{"name":"Hassan Smith","year":2027,"position":"CB","stars":null,"rating_247":null,"committed_to":"Boise State","lat":34.2744,"lng":-111.6602,"hometown_city":"Scottsdale","hometown_state":"AZ"},{"name":"Samajai Davis","year":2027,"position":"CB","stars":null,"rating_247":null,"committed_to":"Boston College","lat":31.4757,"lng":-99.3312,"hometown_city":"Arlington","hometown_state":"TX"},{"name":"Kingston Allen","year":2027,"position":"S","stars":null,"rating_247":91.0,"committed_to":"Wisconsin","lat":44.6243,"lng":-89.9941,"hometown_city":"Green Bay","hometown_state":"WI"},{"name":"Kevin Grant","year":2027,"position":"S","stars":null,"rating_247":89.0,"committed_to":null,"lat":31.4757,"lng":-99.3312,"hometown_city":"Arlington","hometown_state":"TX"},{"name":"Wyatt Liebentritt","year":2027,"position":"S","stars":null,"rating_247":88.0,"committed_to":"Minnesota","lat":41.5378,"lng":-99.7951,"hometown_city":"Omaha","hometown_state":"NE"},{"name":"Blake Betton","year":2027,"position":"S","stars":null,"rating_247":88.0,"committed_to":"Penn State","lat":46.2807,"lng":-94.3053,"hometown_city":"Shakopee","hometown_state":"MN"},{"name":"James Johnson","year":2027,"position":"S","stars":null,"rating_247":87.0,"committed_to":"Cincinnati","lat":40.0417,"lng":-89.1965,"hometown_city":"Belleville","hometown_state":"IL"},{"name":"Luke Stevens","year":2027,"position":"S","stars":null,"rating_247":85.0,"committed_to":"Arizona","lat":31.4757,"lng":-99.3312,"hometown_city":"North Richland Hills","hometown_state":"TX"},{"name":"Robenson Duclona","year":2027,"position":"S","stars":null,"rating_247":84.0,"committed_to":"North Dakota State","lat":28.6305,"lng":-82.4497,"hometown_city":"Fort Myers","hometown_state":"FL"},{"name":"Connor Hites","year":2027,"position":"S","stars":null,"rating_247":null,"committed_to":null,"lat":40.0417,"lng":-89.1965,"hometown_city":"Chicago","hometown_state":"IL"},{"name":"James McGrath","year":2027,"position":"S","stars":null,"rating_247":null,"committed_to":null,"lat":40.0417,"lng":-89.1965,"hometown_city":"Wheaton","hometown_state":"IL"},{"name":"Cody Braun","year":2027,"position":"S","stars":null,"rating_247":null,"committed_to":"North Dakota State","lat":46.2807,"lng":-94.3053,"hometown_city":"Minnetonka","hometown_state":"MN"},{"name":"Tyrone Howard Jr.","year":2027,"position":"S","stars":null,"rating_247":null,"committed_to":null,"lat":28.6305,"lng":-82.4497,"hometown_city":"Naples","hometown_state":"FL"},{"name":"Brooks Bakko","year":2027,"position":"ATH","stars":null,"rating_247":91.0,"committed_to":"Minnesota","lat":47.4501,"lng":-100.4659,"hometown_city":"Kindred","hometown_state":"ND"},{"name":"Cristian Mbamarah","year":2027,"position":"ATH","stars":null,"rating_247":89.0,"committed_to":"Northwestern","lat":38.9972,"lng":-105.5478,"hometown_city":"Aurora","hometown_state":"CO"},{"name":"Jaxon Brown","year":2027,"position":"ATH","stars":null,"rating_247":null,"committed_to":null,"lat":46.2807,"lng":-94.3053,"hometown_city":"Plymouth","hometown_state":"MN"},{"name":"Brady Lee","year":2027,"position":"ATH","stars":null,"rating_247":null,"committed_to":"North Dakota","lat":44.6243,"lng":-89.9941,"hometown_city":"La Crosse","hometown_state":"WI"},{"name":"Zechariah Wallace","year":2027,"position":"ATH","stars":null,"rating_247":null,"committed_to":"Western Michigan","lat":39.8942,"lng":-86.2816,"hometown_city":"Indianapolis","hometown_state":"IN"}],"2028":[{"name":"Lamar Osterhues","year":2028,"position":"RB","stars":null,"rating_247":null,"committed_to":null,"lat":40.0417,"lng":-89.1965,"hometown_city":"Barrington","hometown_state":"IL"},{"name":"Lincoln Zadach","year":2028,"position":"WR","stars":null,"rating_247":null,"committed_to":null,"lat":28.6305,"lng":-82.4497,"hometown_city":"Estero","hometown_state":"FL"},{"name":"Savon Jamison","year":2028,"position":"DL","stars":null,"rating_247":88.0,"committed_to":null,"lat":40.0417,"lng":-89.1965,"hometown_city":"Joliet","hometown_state":"IL"},{"name":"Bryson Esser","year":2028,"position":"LB","stars":null,"rating_247":null,"committed_to":null,"lat":44.4443,"lng":-100.2263,"hometown_city":"Harrisburg","hometown_state":"SD"},{"name":"Brodie Metzger","year":2028,"position":"LB","stars":null,"rating_247":null,"committed_to":null,"lat":46.2807,"lng":-94.3053,"hometown_city":"Hills","hometown_state":"MN"}]}