{"2026":[{"name":"Jared Curtis","year":2026,"position":"QB","stars":5,"rating_247":99.0,"committed_to":"Vanderbilt","lat":36.1622296,"lng":-86.7743531,"hometown_city":"Nashville","hometown_state":"TN"},{"name":"Ryder Lyons","year":2026,"position":"QB","stars":4,"rating_247":96.0,"committed_to":"BYU","lat":38.6779591,"lng":-121.1760583,"hometown_city":"Folsom","hometown_state":"CA"},{"name":"Will Griffin","year":2026,"position":"QB","stars":4,"rating_247":90.0,"committed_to":"Florida","lat":27.9477595,"lng":-82.458444,"hometown_city":"Tampa","hometown_state":"FL"},{"name":"Teddy Jarrard","year":2026,"position":"QB","stars":4,"rating_247":89.0,"committed_to":"Notre Dame","lat":34.0234337,"lng":-84.6154897,"hometown_city":"Kennesaw","hometown_state":"GA"},{"name":"Troy Huhn","year":2026,"position":"QB","stars":4,"rating_247":89.0,"committed_to":"Virginia Tech","lat":33.1433723,"lng":-117.1661449,"hometown_city":"San Marcos","hometown_state":"CA"},{"name":"Noah Grubbs","year":2026,"position":"QB","stars":4,"rating_247":88.0,"committed_to":"Notre Dame","lat":28.756618000000003,"lng":-81.33888382214167,"hometown_city":"Lake Mary","hometown_state":"FL"},{"name":"Brady Smigiel","year":2026,"position":"QB","stars":4,"rating_247":88.0,"committed_to":"Michigan","lat":34.183671,"lng":-118.9118302,"hometown_city":"Newbury Park","hometown_state":"CA"},{"name":"Savion Hiter","year":2026,"position":"RB","stars":5,"rating_247":98.0,"committed_to":"Michigan","lat":38.010695,"lng":-77.9086068,"hometown_city":"Mineral","hometown_state":"VA"},{"name":"KJ Edwards","year":2026,"position":"RB","stars":4,"rating_247":97.0,"committed_to":"Texas A&M","lat":32.1570412,"lng":-94.338114,"hometown_city":"Carthage","hometown_state":"TX"},{"name":"Davian Groce","year":2026,"position":"RB","stars":4,"rating_247":96.0,"committed_to":"Florida","lat":33.1506744,"lng":-96.8236116,"hometown_city":"Frisco","hometown_state":"TX"},{"name":"Deshonne Redeaux","year":2026,"position":"RB","stars":4,"rating_247":95.0,"committed_to":"Southern California","lat":34.1460234,"lng":-118.8061794,"hometown_city":"Westlake Village","hometown_state":"CA"},{"name":"Jonathan Hatton Jr.","year":2026,"position":"RB","stars":4,"rating_247":95.0,"committed_to":"Oklahoma","lat":29.5707831,"lng":-98.2330927,"hometown_city":"Cibolo","hometown_state":"TX"},{"name":"Brian Bonner Jr.","year":2026,"position":"RB","stars":null,"rating_247":94.0,"committed_to":"Washington","lat":37.1841,"lng":-119.4696,"hometown_city":"Valencia","hometown_state":"CA"},{"name":"Jonaz Walton","year":2026,"position":"RB","stars":4,"rating_247":93.0,"committed_to":"Notre Dame","lat":33.5801103,"lng":-85.0766113,"hometown_city":"Carrollton","hometown_state":"GA"},{"name":"Javian Osborne","year":2026,"position":"RB","stars":4,"rating_247":92.0,"committed_to":"Notre Dame","lat":32.747893,"lng":-96.4719289,"hometown_city":"Forney","hometown_state":"TX"},{"name":"Messiah Mickens","year":2026,"position":"RB","stars":4,"rating_247":90.0,"committed_to":"Virginia Tech","lat":40.2663107,"lng":-76.8861122,"hometown_city":"Harrisburg","hometown_state":"PA"},{"name":"Amari Latimer","year":2026,"position":"RB","stars":4,"rating_247":90.0,"committed_to":"West Virginia","lat":33.4713249,"lng":-84.5972005,"hometown_city":"Tyrone","hometown_state":"GA"},{"name":"DeZephen Walker","year":2026,"position":"RB","stars":4,"rating_247":89.0,"committed_to":"Oklahoma","lat":38.7145481,"lng":-94.4611204,"hometown_city":"Peculiar","hometown_state":"MO"},{"name":"Javian Mallory","year":2026,"position":"RB","stars":4,"rating_247":88.0,"committed_to":"Miami","lat":26.3586885,"lng":-80.0830984,"hometown_city":"Boca Raton","hometown_state":"FL"},{"name":"Ja'Michael Jones","year":2026,"position":"RB","stars":3,"rating_247":88.0,"committed_to":"Mississippi","lat":32.3669656,"lng":-86.3006485,"hometown_city":"Montgomery","hometown_state":"AL"},{"name":"TK Keys","year":2026,"position":"WR","stars":null,"rating_247":98.0,"committed_to":"Tennessee","lat":32.7364,"lng":-89.6678,"hometown_city":"Hattiesburg","hometown_state":"MS"},{"name":"Jett Washington","year":2026,"position":"WR","stars":4,"rating_247":98.0,"committed_to":"Oregon","lat":36.1672559,"lng":-115.1485163,"hometown_city":"Las Vegas","hometown_state":"NV"},{"name":"Chris Henry Jr.","year":2026,"position":"WR","stars":5,"rating_247":98.0,"committed_to":"Ohio State","lat":33.7494951,"lng":-117.8732213,"hometown_city":"Santa Ana","hometown_state":"CA"},{"name":"Calvin Russell III","year":2026,"position":"WR","stars":null,"rating_247":98.0,"committed_to":"Syracuse","lat":28.6305,"lng":-82.4497,"hometown_city":"Miami","hometown_state":"FL"},{"name":"Kayden Dixon-Wyatt","year":2026,"position":"WR","stars":4,"rating_247":97.0,"committed_to":"Southern California","lat":33.7494951,"lng":-117.8732213,"hometown_city":"Santa Ana","hometown_state":"CA"},{"name":"Naeem Burroughs","year":2026,"position":"WR","stars":4,"rating_247":95.0,"committed_to":"Clemson","lat":30.3321838,"lng":-81.655651,"hometown_city":"Jacksonville","hometown_state":"FL"},{"name":"Jayden Petit","year":2026,"position":"WR","stars":4,"rating_247":94.0,"committed_to":"Oklahoma","lat":26.1421976,"lng":-81.7942944,"hometown_city":"Naples","hometown_state":"FL"},{"name":"Jayden Warren","year":2026,"position":"WR","stars":4,"rating_247":92.0,"committed_to":"Texas A&M","lat":29.3521203,"lng":-95.460341,"hometown_city":"Rosharon","hometown_state":"TX"},{"name":"Connor Salmin","year":2026,"position":"WR","stars":4,"rating_247":92.0,"committed_to":"Clemson","lat":39.017936,"lng":-77.2094542,"hometown_city":"Potomac","hometown_state":"MD"},{"name":"Gordon Sellars III","year":2026,"position":"WR","stars":null,"rating_247":92.0,"committed_to":"Clemson","lat":35.5557,"lng":-79.3877,"hometown_city":"Charlotte","hometown_state":"NC"},{"name":"Devin Fitzgerald","year":2026,"position":"WR","stars":4,"rating_247":92.0,"committed_to":"Notre Dame","lat":33.4484367,"lng":-112.0741417,"hometown_city":"Phoenix","hometown_state":"AZ"},{"name":"Zion Robinson","year":2026,"position":"WR","stars":4,"rating_247":91.0,"committed_to":"Stanford","lat":32.5631924,"lng":-97.1416768,"hometown_city":"Mansfield","hometown_state":"TX"},{"name":"Mason James","year":2026,"position":"WR","stars":4,"rating_247":91.0,"committed_to":"Washington","lat":35.2225717,"lng":-97.4394816,"hometown_city":"Norman","hometown_state":"OK"},{"name":"Trent Mosley","year":2026,"position":"WR","stars":4,"rating_247":91.0,"committed_to":"Southern California","lat":33.6408845,"lng":-117.6029341,"hometown_city":"Rancho Santa Margarita","hometown_state":"CA"},{"name":"Kaydon Finley","year":2026,"position":"WR","stars":4,"rating_247":91.0,"committed_to":"Notre Dame","lat":32.69900905,"lng":-97.60396629774493,"hometown_city":"Aledo","hometown_state":"TX"},{"name":"Messiah Hampton","year":2026,"position":"WR","stars":4,"rating_247":91.0,"committed_to":"Oregon","lat":43.157285,"lng":-77.615214,"hometown_city":"Rochester","hometown_state":"NY"},{"name":"Kohen Brown","year":2026,"position":"WR","stars":3,"rating_247":90.0,"committed_to":"Texas","lat":32.3944908,"lng":-96.8439365,"hometown_city":"Waxahachie","hometown_state":"TX"},{"name":"Bubba Frazier","year":2026,"position":"WR","stars":4,"rating_247":90.0,"committed_to":"Notre Dame","lat":32.0809263,"lng":-81.0911768,"hometown_city":"Savannah","hometown_state":"GA"},{"name":"Vance Spafford","year":2026,"position":"WR","stars":4,"rating_247":90.0,"committed_to":"Miami","lat":33.5965685,"lng":-117.659405,"hometown_city":"Mission Viejo","hometown_state":"CA"},{"name":"Brayden Robinson","year":2026,"position":"WR","stars":4,"rating_247":90.0,"committed_to":"Notre Dame","lat":32.5117104,"lng":-96.80836332870047,"hometown_city":"Red Oak","hometown_state":"TX"},{"name":"Daniel Odom","year":2026,"position":"WR","stars":4,"rating_247":90.0,"committed_to":"Oklahoma","lat":33.8825705,"lng":-118.1167679,"hometown_city":"Bellflower","hometown_state":"CA"},{"name":"Devin Carter","year":2026,"position":"WR","stars":4,"rating_247":89.0,"committed_to":"Florida State","lat":33.7514966,"lng":-84.7477136,"hometown_city":"Douglasville","hometown_state":"GA"},{"name":"Jabari Brady","year":2026,"position":"WR","stars":3,"rating_247":88.0,"committed_to":"Missouri","lat":26.2378597,"lng":-80.1247667,"hometown_city":"Pompano Beach","hometown_state":"FL"},{"name":"Dylan Faison","year":2026,"position":"WR","stars":3,"rating_247":88.0,"committed_to":"Notre Dame","lat":26.3586885,"lng":-80.0830984,"hometown_city":"Boca Raton","hometown_state":"FL"},{"name":"Brian Williams Jr.","year":2026,"position":"WR","stars":3,"rating_247":86.0,"committed_to":"Auburn","lat":28.5421109,"lng":-81.3790304,"hometown_city":"Orlando","hometown_state":"FL"},{"name":"Denairius Gray","year":2026,"position":"WR","stars":3,"rating_247":86.0,"committed_to":"Kentucky","lat":26.0112014,"lng":-80.1494901,"hometown_city":"Hollywood","hometown_state":"FL"},{"name":"Brody Keefe","year":2026,"position":"WR","stars":3,"rating_247":86.0,"committed_to":"Duke","lat":35.2272,"lng":-80.843083,"hometown_city":"Charlotte","hometown_state":"NC"},{"name":"Jaylen Pile","year":2026,"position":"WR","stars":3,"rating_247":85.0,"committed_to":"Michigan","lat":32.7762719,"lng":-96.7968559,"hometown_city":"Dallas","hometown_state":"TX"},{"name":"Ian Premer","year":2026,"position":"TE","stars":5,"rating_247":98.0,"committed_to":"Notre Dame","lat":38.3625063,"lng":-98.7804087,"hometown_city":"Great Bend","hometown_state":"KS"},{"name":"Ian Premer","year":2026,"position":"TE","stars":5,"rating_247":98.0,"committed_to":"Notre Dame","lat":38.3625063,"lng":-98.7804087,"hometown_city":"Great Bend","hometown_state":"KS"},{"name":"Kendre Harrison","year":2026,"position":"TE","stars":5,"rating_247":97.0,"committed_to":"Oregon","lat":36.3548586,"lng":-79.6644748,"hometown_city":"Reidsville","hometown_state":"NC"},{"name":"Mack Sutter","year":2026,"position":"TE","stars":4,"rating_247":96.0,"committed_to":"Alabama","lat":40.8616513,"lng":-89.6777665,"hometown_city":"Dunlap","hometown_state":"IL"},{"name":"Gavin Mueller","year":2026,"position":"TE","stars":4,"rating_247":94.0,"committed_to":"Miami","lat":41.9941938,"lng":-88.2922996,"hometown_city":"South Elgin","hometown_state":"IL"},{"name":"Brock Harris","year":2026,"position":"TE","stars":4,"rating_247":94.0,"committed_to":"BYU","lat":37.104153,"lng":-113.5841313,"hometown_city":"St. George","hometown_state":"UT"},{"name":"Matt Ludwig","year":2026,"position":"TE","stars":4,"rating_247":91.0,"committed_to":"Texas Tech","lat":45.7874957,"lng":-108.49607,"hometown_city":"Billings","hometown_state":"MT"},{"name":"JC Anderson","year":2026,"position":"TE","stars":null,"rating_247":91.0,"committed_to":"Louisiana State","lat":40.0417,"lng":-89.1965,"hometown_city":"Mt. Zion","hometown_state":"IL"},{"name":"Evan Jacobson","year":2026,"position":"TE","stars":4,"rating_247":91.0,"committed_to":"Texas A&M","lat":41.6118485,"lng":-93.8845129,"hometown_city":"Waukee","hometown_state":"IA"},{"name":"Brayden Fogle","year":2026,"position":"TE","stars":4,"rating_247":90.0,"committed_to":"Georgia","lat":40.75839,"lng":-82.5154471,"hometown_city":"Mansfield","hometown_state":"OH"},{"name":"Heze Kent","year":2026,"position":"TE","stars":4,"rating_247":90.0,"committed_to":"Florida","lat":31.1499528,"lng":-81.4914894,"hometown_city":"Brunswick","hometown_state":"GA"},{"name":"Luke Sorensen","year":2026,"position":"TE","stars":3,"rating_247":89.0,"committed_to":"Nebraska","lat":33.8347516,"lng":-117.911732,"hometown_city":"Anaheim","hometown_state":"CA"},{"name":"Luke Brewer","year":2026,"position":"TE","stars":4,"rating_247":89.0,"committed_to":"Iowa","lat":41.4755461,"lng":-93.6788304,"hometown_city":"Norwalk","hometown_state":"IA"},{"name":"Preston Fryzel","year":2026,"position":"TE","stars":4,"rating_247":88.0,"committed_to":"Notre Dame","lat":41.6786754,"lng":-83.5127283,"hometown_city":"Toledo","hometown_state":"OH"},{"name":"Isaac Jensen","year":2026,"position":"TE","stars":3,"rating_247":87.0,"committed_to":"Missouri","lat":41.2587459,"lng":-95.9383758,"hometown_city":"Omaha","hometown_state":"NE"},{"name":"Jackson Cantwell","year":2026,"position":"OT","stars":5,"rating_247":99.0,"committed_to":"Miami","lat":37.0439358,"lng":-93.3098534,"hometown_city":"Nixa","hometown_state":"MO"},{"name":"Darius Gray","year":2026,"position":"OT","stars":4,"rating_247":98.0,"committed_to":"South Carolina","lat":37.5385087,"lng":-77.43428,"hometown_city":"Richmond","hometown_state":"VA"},{"name":"Felix Ojo","year":2026,"position":"OT","stars":5,"rating_247":98.0,"committed_to":"Texas Tech","lat":32.5631924,"lng":-97.1416768,"hometown_city":"Mansfield","hometown_state":"TX"},{"name":"Immanuel Iheanacho","year":2026,"position":"OT","stars":5,"rating_247":98.0,"committed_to":"Oregon","lat":39.0461292,"lng":-77.1130097,"hometown_city":"North Bethesda","hometown_state":"MD"},{"name":"Ekene Ogboko","year":2026,"position":"OT","stars":5,"rating_247":96.0,"committed_to":"Georgia","lat":35.996653,"lng":-78.9018053,"hometown_city":"Durham","hometown_state":"NC"},{"name":"Ben Nichols","year":2026,"position":"OT","stars":4,"rating_247":94.0,"committed_to":"Notre Dame","lat":43.0346872,"lng":-83.5180155,"hometown_city":"Davison","hometown_state":"MI"},{"name":"Kevin Brown","year":2026,"position":"OT","stars":4,"rating_247":94.0,"committed_to":"West Virginia","lat":40.2663107,"lng":-76.8861122,"hometown_city":"Harrisburg","hometown_state":"PA"},{"name":"Grayson McKeogh","year":2026,"position":"OT","stars":4,"rating_247":93.0,"committed_to":"Notre Dame","lat":40.1023326,"lng":-75.1521195,"hometown_city":"Glenside","hometown_state":"PA"},{"name":"Claude Mpouma","year":2026,"position":"OT","stars":4,"rating_247":93.0,"committed_to":"Nebraska","lat":41.8755616,"lng":-87.6244212,"hometown_city":"Chicago","hometown_state":"IL"},{"name":"Charlie Thom","year":2026,"position":"OT","stars":4,"rating_247":92.0,"committed_to":"Notre Dame","lat":41.8098209,"lng":-72.8306541,"hometown_city":"Avon","hometown_state":"CT"},{"name":"Gregory Patrick","year":2026,"position":"OT","stars":4,"rating_247":91.0,"committed_to":"Notre Dame","lat":42.2011538,"lng":-85.5800022,"hometown_city":"Portage","hometown_state":"MI"},{"name":"Evan Goodwin","year":2026,"position":"OT","stars":4,"rating_247":90.0,"committed_to":"SMU","lat":34.5556489,"lng":-92.5212702,"hometown_city":"Bauxite","hometown_state":"AR"},{"name":"Sam Utu","year":2026,"position":"OT","stars":4,"rating_247":88.0,"committed_to":"SMU","lat":33.7872568,"lng":-117.8503088,"hometown_city":"Orange","hometown_state":"CA"},{"name":"Lamar Brown","year":2026,"position":"IOL","stars":5,"rating_247":99.0,"committed_to":"Louisiana State","lat":30.4459596,"lng":-91.18738,"hometown_city":"Baton Rouge","hometown_state":"LA"},{"name":"Tyler Merrill","year":2026,"position":"IOL","stars":4,"rating_247":91.0,"committed_to":"Notre Dame","lat":40.2101972,"lng":-77.0047276,"hometown_city":"Mechanicsburg","hometown_state":"PA"},{"name":"Sullivan Garvin","year":2026,"position":"IOL","stars":3,"rating_247":88.0,"committed_to":"Notre Dame","lat":42.5291989,"lng":-85.8553031,"hometown_city":"Allegan","hometown_state":"MI"},{"name":"George Williams-Haseotes","year":2026,"position":"IOL","stars":null,"rating_247":86.0,"committed_to":"Vanderbilt","lat":28.6305,"lng":-82.4497,"hometown_city":"Naples","hometown_state":"FL"},{"name":"Luke Wafle","year":2026,"position":"Edge","stars":4,"rating_247":99.0,"committed_to":"Southern California","lat":40.3492744,"lng":-74.6592958,"hometown_city":"Princeton","hometown_state":"NJ"},{"name":"Rodney Dunham","year":2026,"position":"Edge","stars":5,"rating_247":98.0,"committed_to":"Notre Dame","lat":35.2272,"lng":-80.843083,"hometown_city":"Charlotte","hometown_state":"NC"},{"name":"Zion Elee","year":2026,"position":"Edge","stars":5,"rating_247":98.0,"committed_to":"Maryland","lat":39.2908816,"lng":-76.610759,"hometown_city":"Baltimore","hometown_state":"MD"},{"name":"Xavier Griffin","year":2026,"position":"Edge","stars":5,"rating_247":98.0,"committed_to":"Alabama","lat":34.2978794,"lng":-83.8240663,"hometown_city":"Gainesville","hometown_state":"GA"},{"name":"Cincere Johnson","year":2026,"position":"Edge","stars":4,"rating_247":98.0,"committed_to":"Ohio State","lat":41.5051613,"lng":-81.6934446,"hometown_city":"Cleveland","hometown_state":"OH"},{"name":"Khary Wilder","year":2026,"position":"Edge","stars":4,"rating_247":95.0,"committed_to":"Ohio State","lat":33.8963593,"lng":-118.3053037,"hometown_city":"Gardena","hometown_state":"CA"},{"name":"Richard Wesley","year":2026,"position":"Edge","stars":5,"rating_247":95.0,"committed_to":"Texas","lat":34.2595715,"lng":-118.6023247,"hometown_city":"Chatsworth","hometown_state":"CA"},{"name":"Ebenezer Ewetade","year":2026,"position":"Edge","stars":4,"rating_247":93.0,"committed_to":"Notre Dame","lat":35.7112642,"lng":-78.6141709,"hometown_city":"Garner","hometown_state":"NC"},{"name":"Simote Katoanga","year":2026,"position":"Edge","stars":4,"rating_247":92.0,"committed_to":"Southern California","lat":33.6408845,"lng":-117.6029341,"hometown_city":"Rancho Santa Margarita","hometown_state":"CA"},{"name":"Dre Quinn","year":2026,"position":"Edge","stars":4,"rating_247":91.0,"committed_to":"Ohio State","lat":34.1206564,"lng":-84.0043513,"hometown_city":"Buford","hometown_state":"GA"},{"name":"Prince Tavizon","year":2026,"position":"Edge","stars":4,"rating_247":90.0,"committed_to":"Oregon","lat":32.7174209,"lng":-117.1627714,"hometown_city":"San Diego","hometown_state":"CA"},{"name":"Zavion Griffin-Haynes","year":2026,"position":"Edge","stars":3,"rating_247":89.0,"committed_to":"North Carolina","lat":35.9232862,"lng":-78.4573914,"hometown_city":"Rolesville","hometown_state":"NC"},{"name":"McHale Blade","year":2026,"position":"Edge","stars":4,"rating_247":89.0,"committed_to":"Michigan","lat":41.8755616,"lng":-87.6244212,"hometown_city":"Chicago","hometown_state":"IL"},{"name":"Hezekiah Harris","year":2026,"position":"Edge","stars":4,"rating_247":89.0,"committed_to":"Tennessee","lat":34.729847,"lng":-86.5859011,"hometown_city":"Huntsville","hometown_state":"AL"},{"name":"Samu Moala","year":2026,"position":"Edge","stars":4,"rating_247":88.0,"committed_to":"Texas A&M","lat":33.8885217,"lng":-118.3531991,"hometown_city":"Lawndale","hometown_state":"CA"},{"name":"Jarius Rodgers","year":2026,"position":"Edge","stars":3,"rating_247":88.0,"committed_to":"Syracuse","lat":30.1654707,"lng":-81.7016346,"hometown_city":"Orange Park","hometown_state":"FL"},{"name":"David Schwerzel","year":2026,"position":"Edge","stars":3,"rating_247":88.0,"committed_to":"Washington","lat":47.6038321,"lng":-122.3300624,"hometown_city":"Seattle","hometown_state":"WA"},{"name":"Braeden Jones","year":2026,"position":"Edge","stars":4,"rating_247":88.0,"committed_to":"Southern California","lat":41.8755616,"lng":-87.6244212,"hometown_city":"Chicago","hometown_state":"IL"},{"name":"Evan Harvey","year":2026,"position":"Edge","stars":3,"rating_247":87.0,"committed_to":"Memphis","lat":33.4713249,"lng":-84.5972005,"hometown_city":"Tyrone","hometown_state":"GA"},{"name":"Garrett Witherington","year":2026,"position":"Edge","stars":3,"rating_247":87.0,"committed_to":"Virginia Tech","lat":33.5206824,"lng":-86.8024326,"hometown_city":"Birmingham","hometown_state":"AL"},{"name":"Calvin Carter","year":2026,"position":"Edge","stars":3,"rating_247":86.0,"committed_to":null,"lat":29.7589382,"lng":-95.3676974,"hometown_city":"Houston","hometown_state":"TX"},{"name":"Calvin Carter","year":2026,"position":"Edge","stars":3,"rating_247":86.0,"committed_to":null,"lat":29.7589382,"lng":-95.3676974,"hometown_city":"Houston","hometown_state":"TX"},{"name":"Jaimeon Winfield","year":2026,"position":"DL","stars":4,"rating_247":98.0,"committed_to":"Southern California","lat":32.9481789,"lng":-96.7297206,"hometown_city":"Richardson","hometown_state":"TX"},{"name":"Deuce Geralds","year":2026,"position":"DL","stars":4,"rating_247":96.0,"committed_to":"Louisiana State","lat":34.0514898,"lng":-84.0712997,"hometown_city":"Suwanee","hometown_state":"GA"},{"name":"Aiden Harris","year":2026,"position":"DL","stars":4,"rating_247":95.0,"committed_to":"South Carolina","lat":35.1170873,"lng":-80.723718,"hometown_city":"Matthews","hometown_state":"NC"},{"name":"Tomuhini Topui","year":2026,"position":"DL","stars":4,"rating_247":95.0,"committed_to":"Southern California","lat":33.7494951,"lng":-117.8732213,"hometown_city":"Santa Ana","hometown_state":"CA"},{"name":"Trenton Henderson","year":2026,"position":"DL","stars":4,"rating_247":95.0,"committed_to":"Louisiana State","lat":30.421309,"lng":-87.2169149,"hometown_city":"Pensacola","hometown_state":"FL"},{"name":"Alister Vallejo","year":2026,"position":"DL","stars":4,"rating_247":94.0,"committed_to":"Michigan","lat":30.6649119,"lng":-97.9225161,"hometown_city":"Liberty Hill","hometown_state":"TX"},{"name":"Noah Clark","year":2026,"position":"DL","stars":4,"rating_247":94.0,"committed_to":"South Carolina","lat":35.996653,"lng":-78.9018053,"hometown_city":"Durham","hometown_state":"NC"},{"name":"Elijah Golden","year":2026,"position":"DL","stars":4,"rating_247":92.0,"committed_to":"Notre Dame","lat":27.3364347,"lng":-82.5306527,"hometown_city":"Sarasota","hometown_state":"FL"},{"name":"Damari Simeon","year":2026,"position":"DL","stars":4,"rating_247":90.0,"committed_to":"Ohio State","lat":39.4917828,"lng":-74.8707243,"hometown_city":"Richland","hometown_state":"NJ"},{"name":"Cameron Brickle II","year":2026,"position":"DL","stars":null,"rating_247":89.0,"committed_to":"Maryland","lat":28.6305,"lng":-82.4497,"hometown_city":"Bradenton","hometown_state":"FL"},{"name":"Jermaine Kinsler","year":2026,"position":"DL","stars":4,"rating_247":89.0,"committed_to":"Texas A&M","lat":40.9543943,"lng":-74.0308504,"hometown_city":"Oradell","hometown_state":"NJ"},{"name":"Tavian Branch","year":2026,"position":"DL","stars":3,"rating_247":89.0,"committed_to":"Auburn","lat":31.163771,"lng":-85.46863795754717,"hometown_city":"Taylor","hometown_state":"PA"},{"name":"Preston Carey","year":2026,"position":"DL","stars":3,"rating_247":88.0,"committed_to":"Georgia","lat":27.4989278,"lng":-82.5748194,"hometown_city":"Bradenton","hometown_state":"FL"},{"name":"Gabe Hill","year":2026,"position":"DL","stars":null,"rating_247":88.0,"committed_to":"Indiana","lat":40.0417,"lng":-89.1965,"hometown_city":"Naperville","hometown_state":"IL"},{"name":"JaMarcus Whyce","year":2026,"position":"DL","stars":3,"rating_247":88.0,"committed_to":"Maryland","lat":39.7589478,"lng":-84.1916069,"hometown_city":"Dayton","hometown_state":"OH"},{"name":"Tiki Hola","year":2026,"position":"DL","stars":4,"rating_247":88.0,"committed_to":"Notre Dame","lat":30.1104947,"lng":-97.3152701,"hometown_city":"Bastrop","hometown_state":"TX"},{"name":"JJ Finch","year":2026,"position":"DL","stars":3,"rating_247":88.0,"committed_to":"Tennessee","lat":39.7683331,"lng":-86.1583502,"hometown_city":"Indianapolis","hometown_state":"IN"},{"name":"James Carrington","year":2026,"position":"DL","stars":3,"rating_247":87.0,"committed_to":"Oklahoma","lat":33.6856969,"lng":-117.8259819,"hometown_city":"Irvine","hometown_state":"CA"},{"name":"Marcus Almada","year":2026,"position":"DL","stars":3,"rating_247":87.0,"committed_to":"UCLA","lat":41.7001043,"lng":-70.7628129,"hometown_city":"Marion","hometown_state":"MA"},{"name":"Malik Brooks","year":2026,"position":"DL","stars":3,"rating_247":85.0,"committed_to":"Southern California","lat":33.942215,"lng":-118.1235646,"hometown_city":"Downey","hometown_state":"CA"},{"name":"Anthony Jones Jr.","year":2026,"position":"LB","stars":null,"rating_247":98.0,"committed_to":"Oregon","lat":32.7794,"lng":-86.8287,"hometown_city":"Mobile","hometown_state":"AL"},{"name":"Tyler Atkinson","year":2026,"position":"LB","stars":5,"rating_247":97.0,"committed_to":"Texas","lat":33.8389977,"lng":-83.9007382,"hometown_city":"Loganville","hometown_state":"GA"},{"name":"Kosi Okpala","year":2026,"position":"LB","stars":4,"rating_247":96.0,"committed_to":"Texas","lat":29.7589382,"lng":-95.3676974,"hometown_city":"Houston","hometown_state":"TX"},{"name":"Talanoa Ili","year":2026,"position":"LB","stars":4,"rating_247":95.0,"committed_to":"Southern California","lat":21.679124,"lng":-157.94838,"hometown_city":"Kahuku","hometown_state":"HI"},{"name":"Simeon Caldwell","year":2026,"position":"LB","stars":4,"rating_247":91.0,"committed_to":"Ohio State","lat":30.3321838,"lng":-81.655651,"hometown_city":"Jacksonville","hometown_state":"FL"},{"name":"Tristan Phillips","year":2026,"position":"LB","stars":4,"rating_247":91.0,"committed_to":"Oregon","lat":34.3435092,"lng":-119.29560423163717,"hometown_city":"Ventura","hometown_state":"CA"},{"name":"Tank King","year":2026,"position":"LB","stars":4,"rating_247":91.0,"committed_to":"Texas A&M","lat":29.8988618,"lng":-93.9288723,"hometown_city":"Port Arthur","hometown_state":"TX"},{"name":"Tank King","year":2026,"position":"LB","stars":4,"rating_247":91.0,"committed_to":"Texas A&M","lat":29.8988618,"lng":-93.9288723,"hometown_city":"Port Arthur","hometown_state":"TX"},{"name":"Thomas Davis Jr.","year":2026,"position":"LB","stars":4,"rating_247":90.0,"committed_to":"Notre Dame","lat":35.1170873,"lng":-80.723718,"hometown_city":"Matthews","hometown_state":"NC"},{"name":"Storm Miller","year":2026,"position":"LB","stars":4,"rating_247":89.0,"committed_to":"Texas A&M","lat":41.3144733,"lng":-81.83511,"hometown_city":"Strongsville","hometown_state":"OH"},{"name":"Ja'Kobe Clapper","year":2026,"position":"LB","stars":null,"rating_247":89.0,"committed_to":"Notre Dame","lat":40.2862,"lng":-82.7937,"hometown_city":"Cincinnati","hometown_state":"OH"},{"name":"Calvin Thomas","year":2026,"position":"LB","stars":4,"rating_247":89.0,"committed_to":"North Carolina","lat":29.9691116,"lng":-95.6971686,"hometown_city":"Cypress","hometown_state":"TX"},{"name":"Kedric Golston II","year":2026,"position":"LB","stars":4,"rating_247":89.0,"committed_to":"Tennessee","lat":39.0437192,"lng":-77.4874899,"hometown_city":"Ashburn","hometown_state":"VA"},{"name":"Kenneth Goodwin III","year":2026,"position":"LB","stars":null,"rating_247":88.0,"committed_to":"SMU","lat":28.6305,"lng":-82.4497,"hometown_city":"Miami","hometown_state":"FL"},{"name":"Ant Davis","year":2026,"position":"LB","stars":null,"rating_247":88.0,"committed_to":"Mississippi","lat":32.6415,"lng":-83.4426,"hometown_city":"Loganville","hometown_state":"GA"},{"name":"Jakore Smith","year":2026,"position":"LB","stars":3,"rating_247":87.0,"committed_to":"Arkansas","lat":34.5959265,"lng":-92.4890469,"hometown_city":"Bryant","hometown_state":"AR"},{"name":"Colsen Gatten","year":2026,"position":"LB","stars":3,"rating_247":87.0,"committed_to":"Duke","lat":40.4416941,"lng":-79.9900861,"hometown_city":"Pittsburgh","hometown_state":"PA"},{"name":"Jamarion Phillips","year":2026,"position":"LB","stars":3,"rating_247":86.0,"committed_to":"Baylor","lat":32.7762719,"lng":-96.7968559,"hometown_city":"Dallas","hometown_state":"TX"},{"name":"Beau Jandreau","year":2026,"position":"LB","stars":3,"rating_247":86.0,"committed_to":"Oklahoma","lat":33.3062223,"lng":-111.8413317,"hometown_city":"Chandler","hometown_state":"AZ"},{"name":"Noriel Dominguez","year":2026,"position":"LB","stars":3,"rating_247":86.0,"committed_to":"Texas Christian","lat":29.5821811,"lng":-95.7607832,"hometown_city":"Richmond","hometown_state":"TX"},{"name":"Charles Belser","year":2026,"position":"LB","stars":3,"rating_247":85.0,"committed_to":null,"lat":39.9527237,"lng":-75.1635262,"hometown_city":"Philadelphia","hometown_state":"PA"},{"name":"Maurice Barnes","year":2026,"position":"LB","stars":3,"rating_247":85.0,"committed_to":null,"lat":40.2663107,"lng":-76.8861122,"hometown_city":"Harrisburg","hometown_state":"PA"},{"name":"Jorden Edmonds","year":2026,"position":"CB","stars":5,"rating_247":98.0,"committed_to":"Alabama","lat":33.9528472,"lng":-84.5496148,"hometown_city":"Marietta","hometown_state":"GA"},{"name":"Khary Adams","year":2026,"position":"CB","stars":5,"rating_247":97.0,"committed_to":"Notre Dame","lat":39.4018552,"lng":-76.602388,"hometown_city":"Towson","hometown_state":"MD"},{"name":"Ayden Pouncey","year":2026,"position":"CB","stars":4,"rating_247":96.0,"committed_to":"Notre Dame","lat":26.13784445,"lng":-81.75399813758739,"hometown_city":"Winter Park","hometown_state":"FL"},{"name":"Elbert Hill IV","year":2026,"position":"CB","stars":null,"rating_247":95.0,"committed_to":"Southern California","lat":40.2862,"lng":-82.7937,"hometown_city":"Akron","hometown_state":"OH"},{"name":"Caden Harris","year":2026,"position":"CB","stars":4,"rating_247":95.0,"committed_to":"Georgia","lat":35.5939671,"lng":-89.262291,"hometown_city":"Brownsville","hometown_state":"TN"},{"name":"Samari Matthews","year":2026,"position":"CB","stars":4,"rating_247":94.0,"committed_to":"Texas","lat":35.4817982,"lng":-80.8589501,"hometown_city":"Cornelius","hometown_state":"NC"},{"name":"Jaelen Waters","year":2026,"position":"CB","stars":4,"rating_247":94.0,"committed_to":"Miami","lat":27.998541000000003,"lng":-82.27488400114905,"hometown_city":"Seffner","hometown_state":"FL"},{"name":"Havon Finney Jr.","year":2026,"position":"CB","stars":null,"rating_247":91.0,"committed_to":"Louisiana State","lat":37.1841,"lng":-119.4696,"hometown_city":"Chatsworth","hometown_state":"CA"},{"name":"Chaz Smith","year":2026,"position":"CB","stars":null,"rating_247":91.0,"committed_to":"Notre Dame","lat":35.858,"lng":-86.3505,"hometown_city":"Knoxville","hometown_state":"TN"},{"name":"Dorian Barney","year":2026,"position":"CB","stars":4,"rating_247":90.0,"committed_to":"Mississippi","lat":33.5801103,"lng":-85.0766113,"hometown_city":"Carrollton","hometown_state":"GA"},{"name":"Brandon Lockhart","year":2026,"position":"CB","stars":4,"rating_247":89.0,"committed_to":"Southern California","lat":34.2595715,"lng":-118.6023247,"hometown_city":"Chatsworth","hometown_state":"CA"},{"name":"Hakim Satterwhite","year":2026,"position":"CB","stars":3,"rating_247":88.0,"committed_to":"Maryland","lat":39.2908816,"lng":-76.610759,"hometown_city":"Baltimore","hometown_state":"MD"},{"name":"Nick Reddish","year":2026,"position":"CB","stars":3,"rating_247":88.0,"committed_to":"Notre Dame","lat":35.2272,"lng":-80.843083,"hometown_city":"Charlotte","hometown_state":"NC"},{"name":"Jaziel Hart","year":2026,"position":"CB","stars":3,"rating_247":87.0,"committed_to":"North Carolina","lat":37.270973,"lng":-79.9414313,"hometown_city":"Roanoke","hometown_state":"VA"},{"name":"Ksani Jiles","year":2026,"position":"CB","stars":3,"rating_247":86.0,"committed_to":"Washington","lat":27.4989278,"lng":-82.5748194,"hometown_city":"Bradenton","hometown_state":"FL"},{"name":"Jireh Edwards","year":2026,"position":"S","stars":5,"rating_247":97.0,"committed_to":"Alabama","lat":38.8165274,"lng":-76.7519753,"hometown_city":"Upper Marlboro","hometown_state":"MD"},{"name":"Joey O'Brien","year":2026,"position":"S","stars":5,"rating_247":97.0,"committed_to":"Notre Dame","lat":40.1023326,"lng":-75.1521195,"hometown_city":"Glenside","hometown_state":"PA"},{"name":"Bralan Womack","year":2026,"position":"S","stars":5,"rating_247":97.0,"committed_to":"Mississippi State","lat":32.3095903,"lng":-90.1389757,"hometown_city":"Flowood","hometown_state":"MS"},{"name":"J'Zavien Currence","year":2026,"position":"S","stars":4,"rating_247":96.0,"committed_to":"South Carolina","lat":34.9248667,"lng":-81.0250784,"hometown_city":"Rock Hill","hometown_state":"SC"},{"name":"Matt Sieg","year":2026,"position":"S","stars":4,"rating_247":95.0,"committed_to":"West Virginia","lat":40.3709025,"lng":-80.2347814,"hometown_city":"McDonald","hometown_state":"PA"},{"name":"Blaine Bradford","year":2026,"position":"S","stars":4,"rating_247":94.0,"committed_to":"Ohio State","lat":30.4459596,"lng":-91.18738,"hometown_city":"Baton Rouge","hometown_state":"LA"},{"name":"Zech Fort","year":2026,"position":"S","stars":4,"rating_247":91.0,"committed_to":"Georgia","lat":27.4989278,"lng":-82.5748194,"hometown_city":"Bradenton","hometown_state":"FL"},{"name":"Xavier Lherisse","year":2026,"position":"S","stars":4,"rating_247":91.0,"committed_to":"Oregon","lat":28.0836269,"lng":-80.6081089,"hometown_city":"Melbourne","hometown_state":"FL"},{"name":"Kaden Gebhardt","year":2026,"position":"S","stars":3,"rating_247":90.0,"committed_to":"Ohio State","lat":40.1983958,"lng":-83.0101843,"hometown_city":"Lewis Center","hometown_state":"OH"},{"name":"Jordan Deck","year":2026,"position":"S","stars":4,"rating_247":90.0,"committed_to":"Michigan","lat":33.1506744,"lng":-96.8236116,"hometown_city":"Frisco","hometown_state":"TX"},{"name":"Donovan Webb","year":2026,"position":"S","stars":4,"rating_247":90.0,"committed_to":"Texas Tech","lat":33.1506744,"lng":-96.8236116,"hometown_city":"Frisco","hometown_state":"TX"},{"name":"Jordan Davis","year":2026,"position":"S","stars":3,"rating_247":88.0,"committed_to":"Baylor","lat":26.0112014,"lng":-80.1494901,"hometown_city":"Hollywood","hometown_state":"FL"},{"name":"Carter Meadows","year":2026,"position":"ATH","stars":5,"rating_247":98.0,"committed_to":"Michigan","lat":38.8949855,"lng":-77.0365708,"hometown_city":"Washington","hometown_state":"DC"},{"name":"Brandon Arrington","year":2026,"position":"ATH","stars":5,"rating_247":98.0,"committed_to":"Texas A&M","lat":32.7174209,"lng":-117.1627714,"hometown_city":"San Diego","hometown_state":"CA"},{"name":"Jalen Lott","year":2026,"position":"ATH","stars":5,"rating_247":97.0,"committed_to":"Oregon","lat":33.1506744,"lng":-96.8236116,"hometown_city":"Frisco","hometown_state":"TX"},{"name":"Kaiden Prothro","year":2026,"position":"ATH","stars":4,"rating_247":97.0,"committed_to":"Georgia","lat":33.5378885,"lng":-85.2532818,"hometown_city":"Bowdon","hometown_state":"GA"},{"name":"Aaron Gregory","year":2026,"position":"ATH","stars":4,"rating_247":94.0,"committed_to":"Texas A&M","lat":33.7514966,"lng":-84.7477136,"hometown_city":"Douglasville","hometown_state":"GA"},{"name":"Paris Melvin Jr.","year":2026,"position":"ATH","stars":4,"rating_247":94.0,"committed_to":"Houston","lat":29.9691116,"lng":-95.6971686,"hometown_city":"Cypress","hometown_state":"TX"},{"name":"Jordan Clay","year":2026,"position":"ATH","stars":4,"rating_247":94.0,"committed_to":"Washington","lat":29.4246002,"lng":-98.4951405,"hometown_city":"San Antonio","hometown_state":"TX"},{"name":"Legend Bey","year":2026,"position":"ATH","stars":4,"rating_247":93.0,"committed_to":"Ohio State","lat":32.747893,"lng":-96.4719289,"hometown_city":"Forney","hometown_state":"TX"},{"name":"Derrek Cooper","year":2026,"position":"ATH","stars":4,"rating_247":93.0,"committed_to":"Texas","lat":26.0112014,"lng":-80.1494901,"hometown_city":"Hollywood","hometown_state":"FL"},{"name":"Jakob Weatherspoon","year":2026,"position":"ATH","stars":4,"rating_247":93.0,"committed_to":"North Carolina","lat":41.4516512,"lng":-82.0350598,"hometown_city":"Avon","hometown_state":"OH"},{"name":"Jordan Thomas","year":2026,"position":"ATH","stars":4,"rating_247":93.0,"committed_to":"Ohio State","lat":40.9543943,"lng":-74.0308504,"hometown_city":"Oradell","hometown_state":"NJ"},{"name":"Madden Williams","year":2026,"position":"ATH","stars":4,"rating_247":90.0,"committed_to":"Texas A&M","lat":33.8825705,"lng":-118.1167679,"hometown_city":"Bellflower","hometown_state":"CA"},{"name":"EJ White","year":2026,"position":"ATH","stars":null,"rating_247":90.0,"committed_to":"Florida State","lat":28.6305,"lng":-82.4497,"hometown_city":"Vero Beach","hometown_state":"FL"},{"name":"Shavar Young Jr.","year":2026,"position":"ATH","stars":3,"rating_247":88.0,"committed_to":"Clemson","lat":35.9603948,"lng":-83.9210261,"hometown_city":"Knoxville","hometown_state":"TN"},{"name":"Jontavius Wyman","year":2026,"position":"ATH","stars":4,"rating_247":88.0,"committed_to":"Miami","lat":33.5215013,"lng":-84.3538128,"hometown_city":"Jonesboro","hometown_state":"GA"},{"name":"Jermaine Santana-Diaz","year":2026,"position":"ATH","stars":3,"rating_247":88.0,"committed_to":"Colorado State","lat":29.6185669,"lng":-95.5377215,"hometown_city":"Missouri City","hometown_state":"TX"},{"name":"Zion Legree","year":2026,"position":"ATH","stars":3,"rating_247":86.0,"committed_to":"Wisconsin","lat":30.4057552,"lng":-86.618842,"hometown_city":"Fort Walton Beach","hometown_state":"FL"},{"name":"DJ Williams","year":2026,"position":"ATH","stars":3,"rating_247":86.0,"committed_to":"Louisville","lat":27.9477595,"lng":-82.458444,"hometown_city":"Tampa","hometown_state":"FL"},{"name":"Markel Dabney","year":2026,"position":"ATH","stars":3,"rating_247":86.0,"committed_to":"Michigan","lat":37.5385087,"lng":-77.43428,"hometown_city":"Richmond","hometown_state":"VA"},{"name":"Micah Drescher","year":2026,"position":"K","stars":3,"rating_247":80.0,"committed_to":"Notre Dame","lat":41.794528,"lng":-87.92761808245767,"hometown_city":"Hinsdale","hometown_state":"IL"}],"2027":[{"name":"Peyton Houston","year":2027,"position":"QB","stars":null,"rating_247":92.0,"committed_to":"Louisiana State","lat":31.0689,"lng":-91.9968,"hometown_city":"Shreveport","hometown_state":"LA"},{"name":"Davin Davidson","year":2027,"position":"QB","stars":null,"rating_247":90.0,"committed_to":"Florida","lat":28.6305,"lng":-82.4497,"hometown_city":"Sarasota","hometown_state":"FL"},{"name":"Kamden Lopati","year":2027,"position":"QB","stars":null,"rating_247":89.0,"committed_to":"Michigan","lat":39.321,"lng":-111.0937,"hometown_city":"Salt Lake City","hometown_state":"UT"},{"name":"Wonderful Monds IV","year":2027,"position":"QB","stars":null,"rating_247":88.0,"committed_to":"Notre Dame","lat":28.6305,"lng":-82.4497,"hometown_city":"Vero Beach","hometown_state":"FL"},{"name":"Kemon Spell","year":2027,"position":"RB","stars":null,"rating_247":98.0,"committed_to":"Georgia","lat":40.8781,"lng":-77.7996,"hometown_city":"McKeesport","hometown_state":"PA"},{"name":"David Gabriel Georges","year":2027,"position":"RB","stars":null,"rating_247":98.0,"committed_to":null,"lat":35.858,"lng":-86.3505,"hometown_city":"Chattanooga","hometown_state":"TN"},{"name":"Landen Williams-Callis","year":2027,"position":"RB","stars":null,"rating_247":95.0,"committed_to":null,"lat":31.4757,"lng":-99.3312,"hometown_city":"Richmond","hometown_state":"TX"},{"name":"David Segarra","year":2027,"position":"RB","stars":null,"rating_247":91.0,"committed_to":null,"lat":33.9169,"lng":-80.8964,"hometown_city":"Duncan","hometown_state":"SC"},{"name":"CaDarius McMiller","year":2027,"position":"RB","stars":null,"rating_247":90.0,"committed_to":"Oregon","lat":31.4757,"lng":-99.3312,"hometown_city":"Tyler","hometown_state":"TX"},{"name":"Lathan Whisenton","year":2027,"position":"RB","stars":null,"rating_247":90.0,"committed_to":"Notre Dame","lat":31.4757,"lng":-99.3312,"hometown_city":"Waco","hometown_state":"TX"},{"name":"Keldrid Ben","year":2027,"position":"RB","stars":null,"rating_247":90.0,"committed_to":"Oklahoma","lat":31.4757,"lng":-99.3312,"hometown_city":"Montgomery","hometown_state":"TX"},{"name":"Isaiah Rogers","year":2027,"position":"RB","stars":null,"rating_247":90.0,"committed_to":"Notre Dame","lat":42.2596,"lng":-71.8083,"hometown_city":"Springfield","hometown_state":"MA"},{"name":"Tyson Robinson","year":2027,"position":"RB","stars":null,"rating_247":90.0,"committed_to":"Michigan","lat":32.7364,"lng":-89.6678,"hometown_city":"Brandon","hometown_state":"MS"},{"name":"Caden Waye","year":2027,"position":"RB","stars":null,"rating_247":89.0,"committed_to":null,"lat":32.6415,"lng":-83.4426,"hometown_city":"McDonough","hometown_state":"GA"},{"name":"Elijah Kimble","year":2027,"position":"RB","stars":null,"rating_247":89.0,"committed_to":null,"lat":42.9538,"lng":-75.5268,"hometown_city":"Buffalo","hometown_state":"NY"},{"name":"Noah Roberts","year":2027,"position":"RB","stars":null,"rating_247":88.0,"committed_to":"Texas","lat":34.2744,"lng":-111.6602,"hometown_city":"Chandler","hometown_state":"AZ"},{"name":"Amir Brown","year":2027,"position":"RB","stars":null,"rating_247":88.0,"committed_to":"Nebraska","lat":35.5557,"lng":-79.3877,"hometown_city":"Rolesville","hometown_state":"NC"},{"name":"Jaxsen Stokes","year":2027,"position":"RB","stars":null,"rating_247":88.0,"committed_to":"California","lat":37.1841,"lng":-119.4696,"hometown_city":"Chatsworth","hometown_state":"CA"},{"name":"Wayne Shanks Jr.","year":2027,"position":"RB","stars":null,"rating_247":88.0,"committed_to":"Arizona","lat":31.4757,"lng":-99.3312,"hometown_city":"Houston","hometown_state":"TX"},{"name":"Terrance Grant Jr.","year":2027,"position":"RB","stars":null,"rating_247":87.0,"committed_to":"Maryland","lat":39.055,"lng":-76.7909,"hometown_city":"Hyattsville","hometown_state":"MD"},{"name":"Mikel Stephen","year":2027,"position":"RB","stars":null,"rating_247":86.0,"committed_to":"Duke","lat":32.7364,"lng":-89.6678,"hometown_city":"Madison","hometown_state":"MS"},{"name":"Monshun Sales","year":2027,"position":"WR","stars":null,"rating_247":98.0,"committed_to":null,"lat":39.8942,"lng":-86.2816,"hometown_city":"Indianapolis","hometown_state":"IN"},{"name":"Easton Royal","year":2027,"position":"WR","stars":null,"rating_247":98.0,"committed_to":"Texas","lat":31.0689,"lng":-91.9968,"hometown_city":"New Orleans","hometown_state":"LA"},{"name":"Dakota Guerrant","year":2027,"position":"WR","stars":null,"rating_247":98.0,"committed_to":null,"lat":44.3467,"lng":-85.4102,"hometown_city":"Harper Woods","hometown_state":"MI"},{"name":"Osani Gayles","year":2027,"position":"WR","stars":null,"rating_247":95.0,"committed_to":null,"lat":28.6305,"lng":-82.4497,"hometown_city":"Bradenton","hometown_state":"FL"},{"name":"Quentin Hale","year":2027,"position":"WR","stars":null,"rating_247":94.0,"committed_to":"Southern California","lat":37.1841,"lng":-119.4696,"hometown_city":"Corona","hometown_state":"CA"},{"name":"Eric McFarland III","year":2027,"position":"WR","stars":null,"rating_247":94.0,"committed_to":null,"lat":28.6305,"lng":-82.4497,"hometown_city":"Bradenton","hometown_state":"FL"},{"name":"Roye Oliver III","year":2027,"position":"WR","stars":null,"rating_247":93.0,"committed_to":"Southern California","lat":34.2744,"lng":-111.6602,"hometown_city":"Chandler","hometown_state":"AZ"},{"name":"Julius Jones","year":2027,"position":"WR","stars":null,"rating_247":92.0,"committed_to":null,"lat":28.6305,"lng":-82.4497,"hometown_city":"Fort Lauderdale","hometown_state":"FL"},{"name":"Khalil Taylor","year":2027,"position":"WR","stars":null,"rating_247":92.0,"committed_to":null,"lat":40.8781,"lng":-77.7996,"hometown_city":"Gibsonia","hometown_state":"PA"},{"name":"Quentin Burrell","year":2027,"position":"WR","stars":null,"rating_247":90.0,"committed_to":"Michigan","lat":40.0417,"lng":-89.1965,"hometown_city":"Chicago","hometown_state":"IL"},{"name":"Trenton Yancey","year":2027,"position":"WR","stars":null,"rating_247":90.0,"committed_to":"Purdue","lat":31.4757,"lng":-99.3312,"hometown_city":"Duncanville","hometown_state":"TX"},{"name":"Tyler Fryman","year":2027,"position":"WR","stars":null,"rating_247":90.0,"committed_to":null,"lat":37.5347,"lng":-85.3021,"hometown_city":"Fort Mitchell","hometown_state":"KY"},{"name":"Julian Caldwell","year":2027,"position":"WR","stars":null,"rating_247":90.0,"committed_to":"Texas Tech","lat":31.4757,"lng":-99.3312,"hometown_city":"Argyle","hometown_state":"TX"},{"name":"Myles McAfee","year":2027,"position":"WR","stars":null,"rating_247":90.0,"committed_to":null,"lat":39.055,"lng":-76.7909,"hometown_city":"Severn","hometown_state":"MD"},{"name":"Iveon Lewis","year":2027,"position":"WR","stars":null,"rating_247":89.0,"committed_to":"Kentucky","lat":37.5215,"lng":-78.8537,"hometown_city":"Richmond","hometown_state":"VA"},{"name":"Zerek Sidney","year":2027,"position":"WR","stars":null,"rating_247":87.0,"committed_to":"Washington","lat":34.2744,"lng":-111.6602,"hometown_city":"Goodyear","hometown_state":"AZ"},{"name":"Antayvious Ellis","year":2027,"position":"WR","stars":null,"rating_247":87.0,"committed_to":"Nebraska","lat":41.5378,"lng":-99.7951,"hometown_city":"Omaha","hometown_state":"NE"},{"name":"Joshua Douthard","year":2027,"position":"WR","stars":null,"rating_247":87.0,"committed_to":null,"lat":32.7794,"lng":-86.8287,"hometown_city":"Odenville","hometown_state":"AL"},{"name":"Jackson Coleman","year":2027,"position":"WR","stars":null,"rating_247":87.0,"committed_to":"Notre Dame","lat":38.9972,"lng":-105.5478,"hometown_city":"Littleton","hometown_state":"CO"},{"name":"Jaxon Dollar","year":2027,"position":"TE","stars":null,"rating_247":98.0,"committed_to":"Georgia","lat":35.5557,"lng":-79.3877,"hometown_city":"Denver","hometown_state":"NC"},{"name":"Seneca Driver","year":2027,"position":"TE","stars":null,"rating_247":94.0,"committed_to":"Oklahoma","lat":37.5347,"lng":-85.3021,"hometown_city":"Danville","hometown_state":"KY"},{"name":"Brock Williams","year":2027,"position":"TE","stars":null,"rating_247":93.0,"committed_to":"Texas","lat":40.0417,"lng":-89.1965,"hometown_city":"Libertyville","hometown_state":"IL"},{"name":"Jack Brown","year":2027,"position":"TE","stars":null,"rating_247":92.0,"committed_to":"Missouri","lat":38.3566,"lng":-92.458,"hometown_city":"St. Charles","hometown_state":"MO"},{"name":"Malik Howard","year":2027,"position":"TE","stars":null,"rating_247":90.0,"committed_to":"Tennessee","lat":35.858,"lng":-86.3505,"hometown_city":"Oak Ridge","hometown_state":"TN"},{"name":"Cooper Terwilliger","year":2027,"position":"TE","stars":null,"rating_247":90.0,"committed_to":"Penn State","lat":44.4443,"lng":-100.2263,"hometown_city":"Pierre","hometown_state":"SD"},{"name":"Korz Loken","year":2027,"position":"TE","stars":null,"rating_247":90.0,"committed_to":"Wisconsin","lat":44.6243,"lng":-89.9941,"hometown_city":"Iola","hometown_state":"WI"},{"name":"Titus Hawk","year":2027,"position":"TE","stars":null,"rating_247":90.0,"committed_to":"Notre Dame","lat":35.5889,"lng":-97.4943,"hometown_city":"Choctaw","hometown_state":"OK"},{"name":"Grant Haviland","year":2027,"position":"TE","stars":null,"rating_247":88.0,"committed_to":"Vanderbilt","lat":32.6415,"lng":-83.4426,"hometown_city":"Alpharetta","hometown_state":"GA"},{"name":"JT Geraci","year":2027,"position":"TE","stars":null,"rating_247":88.0,"committed_to":"Texas","lat":40.1907,"lng":-74.6728,"hometown_city":"Ramsey","hometown_state":"NJ"},{"name":"Zac Fares","year":2027,"position":"TE","stars":null,"rating_247":88.0,"committed_to":"UCLA","lat":39.3289,"lng":-116.6312,"hometown_city":"Las Vegas","hometown_state":"NV"},{"name":"Holden Niemi","year":2027,"position":"TE","stars":null,"rating_247":87.0,"committed_to":"Texas A&M","lat":44.3467,"lng":-85.4102,"hometown_city":"Dexter","hometown_state":"MI"},{"name":"Maxwell Hiller","year":2027,"position":"OT","stars":null,"rating_247":98.0,"committed_to":"Florida","lat":40.8781,"lng":-77.7996,"hometown_city":"Coatesville","hometown_state":"PA"},{"name":"Mark Matthews","year":2027,"position":"OT","stars":null,"rating_247":98.0,"committed_to":"Texas A&M","lat":28.6305,"lng":-82.4497,"hometown_city":"Fort Lauderdale","hometown_state":"FL"},{"name":"Oluwasemilore Olubobola","year":2027,"position":"OT","stars":null,"rating_247":98.0,"committed_to":"Notre Dame","lat":40.1907,"lng":-74.6728,"hometown_city":"Jersey City","hometown_state":"NJ"},{"name":"Albert Simien","year":2027,"position":"OT","stars":null,"rating_247":94.0,"committed_to":null,"lat":31.0689,"lng":-91.9968,"hometown_city":"Lake Charles","hometown_state":"LA"},{"name":"James Halter","year":2027,"position":"OT","stars":null,"rating_247":94.0,"committed_to":"Notre Dame","lat":40.8781,"lng":-77.7996,"hometown_city":"Pittsburgh","hometown_state":"PA"},{"name":"Kennedy Brown","year":2027,"position":"OT","stars":null,"rating_247":94.0,"committed_to":"Texas A&M","lat":31.4757,"lng":-99.3312,"hometown_city":"Kingwood","hometown_state":"TX"},{"name":"Jake Hildebrand","year":2027,"position":"OT","stars":null,"rating_247":93.0,"committed_to":"Arizona State","lat":34.2744,"lng":-111.6602,"hometown_city":"Chandler","hometown_state":"AZ"},{"name":"Layton von Brandt","year":2027,"position":"OT","stars":null,"rating_247":92.0,"committed_to":"Auburn","lat":38.9896,"lng":-75.505,"hometown_city":"Middletown","hometown_state":"DE"},{"name":"Cooper Hackett","year":2027,"position":"OT","stars":null,"rating_247":92.0,"committed_to":"Oklahoma","lat":35.5889,"lng":-97.4943,"hometown_city":"Fort Gibson","hometown_state":"OK"},{"name":"Cameron Wagner","year":2027,"position":"OT","stars":null,"rating_247":90.0,"committed_to":"Oregon","lat":40.0417,"lng":-89.1965,"hometown_city":"St. Joseph","hometown_state":"IL"},{"name":"Jackson Hill","year":2027,"position":"OT","stars":null,"rating_247":88.0,"committed_to":"Notre Dame","lat":37.1841,"lng":-119.4696,"hometown_city":"West Hills","hometown_state":"CA"},{"name":"Terrance Smith","year":2027,"position":"IOL","stars":null,"rating_247":95.0,"committed_to":null,"lat":40.8781,"lng":-77.7996,"hometown_city":"Lansdale","hometown_state":"PA"},{"name":"Terrance Smith","year":2027,"position":"IOL","stars":null,"rating_247":95.0,"committed_to":null,"lat":40.8781,"lng":-77.7996,"hometown_city":"Lansdale","hometown_state":"PA"},{"name":"Kellen Wymer","year":2027,"position":"IOL","stars":null,"rating_247":94.0,"committed_to":"Ohio State","lat":40.2862,"lng":-82.7937,"hometown_city":"Liberty Center","hometown_state":"OH"},{"name":"Louis Esposito","year":2027,"position":"IOL","stars":null,"rating_247":86.0,"committed_to":"Michigan","lat":44.3467,"lng":-85.4102,"hometown_city":"Saline","hometown_state":"MI"},{"name":"DJ Jacobs","year":2027,"position":"Edge","stars":null,"rating_247":98.0,"committed_to":"Ohio State","lat":32.6415,"lng":-83.4426,"hometown_city":"Roswell","hometown_state":"GA"},{"name":"KJ Green","year":2027,"position":"Edge","stars":null,"rating_247":98.0,"committed_to":"Louisiana State","lat":32.6415,"lng":-83.4426,"hometown_city":"Stone Mountain","hometown_state":"GA"},{"name":"Anthony Sweeney","year":2027,"position":"Edge","stars":null,"rating_247":98.0,"committed_to":"Texas Tech","lat":39.055,"lng":-76.7909,"hometown_city":"Baltimore","hometown_state":"MD"},{"name":"Abraham Sesay","year":2027,"position":"Edge","stars":null,"rating_247":98.0,"committed_to":null,"lat":40.8781,"lng":-77.7996,"hometown_city":"Exton","hometown_state":"PA"},{"name":"Mekai Brown","year":2027,"position":"Edge","stars":null,"rating_247":98.0,"committed_to":"Southern California","lat":41.6219,"lng":-72.7273,"hometown_city":"Greenwich","hometown_state":"CT"},{"name":"Rashad Streets","year":2027,"position":"Edge","stars":null,"rating_247":98.0,"committed_to":"Oregon","lat":35.5557,"lng":-79.3877,"hometown_city":"Raleigh","hometown_state":"NC"},{"name":"Zyron Forstall","year":2027,"position":"Edge","stars":null,"rating_247":98.0,"committed_to":"Texas A&M","lat":28.6305,"lng":-82.4497,"hometown_city":"Bradenton","hometown_state":"FL"},{"name":"Chris Whitehead","year":2027,"position":"Edge","stars":null,"rating_247":94.0,"committed_to":null,"lat":37.5215,"lng":-78.8537,"hometown_city":"Chesterfield","hometown_state":"VA"},{"name":"Frederick Ards","year":2027,"position":"Edge","stars":null,"rating_247":94.0,"committed_to":"Texas A&M","lat":28.6305,"lng":-82.4497,"hometown_city":"Orlando","hometown_state":"FL"},{"name":"Aidan O'Neil","year":2027,"position":"Edge","stars":null,"rating_247":93.0,"committed_to":"Notre Dame","lat":40.1907,"lng":-74.6728,"hometown_city":"Ramsey","hometown_state":"NJ"},{"name":"Aidan O'Neil","year":2027,"position":"Edge","stars":null,"rating_247":93.0,"committed_to":"Notre Dame","lat":40.1907,"lng":-74.6728,"hometown_city":"Ramsey","hometown_state":"NJ"},{"name":"Jackson Vaughn","year":2027,"position":"Edge","stars":null,"rating_247":92.0,"committed_to":"Notre Dame","lat":40.1907,"lng":-74.6728,"hometown_city":"Oradell","hometown_state":"NJ"},{"name":"Cameron Pritchett","year":2027,"position":"Edge","stars":null,"rating_247":92.0,"committed_to":"Oregon","lat":32.7794,"lng":-86.8287,"hometown_city":"Alabaster","hometown_state":"AL"},{"name":"Zane Rowe","year":2027,"position":"Edge","stars":null,"rating_247":92.0,"committed_to":"Oregon","lat":31.4757,"lng":-99.3312,"hometown_city":"Denton","hometown_state":"TX"},{"name":"Troy Bowens","year":2027,"position":"Edge","stars":null,"rating_247":90.0,"committed_to":"California","lat":37.1841,"lng":-119.4696,"hometown_city":"Sutter","hometown_state":"CA"},{"name":"Recarder Kitchen","year":2027,"position":"Edge","stars":null,"rating_247":90.0,"committed_to":"Michigan","lat":44.3467,"lng":-85.4102,"hometown_city":"Muskegon","hometown_state":"MI"},{"name":"Ifeanyi Emedobi","year":2027,"position":"Edge","stars":null,"rating_247":89.0,"committed_to":null,"lat":39.8942,"lng":-86.2816,"hometown_city":"Fort Wayne","hometown_state":"IN"},{"name":"Justin Weeks","year":2027,"position":"Edge","stars":null,"rating_247":89.0,"committed_to":null,"lat":32.6415,"lng":-83.4426,"hometown_city":"Douglasville","hometown_state":"GA"},{"name":"Chaz Gray","year":2027,"position":"Edge","stars":null,"rating_247":89.0,"committed_to":"Washington","lat":40.1907,"lng":-74.6728,"hometown_city":"Montvale","hometown_state":"NJ"},{"name":"Andrew Rogers","year":2027,"position":"Edge","stars":null,"rating_247":89.0,"committed_to":null,"lat":35.5557,"lng":-79.3877,"hometown_city":"Greensboro","hometown_state":"NC"},{"name":"Jaylen Mercer","year":2027,"position":"Edge","stars":null,"rating_247":88.0,"committed_to":null,"lat":40.2862,"lng":-82.7937,"hometown_city":"Cincinnati","hometown_state":"OH"},{"name":"Jayce Brewer","year":2027,"position":"Edge","stars":null,"rating_247":88.0,"committed_to":"Michigan","lat":39.8942,"lng":-86.2816,"hometown_city":"Indianapolis","hometown_state":"IN"},{"name":"Rion Jackson","year":2027,"position":"Edge","stars":null,"rating_247":88.0,"committed_to":"Auburn","lat":39.055,"lng":-76.7909,"hometown_city":"Annapolis","hometown_state":"MD"},{"name":"Miles Schirmer","year":2027,"position":"Edge","stars":null,"rating_247":88.0,"committed_to":"California","lat":37.1841,"lng":-119.4696,"hometown_city":"Corona","hometown_state":"CA"},{"name":"Isaac Miller","year":2027,"position":"Edge","stars":null,"rating_247":87.0,"committed_to":"Wisconsin","lat":44.6243,"lng":-89.9941,"hometown_city":"Waukesha","hometown_state":"WI"},{"name":"Ty Tautolo","year":2027,"position":"Edge","stars":null,"rating_247":87.0,"committed_to":null,"lat":47.3826,"lng":-120.4472,"hometown_city":"Lake Stevens","hometown_state":"WA"},{"name":"Esa Wittingburg","year":2027,"position":"Edge","stars":null,"rating_247":87.0,"committed_to":null,"lat":40.1907,"lng":-74.6728,"hometown_city":"East Orange","hometown_state":"NJ"},{"name":"Jalen Brewster","year":2027,"position":"DL","stars":null,"rating_247":98.0,"committed_to":"Texas Tech","lat":31.4757,"lng":-99.3312,"hometown_city":"Cedar Hill","hometown_state":"TX"},{"name":"David Folorunsho","year":2027,"position":"DL","stars":null,"rating_247":94.0,"committed_to":"Notre Dame","lat":40.0417,"lng":-89.1965,"hometown_city":"Chicago","hometown_state":"IL"},{"name":"Ben'Jarvius Shumaker","year":2027,"position":"DL","stars":null,"rating_247":93.0,"committed_to":"Mississippi","lat":32.7364,"lng":-89.6678,"hometown_city":"Ackerman","hometown_state":"MS"},{"name":"Wyatt Smith","year":2027,"position":"DL","stars":null,"rating_247":93.0,"committed_to":"Ohio State","lat":28.6305,"lng":-82.4497,"hometown_city":"Fort Lauderdale","hometown_state":"FL"},{"name":"Karlos May","year":2027,"position":"DL","stars":null,"rating_247":92.0,"committed_to":null,"lat":32.7794,"lng":-86.8287,"hometown_city":"Birmingham","hometown_state":"AL"},{"name":"Alifeleti Tuihalamaka","year":2027,"position":"DL","stars":null,"rating_247":91.0,"committed_to":"Southern California","lat":37.1841,"lng":-119.4696,"hometown_city":"Westlake Village","hometown_state":"CA"},{"name":"Xavier Muhammad","year":2027,"position":"DL","stars":null,"rating_247":91.0,"committed_to":"Michigan","lat":31.4757,"lng":-99.3312,"hometown_city":"South Houston","hometown_state":"TX"},{"name":"Sam LeJeune","year":2027,"position":"DL","stars":null,"rating_247":91.0,"committed_to":null,"lat":32.7364,"lng":-89.6678,"hometown_city":"Poplarville","hometown_state":"MS"},{"name":"Luke Starcevic","year":2027,"position":"DL","stars":null,"rating_247":91.0,"committed_to":"Clemson","lat":47.4501,"lng":-100.4659,"hometown_city":"Kindred","hometown_state":"ND"},{"name":"Brayden Parks","year":2027,"position":"DL","stars":null,"rating_247":91.0,"committed_to":null,"lat":40.0417,"lng":-89.1965,"hometown_city":"Oak Lawn","hometown_state":"IL"},{"name":"Ezekiel Ayangbile","year":2027,"position":"DL","stars":null,"rating_247":90.0,"committed_to":"Miami","lat":31.4757,"lng":-99.3312,"hometown_city":"Houston","hometown_state":"TX"},{"name":"Jon Ioane","year":2027,"position":"DL","stars":null,"rating_247":90.0,"committed_to":"Washington","lat":37.1841,"lng":-119.4696,"hometown_city":"Tustin","hometown_state":"CA"},{"name":"Elijah Patmon","year":2027,"position":"DL","stars":null,"rating_247":90.0,"committed_to":"Texas A&M","lat":32.6415,"lng":-83.4426,"hometown_city":"Warner Robins","hometown_state":"GA"},{"name":"Santana Harvey","year":2027,"position":"DL","stars":null,"rating_247":90.0,"committed_to":"Clemson","lat":28.6305,"lng":-82.4497,"hometown_city":"Lakeland","hometown_state":"FL"},{"name":"Donivan Moore","year":2027,"position":"DL","stars":null,"rating_247":90.0,"committed_to":"Auburn","lat":32.7794,"lng":-86.8287,"hometown_city":"Bessemer","hometown_state":"AL"},{"name":"Joseph Buchanan","year":2027,"position":"DL","stars":null,"rating_247":90.0,"committed_to":"Virginia Tech","lat":39.055,"lng":-76.7909,"hometown_city":"Owings Mills","hometown_state":"MD"},{"name":"K'Adrian Redmond","year":2027,"position":"DL","stars":null,"rating_247":90.0,"committed_to":"Texas Tech","lat":31.4757,"lng":-99.3312,"hometown_city":"DeSoto","hometown_state":"TX"},{"name":"Tevita Nonu","year":2027,"position":"DL","stars":null,"rating_247":90.0,"committed_to":"Washington","lat":47.3826,"lng":-120.4472,"hometown_city":"Seattle","hometown_state":"WA"},{"name":"Elija Harmon","year":2027,"position":"DL","stars":null,"rating_247":90.0,"committed_to":"Oklahoma","lat":37.1841,"lng":-119.4696,"hometown_city":"Inglewood","hometown_state":"CA"},{"name":"Deven Robertson","year":2027,"position":"DL","stars":null,"rating_247":89.0,"committed_to":"Oklahoma","lat":32.7364,"lng":-89.6678,"hometown_city":"Hattiesburg","hometown_state":"MS"},{"name":"Reinaldo Perez","year":2027,"position":"DL","stars":null,"rating_247":89.0,"committed_to":"Indiana","lat":40.2862,"lng":-82.7937,"hometown_city":"Columbus","hometown_state":"OH"},{"name":"Jeremiah Williams","year":2027,"position":"DL","stars":null,"rating_247":89.0,"committed_to":"BYU","lat":37.1841,"lng":-119.4696,"hometown_city":"Tustin","hometown_state":"CA"},{"name":"Richie Flanigan","year":2027,"position":"DL","stars":null,"rating_247":89.0,"committed_to":"Notre Dame","lat":44.6243,"lng":-89.9941,"hometown_city":"Green Bay","hometown_state":"WI"},{"name":"Jaderian Jones","year":2027,"position":"DL","stars":null,"rating_247":89.0,"committed_to":"California","lat":31.4757,"lng":-99.3312,"hometown_city":"Dallas","hometown_state":"TX"},{"name":"Tyler Alexander","year":2027,"position":"DL","stars":null,"rating_247":88.0,"committed_to":null,"lat":28.6305,"lng":-82.4497,"hometown_city":"Wellington","hometown_state":"FL"},{"name":"Jamar Thompson","year":2027,"position":"DL","stars":null,"rating_247":88.0,"committed_to":"Georgia Tech","lat":28.6305,"lng":-82.4497,"hometown_city":"Boca Raton","hometown_state":"FL"},{"name":"Segun Alexander","year":2027,"position":"DL","stars":null,"rating_247":88.0,"committed_to":null,"lat":32.6415,"lng":-83.4426,"hometown_city":"Rabun Gap","hometown_state":"GA"},{"name":"Griff Galloway","year":2027,"position":"DL","stars":null,"rating_247":88.0,"committed_to":"Kentucky","lat":35.5557,"lng":-79.3877,"hometown_city":"Charlotte","hometown_state":"NC"},{"name":"Montana Toilolo","year":2027,"position":"DL","stars":null,"rating_247":88.0,"committed_to":"UCLA","lat":37.1841,"lng":-119.4696,"hometown_city":"Santa Ana","hometown_state":"CA"},{"name":"Sione Felila","year":2027,"position":"DL","stars":null,"rating_247":88.0,"committed_to":"Oklahoma","lat":37.1841,"lng":-119.4696,"hometown_city":"Hesperia","hometown_state":"CA"},{"name":"Kyng Golston","year":2027,"position":"DL","stars":null,"rating_247":84.0,"committed_to":null,"lat":35.5889,"lng":-97.4943,"hometown_city":"Valliant","hometown_state":"OK"},{"name":"Omarii Sanders","year":2027,"position":"LB","stars":null,"rating_247":94.0,"committed_to":"Vanderbilt","lat":35.858,"lng":-86.3505,"hometown_city":"Nashville","hometown_state":"TN"},{"name":"Aroson Randle Jr.","year":2027,"position":"LB","stars":null,"rating_247":94.0,"committed_to":"Miami","lat":35.5557,"lng":-79.3877,"hometown_city":"Garner","hometown_state":"NC"},{"name":"Kaden Henderson","year":2027,"position":"LB","stars":null,"rating_247":94.0,"committed_to":null,"lat":28.6305,"lng":-82.4497,"hometown_city":"Tampa","hometown_state":"FL"},{"name":"Toa Satele","year":2027,"position":"LB","stars":null,"rating_247":93.0,"committed_to":"Oregon","lat":20.2927,"lng":-156.3737,"hometown_city":"Mililani","hometown_state":"HI"},{"name":"Taven Epps","year":2027,"position":"LB","stars":null,"rating_247":92.0,"committed_to":"Oklahoma","lat":37.1841,"lng":-119.4696,"hometown_city":"Tustin","hometown_state":"CA"},{"name":"Sean Fox","year":2027,"position":"LB","stars":null,"rating_247":91.0,"committed_to":null,"lat":39.8942,"lng":-86.2816,"hometown_city":"Indianapolis","hometown_state":"IN"},{"name":"Roman Igwebuike","year":2027,"position":"LB","stars":null,"rating_247":91.0,"committed_to":null,"lat":40.0417,"lng":-89.1965,"hometown_city":"Chicago","hometown_state":"IL"},{"name":"Quinton Cypher","year":2027,"position":"LB","stars":null,"rating_247":90.0,"committed_to":"Ohio State","lat":35.5557,"lng":-79.3877,"hometown_city":"Raleigh","hometown_state":"NC"},{"name":"Noah Glover","year":2027,"position":"LB","stars":null,"rating_247":90.0,"committed_to":"Miami","lat":37.5215,"lng":-78.8537,"hometown_city":"Haymarket","hometown_state":"VA"},{"name":"Mikahi Allen","year":2027,"position":"LB","stars":null,"rating_247":90.0,"committed_to":null,"lat":40.1907,"lng":-74.6728,"hometown_city":"Ramsey","hometown_state":"NJ"},{"name":"Tate Wallace","year":2027,"position":"LB","stars":null,"rating_247":90.0,"committed_to":"Minnesota","lat":42.0751,"lng":-93.496,"hometown_city":"Iowa City","hometown_state":"IA"},{"name":"Joakim Gouda","year":2027,"position":"LB","stars":null,"rating_247":89.0,"committed_to":"Georgia","lat":32.6415,"lng":-83.4426,"hometown_city":"Powder Springs","hometown_state":"GA"},{"name":"Amarri Irvin","year":2027,"position":"LB","stars":null,"rating_247":89.0,"committed_to":"Notre Dame","lat":28.6305,"lng":-82.4497,"hometown_city":"Bradenton","hometown_state":"FL"},{"name":"Antwoine Higgins","year":2027,"position":"LB","stars":null,"rating_247":88.0,"committed_to":"Kentucky","lat":40.2862,"lng":-82.7937,"hometown_city":"Cincinnati","hometown_state":"OH"},{"name":"Isaiah Phelps","year":2027,"position":"LB","stars":null,"rating_247":88.0,"committed_to":"San Diego State","lat":37.1841,"lng":-119.4696,"hometown_city":"Oxnard","hometown_state":"CA"},{"name":"Ellis McGaskin","year":2027,"position":"LB","stars":null,"rating_247":88.0,"committed_to":"Florida","lat":32.7794,"lng":-86.8287,"hometown_city":"Mobile","hometown_state":"AL"},{"name":"Braylon Williams","year":2027,"position":"LB","stars":null,"rating_247":88.0,"committed_to":"SMU","lat":31.4757,"lng":-99.3312,"hometown_city":"Arlington","hometown_state":"TX"},{"name":"JT Austin","year":2027,"position":"LB","stars":null,"rating_247":88.0,"committed_to":null,"lat":32.6415,"lng":-83.4426,"hometown_city":"Tyrone","hometown_state":"GA"},{"name":"Isaiah Leilua","year":2027,"position":"LB","stars":null,"rating_247":88.0,"committed_to":"Washington","lat":37.1841,"lng":-119.4696,"hometown_city":"Anaheim","hometown_state":"CA"},{"name":"Jake Godfree","year":2027,"position":"LB","stars":null,"rating_247":87.0,"committed_to":"North Carolina State","lat":32.6415,"lng":-83.4426,"hometown_city":"Suwanee","hometown_state":"GA"},{"name":"Ty Ashley","year":2027,"position":"LB","stars":null,"rating_247":87.0,"committed_to":"Kentucky","lat":37.5347,"lng":-85.3021,"hometown_city":"Owensboro","hometown_state":"KY"},{"name":"Josiah Poyer","year":2027,"position":"LB","stars":null,"rating_247":87.0,"committed_to":"Southern California","lat":37.1841,"lng":-119.4696,"hometown_city":"Bellflower","hometown_state":"CA"},{"name":"Liufau Loumoli","year":2027,"position":"LB","stars":null,"rating_247":86.0,"committed_to":null,"lat":28.6305,"lng":-82.4497,"hometown_city":"Bradenton","hometown_state":"FL"},{"name":"Deion Jackson","year":2027,"position":"LB","stars":null,"rating_247":86.0,"committed_to":null,"lat":28.6305,"lng":-82.4497,"hometown_city":"Vero Beach","hometown_state":"FL"},{"name":"Michael Griffin Jr.","year":2027,"position":"LB","stars":null,"rating_247":86.0,"committed_to":null,"lat":35.5557,"lng":-79.3877,"hometown_city":"Cornelius","hometown_state":"NC"},{"name":"John Meredith III","year":2027,"position":"CB","stars":null,"rating_247":98.0,"committed_to":null,"lat":31.4757,"lng":-99.3312,"hometown_city":"Fort Worth","hometown_state":"TX"},{"name":"Danny Lang","year":2027,"position":"CB","stars":null,"rating_247":95.0,"committed_to":"Southern California","lat":37.1841,"lng":-119.4696,"hometown_city":"Santa Ana","hometown_state":"CA"},{"name":"Hayden Stepp","year":2027,"position":"CB","stars":null,"rating_247":94.0,"committed_to":null,"lat":39.3289,"lng":-116.6312,"hometown_city":"Las Vegas","hometown_state":"NV"},{"name":"Xavier Hasan","year":2027,"position":"CB","stars":null,"rating_247":94.0,"committed_to":"Notre Dame","lat":35.5557,"lng":-79.3877,"hometown_city":"Raleigh","hometown_state":"NC"},{"name":"Joshua Dobson","year":2027,"position":"CB","stars":null,"rating_247":94.0,"committed_to":null,"lat":35.5557,"lng":-79.3877,"hometown_city":"Cornelius","hometown_state":"NC"},{"name":"Karnell James","year":2027,"position":"CB","stars":null,"rating_247":93.0,"committed_to":"Texas","lat":31.4757,"lng":-99.3312,"hometown_city":"Manvel","hometown_state":"TX"},{"name":"Aaryn Washington","year":2027,"position":"CB","stars":null,"rating_247":93.0,"committed_to":"Southern California","lat":28.6305,"lng":-82.4497,"hometown_city":"Bradenton","hometown_state":"FL"},{"name":"Ace Alston","year":2027,"position":"CB","stars":null,"rating_247":93.0,"committed_to":"Notre Dame","lat":40.2862,"lng":-82.7937,"hometown_city":"Cincinnati","hometown_state":"OH"},{"name":"Monsanna Torbert Jr.","year":2027,"position":"CB","stars":null,"rating_247":93.0,"committed_to":null,"lat":40.2862,"lng":-82.7937,"hometown_city":"Cincinnati","hometown_state":"OH"},{"name":"Censere Gaylord","year":2027,"position":"CB","stars":null,"rating_247":92.0,"committed_to":null,"lat":28.6305,"lng":-82.4497,"hometown_city":"Bradenton","hometown_state":"FL"},{"name":"Kei'Shjuan Telfair","year":2027,"position":"CB","stars":null,"rating_247":92.0,"committed_to":"Penn State","lat":40.2862,"lng":-82.7937,"hometown_city":"Euclid","hometown_state":"OH"},{"name":"Jerry Outhouse Jr.","year":2027,"position":"CB","stars":null,"rating_247":91.0,"committed_to":"UCLA","lat":31.4757,"lng":-99.3312,"hometown_city":"Fort Worth","hometown_state":"TX"},{"name":"Tavares Harrington","year":2027,"position":"CB","stars":null,"rating_247":90.0,"committed_to":"Michigan","lat":40.0417,"lng":-89.1965,"hometown_city":"Chicago","hometown_state":"IL"},{"name":"Brandon Sherrard","year":2027,"position":"CB","stars":null,"rating_247":90.0,"committed_to":null,"lat":31.4757,"lng":-99.3312,"hometown_city":"Pearland","hometown_state":"TX"},{"name":"Amare Nugent","year":2027,"position":"CB","stars":null,"rating_247":90.0,"committed_to":"Florida","lat":28.6305,"lng":-82.4497,"hometown_city":"Plantation","hometown_state":"FL"},{"name":"Evan Via","year":2027,"position":"CB","stars":null,"rating_247":90.0,"committed_to":"Stanford","lat":38.3566,"lng":-92.458,"hometown_city":"St. Louis","hometown_state":"MO"},{"name":"Josiah Molden","year":2027,"position":"CB","stars":null,"rating_247":90.0,"committed_to":"Oregon","lat":43.9336,"lng":-120.5583,"hometown_city":"West Linn","hometown_state":"OR"},{"name":"Duvay Williams","year":2027,"position":"CB","stars":null,"rating_247":90.0,"committed_to":"California","lat":37.1841,"lng":-119.4696,"hometown_city":"Inglewood","hometown_state":"CA"},{"name":"Jailen Hill","year":2027,"position":"CB","stars":null,"rating_247":88.0,"committed_to":null,"lat":37.1841,"lng":-119.4696,"hometown_city":"Bellflower","hometown_state":"CA"},{"name":"Jaden Carey","year":2027,"position":"CB","stars":null,"rating_247":88.0,"committed_to":null,"lat":28.6305,"lng":-82.4497,"hometown_city":"Fort Lauderdale","hometown_state":"FL"},{"name":"Larry Moon III","year":2027,"position":"CB","stars":null,"rating_247":88.0,"committed_to":null,"lat":28.6305,"lng":-82.4497,"hometown_city":"Bradenton","hometown_state":"FL"},{"name":"Mikyal Davis","year":2027,"position":"CB","stars":null,"rating_247":88.0,"committed_to":"Oklahoma","lat":34.2744,"lng":-111.6602,"hometown_city":"Goodyear","hometown_state":"AZ"},{"name":"Cooper Witten","year":2027,"position":"S","stars":null,"rating_247":94.0,"committed_to":"Oklahoma","lat":31.4757,"lng":-99.3312,"hometown_city":"Argyle","hometown_state":"TX"},{"name":"Gavin Williams","year":2027,"position":"S","stars":null,"rating_247":93.0,"committed_to":"Southern California","lat":37.1841,"lng":-119.4696,"hometown_city":"La Verne","hometown_state":"CA"},{"name":"Tory Pittman III","year":2027,"position":"S","stars":null,"rating_247":93.0,"committed_to":"Nebraska","lat":41.5378,"lng":-99.7951,"hometown_city":"Omaha","hometown_state":"NE"},{"name":"Zayden Gamble","year":2027,"position":"S","stars":null,"rating_247":92.0,"committed_to":"Notre Dame","lat":28.6305,"lng":-82.4497,"hometown_city":"Fort Lauderdale","hometown_state":"FL"},{"name":"Kenneth Simon II","year":2027,"position":"S","stars":null,"rating_247":91.0,"committed_to":"Alabama","lat":35.858,"lng":-86.3505,"hometown_city":"Brentwood","hometown_state":"TN"},{"name":"Myles Baker","year":2027,"position":"S","stars":null,"rating_247":90.0,"committed_to":"California","lat":37.1841,"lng":-119.4696,"hometown_city":"Chatsworth","hometown_state":"CA"},{"name":"Andre Hyppolite","year":2027,"position":"S","stars":null,"rating_247":90.0,"committed_to":null,"lat":28.6305,"lng":-82.4497,"hometown_city":"Miami","hometown_state":"FL"},{"name":"Jaylyn Jones","year":2027,"position":"S","stars":null,"rating_247":90.0,"committed_to":"Miami","lat":28.6305,"lng":-82.4497,"hometown_city":"Hollywood","hometown_state":"FL"},{"name":"Kenaz Sullivan","year":2027,"position":"S","stars":null,"rating_247":90.0,"committed_to":null,"lat":37.5215,"lng":-78.8537,"hometown_city":"Springfield","hometown_state":"VA"},{"name":"Khalil Terry","year":2027,"position":"S","stars":null,"rating_247":88.0,"committed_to":"UCLA","lat":37.1841,"lng":-119.4696,"hometown_city":"Tustin","hometown_state":"CA"},{"name":"Marquis Bryant","year":2027,"position":"S","stars":null,"rating_247":88.0,"committed_to":"Kentucky","lat":35.5557,"lng":-79.3877,"hometown_city":"Rolesville","hometown_state":"NC"},{"name":"Isala Aisa Wily-Ava","year":2027,"position":"S","stars":null,"rating_247":88.0,"committed_to":"Washington","lat":37.1841,"lng":-119.4696,"hometown_city":"Bellflower","hometown_state":"CA"},{"name":"Jaden Walk-Green","year":2027,"position":"S","stars":null,"rating_247":88.0,"committed_to":null,"lat":37.1841,"lng":-119.4696,"hometown_city":"Corona","hometown_state":"CA"},{"name":"John Gay","year":2027,"position":"S","stars":null,"rating_247":87.0,"committed_to":"Notre Dame","lat":28.6305,"lng":-82.4497,"hometown_city":"Hollywood","hometown_state":"FL"},{"name":"Alan Blackshere","year":2027,"position":"S","stars":null,"rating_247":86.0,"committed_to":"Connecticut","lat":28.6305,"lng":-82.4497,"hometown_city":"Opa Locka","hometown_state":"FL"},{"name":"Honor Fa'alave-Johnson","year":2027,"position":"ATH","stars":null,"rating_247":98.0,"committed_to":"Southern California","lat":37.1841,"lng":-119.4696,"hometown_city":"San Diego","hometown_state":"CA"},{"name":"Jamier Brown","year":2027,"position":"ATH","stars":null,"rating_247":98.0,"committed_to":"Ohio State","lat":40.2862,"lng":-82.7937,"hometown_city":"Sunbury","hometown_state":"OH"},{"name":"Kamarui Dorsey","year":2027,"position":"ATH","stars":null,"rating_247":95.0,"committed_to":"Texas A&M","lat":32.6415,"lng":-83.4426,"hometown_city":"Hampton","hometown_state":"GA"},{"name":"Marcus Fakatou","year":2027,"position":"ATH","stars":null,"rating_247":94.0,"committed_to":null,"lat":37.1841,"lng":-119.4696,"hometown_city":"Chatsworth","hometown_state":"CA"},{"name":"Tae Walden Jr.","year":2027,"position":"ATH","stars":null,"rating_247":94.0,"committed_to":null,"lat":35.858,"lng":-86.3505,"hometown_city":"Collierville","hometown_state":"TN"},{"name":"Myson Johnson-Cook","year":2027,"position":"ATH","stars":null,"rating_247":94.0,"committed_to":"Auburn","lat":40.0417,"lng":-89.1965,"hometown_city":"East St. Louis","hometown_state":"IL"},{"name":"Xavier Sabb","year":2027,"position":"ATH","stars":null,"rating_247":94.0,"committed_to":null,"lat":40.1907,"lng":-74.6728,"hometown_city":"Glassboro","hometown_state":"NJ"},{"name":"Brayton Feister","year":2027,"position":"ATH","stars":null,"rating_247":91.0,"committed_to":null,"lat":40.2862,"lng":-82.7937,"hometown_city":"Massillon","hometown_state":"OH"},{"name":"Corey Hadley Jr.","year":2027,"position":"ATH","stars":null,"rating_247":90.0,"committed_to":"Nebraska","lat":32.6415,"lng":-83.4426,"hometown_city":"Tyrone","hometown_state":"GA"},{"name":"Matthew Gregory","year":2027,"position":"ATH","stars":null,"rating_247":90.0,"committed_to":null,"lat":40.8781,"lng":-77.7996,"hometown_city":"Pottstown","hometown_state":"PA"},{"name":"Braden Gordon","year":2027,"position":"ATH","stars":null,"rating_247":89.0,"committed_to":"Georgia Tech","lat":32.7794,"lng":-86.8287,"hometown_city":"Montgomery","hometown_state":"AL"},{"name":"Brennen Lacey","year":2027,"position":"ATH","stars":null,"rating_247":88.0,"committed_to":"Louisiana State","lat":31.4757,"lng":-99.3312,"hometown_city":"Frisco","hometown_state":"TX"},{"name":"Garyon Hobbs","year":2027,"position":"ATH","stars":null,"rating_247":88.0,"committed_to":"Indiana","lat":37.5347,"lng":-85.3021,"hometown_city":"Louisville","hometown_state":"KY"},{"name":"Cade Cooper","year":2027,"position":"ATH","stars":null,"rating_247":88.0,"committed_to":"Louisiana State","lat":40.8781,"lng":-77.7996,"hometown_city":"Malvern","hometown_state":"PA"},{"name":"Max Brown","year":2027,"position":"ATH","stars":null,"rating_247":86.0,"committed_to":"Clemson","lat":32.6415,"lng":-83.4426,"hometown_city":"Jefferson","hometown_state":"GA"},{"name":"Cantrell Eubanks","year":2027,"position":"ATH","stars":null,"rating_247":84.0,"committed_to":null,"lat":39.3289,"lng":-116.6312,"hometown_city":"Las Vegas","hometown_state":"NV"},{"name":"Sean Kraft","year":2027,"position":"LS","stars":null,"rating_247":80.0,"committed_to":"Notre Dame","lat":35.5557,"lng":-79.3877,"hometown_city":"Swannanoa","hometown_state":"NC"}],"2028":[{"name":"Kingston Preyear","year":2028,"position":"QB","stars":null,"rating_247":90.0,"committed_to":null,"lat":32.7794,"lng":-86.8287,"hometown_city":"Alexander City","hometown_state":"AL"},{"name":"Neimann Lawrence","year":2028,"position":"QB","stars":null,"rating_247":90.0,"committed_to":null,"lat":28.6305,"lng":-82.4497,"hometown_city":"Plantation","hometown_state":"FL"},{"name":"Lukas Prock","year":2028,"position":"QB","stars":null,"rating_247":90.0,"committed_to":null,"lat":40.1907,"lng":-74.6728,"hometown_city":"Princeton","hometown_state":"NJ"},{"name":"Lukas Prock","year":2028,"position":"QB","stars":null,"rating_247":90.0,"committed_to":null,"lat":40.1907,"lng":-74.6728,"hometown_city":"Princeton","hometown_state":"NJ"},{"name":"Trey Tagliaferri","year":2028,"position":"QB","stars":null,"rating_247":89.0,"committed_to":null,"lat":40.1907,"lng":-74.6728,"hometown_city":"Oradell","hometown_state":"NJ"},{"name":"Zaiden Jernigan","year":2028,"position":"RB","stars":null,"rating_247":90.0,"committed_to":null,"lat":32.7364,"lng":-89.6678,"hometown_city":"Louisville","hometown_state":"MS"},{"name":"Micah Rhodes","year":2028,"position":"RB","stars":null,"rating_247":90.0,"committed_to":null,"lat":31.4757,"lng":-99.3312,"hometown_city":"Spring","hometown_state":"TX"},{"name":"Acely Brown","year":2028,"position":"RB","stars":null,"rating_247":90.0,"committed_to":null,"lat":32.7364,"lng":-89.6678,"hometown_city":"Petal","hometown_state":"MS"},{"name":"Elijah Cromwell","year":2028,"position":"RB","stars":null,"rating_247":90.0,"committed_to":null,"lat":38.9972,"lng":-105.5478,"hometown_city":"Englewood","hometown_state":"CO"},{"name":"Tahmere Brown","year":2028,"position":"RB","stars":null,"rating_247":90.0,"committed_to":null,"lat":40.1907,"lng":-74.6728,"hometown_city":"Pennington","hometown_state":"NJ"},{"name":"Zachary Belyeu","year":2028,"position":"RB","stars":null,"rating_247":88.0,"committed_to":null,"lat":32.6415,"lng":-83.4426,"hometown_city":"Kennesaw","hometown_state":"GA"},{"name":"Anthony Howard Jr.","year":2028,"position":"RB","stars":null,"rating_247":87.0,"committed_to":null,"lat":28.6305,"lng":-82.4497,"hometown_city":"Auburndale","hometown_state":"FL"},{"name":"Jordan McNeil","year":2028,"position":"RB","stars":null,"rating_247":null,"committed_to":null,"lat":32.6415,"lng":-83.4426,"hometown_city":"Thomasville","hometown_state":"GA"},{"name":"Brysen Wright","year":2028,"position":"WR","stars":null,"rating_247":95.0,"committed_to":null,"lat":28.6305,"lng":-82.4497,"hometown_city":"Jacksonville","hometown_state":"FL"},{"name":"Jaylen Addai","year":2028,"position":"WR","stars":null,"rating_247":93.0,"committed_to":null,"lat":31.4757,"lng":-99.3312,"hometown_city":"Pearland","hometown_state":"TX"},{"name":"Jett Harrison","year":2028,"position":"WR","stars":null,"rating_247":92.0,"committed_to":null,"lat":40.8781,"lng":-77.7996,"hometown_city":"Philadelphia","hometown_state":"PA"},{"name":"Deandre Bidden","year":2028,"position":"WR","stars":null,"rating_247":92.0,"committed_to":null,"lat":44.3467,"lng":-85.4102,"hometown_city":"Harper Woods","hometown_state":"MI"},{"name":"Lorenzo McMullen Jr.","year":2028,"position":"WR","stars":null,"rating_247":90.0,"committed_to":null,"lat":40.2862,"lng":-82.7937,"hometown_city":"Cincinnati","hometown_state":"OH"},{"name":"Malachi Lee","year":2028,"position":"WR","stars":null,"rating_247":90.0,"committed_to":null,"lat":37.5215,"lng":-78.8537,"hometown_city":"Chantilly","hometown_state":"VA"},{"name":"Tyree Mannings Jr.","year":2028,"position":"WR","stars":null,"rating_247":90.0,"committed_to":null,"lat":28.6305,"lng":-82.4497,"hometown_city":"Venice","hometown_state":"FL"},{"name":"Brandon Jefferson","year":2028,"position":"WR","stars":null,"rating_247":90.0,"committed_to":null,"lat":39.055,"lng":-76.7909,"hometown_city":"Baltimore","hometown_state":"MD"},{"name":"Derrell Hines Jr.","year":2028,"position":"WR","stars":null,"rating_247":90.0,"committed_to":null,"lat":28.6305,"lng":-82.4497,"hometown_city":"Tampa","hometown_state":"FL"},{"name":"Tromon Isaac Jr.","year":2028,"position":"WR","stars":null,"rating_247":90.0,"committed_to":null,"lat":28.6305,"lng":-82.4497,"hometown_city":"Hollywood","hometown_state":"FL"},{"name":"Samir Edwards","year":2028,"position":"WR","stars":null,"rating_247":90.0,"committed_to":null,"lat":39.055,"lng":-76.7909,"hometown_city":"Baltimore","hometown_state":"MD"},{"name":"Armani Strong","year":2028,"position":"WR","stars":null,"rating_247":90.0,"committed_to":null,"lat":28.6305,"lng":-82.4497,"hometown_city":"Hollywood","hometown_state":"FL"},{"name":"Jeramy Laster Jr.","year":2028,"position":"WR","stars":null,"rating_247":90.0,"committed_to":null,"lat":35.858,"lng":-86.3505,"hometown_city":"Hendersonville","hometown_state":"TN"},{"name":"Ryan Richmond-McDavis","year":2028,"position":"WR","stars":null,"rating_247":90.0,"committed_to":null,"lat":38.3566,"lng":-92.458,"hometown_city":"St. Louis","hometown_state":"MO"},{"name":"Dedrick Kimbrough","year":2028,"position":"WR","stars":null,"rating_247":90.0,"committed_to":null,"lat":32.7794,"lng":-86.8287,"hometown_city":"Alabaster","hometown_state":"AL"},{"name":"Marshaun Thornton","year":2028,"position":"WR","stars":null,"rating_247":89.0,"committed_to":null,"lat":40.0417,"lng":-89.1965,"hometown_city":"Chicago","hometown_state":"IL"},{"name":"Owen Johnson","year":2028,"position":"WR","stars":null,"rating_247":88.0,"committed_to":null,"lat":40.8781,"lng":-77.7996,"hometown_city":"Wyndmoor","hometown_state":"PA"},{"name":"Dominick Harris-Payne","year":2028,"position":"WR","stars":null,"rating_247":88.0,"committed_to":null,"lat":28.6305,"lng":-82.4497,"hometown_city":"Lakeland","hometown_state":"FL"},{"name":"Maddox Weil","year":2028,"position":"WR","stars":null,"rating_247":87.0,"committed_to":null,"lat":39.8942,"lng":-86.2816,"hometown_city":"Fort Wayne","hometown_state":"IN"},{"name":"DJ Tubbs","year":2028,"position":"WR","stars":null,"rating_247":87.0,"committed_to":null,"lat":37.1841,"lng":-119.4696,"hometown_city":"Bellflower","hometown_state":"CA"},{"name":"Cameron Fuse","year":2028,"position":"WR","stars":null,"rating_247":86.0,"committed_to":null,"lat":28.6305,"lng":-82.4497,"hometown_city":"Lakeland","hometown_state":"FL"},{"name":"Trey Finney","year":2028,"position":"WR","stars":null,"rating_247":null,"committed_to":null,"lat":31.4757,"lng":-99.3312,"hometown_city":"Willis","hometown_state":"TX"},{"name":"Braxton Rein","year":2028,"position":"TE","stars":null,"rating_247":90.0,"committed_to":null,"lat":35.858,"lng":-86.3505,"hometown_city":"Chattanooga","hometown_state":"TN"},{"name":"Jack McNamara","year":2028,"position":"TE","stars":null,"rating_247":89.0,"committed_to":null,"lat":40.0417,"lng":-89.1965,"hometown_city":"Oak Lawn","hometown_state":"IL"},{"name":"Theo Schott","year":2028,"position":"TE","stars":null,"rating_247":88.0,"committed_to":null,"lat":39.8942,"lng":-86.2816,"hometown_city":"Zionsville","hometown_state":"IN"},{"name":"Tre Oiler","year":2028,"position":"TE","stars":null,"rating_247":87.0,"committed_to":null,"lat":44.6243,"lng":-89.9941,"hometown_city":"Hartland","hometown_state":"WI"},{"name":"Lincoln Fa'alafi","year":2028,"position":"OT","stars":null,"rating_247":91.0,"committed_to":null,"lat":37.1841,"lng":-119.4696,"hometown_city":"San Juan Capistrano","hometown_state":"CA"},{"name":"Joseph Frierdich","year":2028,"position":"OT","stars":null,"rating_247":90.0,"committed_to":null,"lat":40.0417,"lng":-89.1965,"hometown_city":"Carbondale","hometown_state":"IL"},{"name":"Austin Attalah","year":2028,"position":"OT","stars":null,"rating_247":90.0,"committed_to":null,"lat":37.1841,"lng":-119.4696,"hometown_city":"San Bernardino","hometown_state":"CA"},{"name":"Joey Fleming","year":2028,"position":"OT","stars":null,"rating_247":90.0,"committed_to":null,"lat":32.7794,"lng":-86.8287,"hometown_city":"Huntsville","hometown_state":"AL"},{"name":"Wyatt VanBoening","year":2028,"position":"OT","stars":null,"rating_247":90.0,"committed_to":null,"lat":40.0417,"lng":-89.1965,"hometown_city":"Mundelein","hometown_state":"IL"},{"name":"Ben Coleman","year":2028,"position":"OT","stars":null,"rating_247":90.0,"committed_to":null,"lat":40.0417,"lng":-89.1965,"hometown_city":"New Lenox","hometown_state":"IL"},{"name":"King Pitts","year":2028,"position":"OT","stars":null,"rating_247":89.0,"committed_to":null,"lat":20.2927,"lng":-156.3737,"hometown_city":"Kapa'a","hometown_state":"HI"},{"name":"Apisai Fifita","year":2028,"position":"OT","stars":null,"rating_247":87.0,"committed_to":null,"lat":37.1841,"lng":-119.4696,"hometown_city":"Westlake Village","hometown_state":"CA"},{"name":"Maui Tonata","year":2028,"position":"IOL","stars":null,"rating_247":94.0,"committed_to":null,"lat":39.321,"lng":-111.0937,"hometown_city":"Orem","hometown_state":"UT"},{"name":"Antonio Thomas Jr.","year":2028,"position":"Edge","stars":null,"rating_247":93.0,"committed_to":null,"lat":28.6305,"lng":-82.4497,"hometown_city":"Tampa","hometown_state":"FL"},{"name":"Cassell Cruickshank","year":2028,"position":"Edge","stars":null,"rating_247":92.0,"committed_to":null,"lat":35.5557,"lng":-79.3877,"hometown_city":"Fayetteville","hometown_state":"NC"},{"name":"Jalanie George","year":2028,"position":"Edge","stars":null,"rating_247":92.0,"committed_to":null,"lat":34.2744,"lng":-111.6602,"hometown_city":"Goodyear","hometown_state":"AZ"},{"name":"Landen Wade","year":2028,"position":"Edge","stars":null,"rating_247":91.0,"committed_to":null,"lat":34.2744,"lng":-111.6602,"hometown_city":"Chandler","hometown_state":"AZ"},{"name":"Jayden Bell","year":2028,"position":"Edge","stars":null,"rating_247":90.0,"committed_to":null,"lat":44.3467,"lng":-85.4102,"hometown_city":"Bloomfield Hills","hometown_state":"MI"},{"name":"Cam Toomey","year":2028,"position":"Edge","stars":null,"rating_247":90.0,"committed_to":null,"lat":42.9538,"lng":-75.5268,"hometown_city":"Saratoga Springs","hometown_state":"NY"},{"name":"Keoni Snipes","year":2028,"position":"Edge","stars":null,"rating_247":90.0,"committed_to":null,"lat":32.7794,"lng":-86.8287,"hometown_city":"Saraland","hometown_state":"AL"},{"name":"Asa Burch","year":2028,"position":"Edge","stars":null,"rating_247":90.0,"committed_to":null,"lat":40.2862,"lng":-82.7937,"hometown_city":"Warren","hometown_state":"OH"},{"name":"Merrick Ham","year":2028,"position":"Edge","stars":null,"rating_247":90.0,"committed_to":null,"lat":32.6415,"lng":-83.4426,"hometown_city":"Marietta","hometown_state":"GA"},{"name":"Tristian Henderson","year":2028,"position":"Edge","stars":null,"rating_247":90.0,"committed_to":null,"lat":28.6305,"lng":-82.4497,"hometown_city":"Pensacola","hometown_state":"FL"},{"name":"Jeremiah Figaro","year":2028,"position":"Edge","stars":null,"rating_247":90.0,"committed_to":null,"lat":42.2596,"lng":-71.8083,"hometown_city":"Brookline","hometown_state":"MA"},{"name":"Elijah Tillman","year":2028,"position":"Edge","stars":null,"rating_247":90.0,"committed_to":null,"lat":32.6415,"lng":-83.4426,"hometown_city":"Loganville","hometown_state":"GA"},{"name":"Chance Archangel","year":2028,"position":"Edge","stars":null,"rating_247":89.0,"committed_to":"Texas A&M","lat":31.0689,"lng":-91.9968,"hometown_city":"New Iberia","hometown_state":"LA"},{"name":"Tyson Williams","year":2028,"position":"Edge","stars":null,"rating_247":89.0,"committed_to":null,"lat":35.5557,"lng":-79.3877,"hometown_city":"Shelby","hometown_state":"NC"},{"name":"Reagan Smith","year":2028,"position":"Edge","stars":null,"rating_247":89.0,"committed_to":null,"lat":31.4757,"lng":-99.3312,"hometown_city":"Pflugerville","hometown_state":"TX"},{"name":"Ismael Schiefer","year":2028,"position":"Edge","stars":null,"rating_247":88.0,"committed_to":null,"lat":28.6305,"lng":-82.4497,"hometown_city":"Bradenton","hometown_state":"FL"},{"name":"Asher Ghioto","year":2028,"position":"DL","stars":null,"rating_247":94.0,"committed_to":null,"lat":28.6305,"lng":-82.4497,"hometown_city":"Jacksonville","hometown_state":"FL"},{"name":"Tyzon Swann","year":2028,"position":"DL","stars":null,"rating_247":94.0,"committed_to":null,"lat":39.055,"lng":-76.7909,"hometown_city":"Indian Head","hometown_state":"MD"},{"name":"Prince Che","year":2028,"position":"DL","stars":null,"rating_247":93.0,"committed_to":null,"lat":32.6415,"lng":-83.4426,"hometown_city":"Thomasville","hometown_state":"GA"},{"name":"Kellan Hall","year":2028,"position":"DL","stars":null,"rating_247":91.0,"committed_to":null,"lat":37.5347,"lng":-85.3021,"hometown_city":"Louisville","hometown_state":"KY"},{"name":"Jameer Whyce","year":2028,"position":"DL","stars":null,"rating_247":91.0,"committed_to":"Ohio State","lat":40.2862,"lng":-82.7937,"hometown_city":"Dayton","hometown_state":"OH"},{"name":"Ayden Woodruff","year":2028,"position":"DL","stars":null,"rating_247":90.0,"committed_to":null,"lat":35.858,"lng":-86.3505,"hometown_city":"Brentwood","hometown_state":"TN"},{"name":"Simon Nuamah","year":2028,"position":"DL","stars":null,"rating_247":90.0,"committed_to":null,"lat":42.2596,"lng":-71.8083,"hometown_city":"Marion","hometown_state":"MA"},{"name":"Dawson Jacobs","year":2028,"position":"DL","stars":null,"rating_247":90.0,"committed_to":null,"lat":32.6415,"lng":-83.4426,"hometown_city":"Roswell","hometown_state":"GA"},{"name":"Caleb Tucker","year":2028,"position":"DL","stars":null,"rating_247":90.0,"committed_to":null,"lat":40.0417,"lng":-89.1965,"hometown_city":"Chicago","hometown_state":"IL"},{"name":"Zylen Little","year":2028,"position":"DL","stars":null,"rating_247":90.0,"committed_to":null,"lat":28.6305,"lng":-82.4497,"hometown_city":"Tampa","hometown_state":"FL"},{"name":"Arthur Jones","year":2028,"position":"DL","stars":null,"rating_247":90.0,"committed_to":null,"lat":42.9538,"lng":-75.5268,"hometown_city":"Syracuse","hometown_state":"NY"},{"name":"Jamir Lee","year":2028,"position":"DL","stars":null,"rating_247":90.0,"committed_to":null,"lat":32.6415,"lng":-83.4426,"hometown_city":"Carrollton","hometown_state":"GA"},{"name":"Christian Webb-Scott","year":2028,"position":"DL","stars":null,"rating_247":89.0,"committed_to":null,"lat":33.9169,"lng":-80.8964,"hometown_city":"Anderson","hometown_state":"SC"},{"name":"Logan Lokey","year":2028,"position":"DL","stars":null,"rating_247":88.0,"committed_to":null,"lat":31.4757,"lng":-99.3312,"hometown_city":"Denton","hometown_state":"TX"},{"name":"Thomas Minor","year":2028,"position":"DL","stars":null,"rating_247":88.0,"committed_to":null,"lat":40.2862,"lng":-82.7937,"hometown_city":"Sunbury","hometown_state":"OH"},{"name":"Ron'Christopher Gonzales","year":2028,"position":"DL","stars":null,"rating_247":88.0,"committed_to":null,"lat":28.6305,"lng":-82.4497,"hometown_city":"Hollywood","hometown_state":"FL"},{"name":"Isaac Kalubi Lukuni","year":2028,"position":"DL","stars":null,"rating_247":null,"committed_to":null,"lat":32.6415,"lng":-83.4426,"hometown_city":"Rabun Gap","hometown_state":"GA"},{"name":"Tahj Gray","year":2028,"position":"LB","stars":null,"rating_247":90.0,"committed_to":null,"lat":40.1907,"lng":-74.6728,"hometown_city":"Montvale","hometown_state":"NJ"},{"name":"Jameer Miles","year":2028,"position":"LB","stars":null,"rating_247":90.0,"committed_to":null,"lat":40.0417,"lng":-89.1965,"hometown_city":"Mundelein","hometown_state":"IL"},{"name":"Tysir Young","year":2028,"position":"LB","stars":null,"rating_247":90.0,"committed_to":null,"lat":38.9896,"lng":-75.505,"hometown_city":"Middletown","hometown_state":"DE"},{"name":"Andre Alexander Jr.","year":2028,"position":"LB","stars":null,"rating_247":90.0,"committed_to":null,"lat":28.6305,"lng":-82.4497,"hometown_city":"Bradenton","hometown_state":"FL"},{"name":"Skylar Alston","year":2028,"position":"LB","stars":null,"rating_247":90.0,"committed_to":null,"lat":35.5557,"lng":-79.3877,"hometown_city":"Raleigh","hometown_state":"NC"},{"name":"Allen Kennett V","year":2028,"position":"LB","stars":null,"rating_247":90.0,"committed_to":null,"lat":37.1841,"lng":-119.4696,"hometown_city":"Rancho Santa Margarita","hometown_state":"CA"},{"name":"Cale Britt","year":2028,"position":"LB","stars":null,"rating_247":89.0,"committed_to":null,"lat":28.6305,"lng":-82.4497,"hometown_city":"Orlando","hometown_state":"FL"},{"name":"A'mir Sears","year":2028,"position":"CB","stars":null,"rating_247":98.0,"committed_to":null,"lat":28.6305,"lng":-82.4497,"hometown_city":"Miami","hometown_state":"FL"},{"name":"Nasir Richardson","year":2028,"position":"CB","stars":null,"rating_247":93.0,"committed_to":null,"lat":40.1907,"lng":-74.6728,"hometown_city":"Newark","hometown_state":"NJ"},{"name":"Jai'lil Goley","year":2028,"position":"CB","stars":null,"rating_247":90.0,"committed_to":null,"lat":32.6415,"lng":-83.4426,"hometown_city":"Dacula","hometown_state":"GA"},{"name":"Logan Thompson","year":2028,"position":"CB","stars":null,"rating_247":90.0,"committed_to":null,"lat":40.0417,"lng":-89.1965,"hometown_city":"Belleville","hometown_state":"IL"},{"name":"Phoenix Evans","year":2028,"position":"CB","stars":null,"rating_247":90.0,"committed_to":null,"lat":28.6305,"lng":-82.4497,"hometown_city":"Bradenton","hometown_state":"FL"},{"name":"Adrian Woodward","year":2028,"position":"CB","stars":null,"rating_247":90.0,"committed_to":null,"lat":40.1907,"lng":-74.6728,"hometown_city":"Oradell","hometown_state":"NJ"},{"name":"Nekhi Lambeth","year":2028,"position":"CB","stars":null,"rating_247":90.0,"committed_to":null,"lat":34.2744,"lng":-111.6602,"hometown_city":"Goodyear","hometown_state":"AZ"},{"name":"Tyler Boyd","year":2028,"position":"CB","stars":null,"rating_247":90.0,"committed_to":null,"lat":32.6415,"lng":-83.4426,"hometown_city":"Carrollton","hometown_state":"GA"},{"name":"Izayah Vickers","year":2028,"position":"CB","stars":null,"rating_247":90.0,"committed_to":null,"lat":28.6305,"lng":-82.4497,"hometown_city":"Tallahassee","hometown_state":"FL"},{"name":"Langston Pridgeon","year":2028,"position":"CB","stars":null,"rating_247":90.0,"committed_to":null,"lat":39.055,"lng":-76.7909,"hometown_city":"Hyattsville","hometown_state":"MD"},{"name":"Amiir Woodward","year":2028,"position":"CB","stars":null,"rating_247":90.0,"committed_to":null,"lat":40.1907,"lng":-74.6728,"hometown_city":"Oradell","hometown_state":"NJ"},{"name":"Nate Dollard","year":2028,"position":"CB","stars":null,"rating_247":90.0,"committed_to":null,"lat":35.5557,"lng":-79.3877,"hometown_city":"Charlotte","hometown_state":"NC"},{"name":"Deonte Flemings Jr.","year":2028,"position":"CB","stars":null,"rating_247":90.0,"committed_to":"Penn State","lat":40.8781,"lng":-77.7996,"hometown_city":"Erie","hometown_state":"PA"},{"name":"Jordan Hicks","year":2028,"position":"CB","stars":null,"rating_247":90.0,"committed_to":null,"lat":37.1841,"lng":-119.4696,"hometown_city":"Mission Viejo","hometown_state":"CA"},{"name":"Ca'ron Williams","year":2028,"position":"CB","stars":null,"rating_247":90.0,"committed_to":null,"lat":37.1841,"lng":-119.4696,"hometown_city":"Rancho Santa Margarita","hometown_state":"CA"},{"name":"Braylen Gibbs","year":2028,"position":"CB","stars":null,"rating_247":89.0,"committed_to":"Vanderbilt","lat":35.858,"lng":-86.3505,"hometown_city":"Knoxville","hometown_state":"TN"},{"name":"Micah Hannah","year":2028,"position":"CB","stars":null,"rating_247":88.0,"committed_to":null,"lat":37.1841,"lng":-119.4696,"hometown_city":"Simi Valley","hometown_state":"CA"},{"name":"Royce Bimage","year":2028,"position":"CB","stars":null,"rating_247":88.0,"committed_to":null,"lat":31.4757,"lng":-99.3312,"hometown_city":"Dickinson","hometown_state":"TX"},{"name":"Kahmaree Crumity","year":2028,"position":"CB","stars":null,"rating_247":88.0,"committed_to":null,"lat":28.6305,"lng":-82.4497,"hometown_city":"Tallahassee","hometown_state":"FL"},{"name":"Kinnard Mahomes","year":2028,"position":"CB","stars":null,"rating_247":88.0,"committed_to":null,"lat":39.055,"lng":-76.7909,"hometown_city":"Baltimore","hometown_state":"MD"},{"name":"Zion Dobson","year":2028,"position":"CB","stars":null,"rating_247":null,"committed_to":null,"lat":35.5557,"lng":-79.3877,"hometown_city":"Kernersville","hometown_state":"NC"},{"name":"Casey Barner","year":2028,"position":"S","stars":null,"rating_247":94.0,"committed_to":null,"lat":32.6415,"lng":-83.4426,"hometown_city":"Powder Springs","hometown_state":"GA"},{"name":"James Foster III","year":2028,"position":"S","stars":null,"rating_247":91.0,"committed_to":null,"lat":31.4757,"lng":-99.3312,"hometown_city":"Lancaster","hometown_state":"TX"},{"name":"Jaelyn Easterling-Flores","year":2028,"position":"S","stars":null,"rating_247":90.0,"committed_to":null,"lat":34.2744,"lng":-111.6602,"hometown_city":"Goodyear","hometown_state":"AZ"},{"name":"Giovanni Tuggle","year":2028,"position":"S","stars":null,"rating_247":90.0,"committed_to":null,"lat":32.6415,"lng":-83.4426,"hometown_city":"Winder","hometown_state":"GA"},{"name":"CJ Craig-James","year":2028,"position":"S","stars":null,"rating_247":90.0,"committed_to":null,"lat":32.7794,"lng":-86.8287,"hometown_city":"Birmingham","hometown_state":"AL"},{"name":"Grayden Reid","year":2028,"position":"S","stars":null,"rating_247":90.0,"committed_to":null,"lat":37.5347,"lng":-85.3021,"hometown_city":"Louisville","hometown_state":"KY"},{"name":"Jalen Flowers","year":2028,"position":"S","stars":null,"rating_247":90.0,"committed_to":null,"lat":37.1841,"lng":-119.4696,"hometown_city":"Palos Verdes Peninsula","hometown_state":"CA"},{"name":"Ace Leutele","year":2028,"position":"S","stars":null,"rating_247":89.0,"committed_to":null,"lat":37.1841,"lng":-119.4696,"hometown_city":"Santa Ana","hometown_state":"CA"},{"name":"Mekhi McNair","year":2028,"position":"S","stars":null,"rating_247":89.0,"committed_to":null,"lat":40.1907,"lng":-74.6728,"hometown_city":"Atco","hometown_state":"NJ"},{"name":"Andre Jones","year":2028,"position":"S","stars":null,"rating_247":87.0,"committed_to":null,"lat":28.6305,"lng":-82.4497,"hometown_city":"Fort Lauderdale","hometown_state":"FL"},{"name":"Troy Bishop","year":2028,"position":"S","stars":null,"rating_247":86.0,"committed_to":null,"lat":37.1841,"lng":-119.4696,"hometown_city":"Santa Ana","hometown_state":"CA"},{"name":"Kameron McGee","year":2028,"position":"ATH","stars":null,"rating_247":95.0,"committed_to":null,"lat":40.0417,"lng":-89.1965,"hometown_city":"Oak Lawn","hometown_state":"IL"},{"name":"Darieon Prescott","year":2028,"position":"ATH","stars":null,"rating_247":94.0,"committed_to":null,"lat":40.0417,"lng":-89.1965,"hometown_city":"Bolingbrook","hometown_state":"IL"},{"name":"Keaton Fields","year":2028,"position":"ATH","stars":null,"rating_247":92.0,"committed_to":null,"lat":34.2744,"lng":-111.6602,"hometown_city":"Chandler","hometown_state":"AZ"},{"name":"Madoxx Davis","year":2028,"position":"ATH","stars":null,"rating_247":91.0,"committed_to":null,"lat":32.6415,"lng":-83.4426,"hometown_city":"Cartersville","hometown_state":"GA"},{"name":"Kamieon Compton-Nero","year":2028,"position":"ATH","stars":null,"rating_247":90.0,"committed_to":null,"lat":35.5889,"lng":-97.4943,"hometown_city":"Owasso","hometown_state":"OK"},{"name":"Kevin Hartsfield","year":2028,"position":"ATH","stars":null,"rating_247":90.0,"committed_to":null,"lat":32.6415,"lng":-83.4426,"hometown_city":"Covington","hometown_state":"GA"},{"name":"Dion Edwards","year":2028,"position":"ATH","stars":null,"rating_247":90.0,"committed_to":null,"lat":35.858,"lng":-86.3505,"hometown_city":"Chattanooga","hometown_state":"TN"},{"name":"Grant Bowen","year":2028,"position":"ATH","stars":null,"rating_247":90.0,"committed_to":null,"lat":40.0417,"lng":-89.1965,"hometown_city":"Elmhurst","hometown_state":"IL"},{"name":"Za'Kari Johnson","year":2028,"position":"ATH","stars":null,"rating_247":90.0,"committed_to":null,"lat":28.6305,"lng":-82.4497,"hometown_city":"Fort Lauderdale","hometown_state":"FL"},{"name":"Gabriel Player","year":2028,"position":"ATH","stars":null,"rating_247":90.0,"committed_to":null,"lat":28.6305,"lng":-82.4497,"hometown_city":"Melbourne","hometown_state":"FL"},{"name":"Camden Noe","year":2028,"position":"ATH","stars":null,"rating_247":90.0,"committed_to":null,"lat":44.3467,"lng":-85.4102,"hometown_city":"Portage","hometown_state":"MI"},{"name":"Brooks Johnston","year":2028,"position":"ATH","stars":null,"rating_247":90.0,"committed_to":null,"lat":35.858,"lng":-86.3505,"hometown_city":"Knoxville","hometown_state":"TN"},