{"2026":[{"name":"Jared Curtis","year":2026,"position":"QB","stars":5,"rating_247":99.0,"committed_to":"Vanderbilt","lat":36.1622296,"lng":-86.7743531,"hometown_city":"Nashville","hometown_state":"TN"},{"name":"Faizon Brandon","year":2026,"position":"QB","stars":5,"rating_247":99.0,"committed_to":"Tennessee","lat":36.0726355,"lng":-79.7919754,"hometown_city":"Greensboro","hometown_state":"NC"},{"name":"Dia Bell","year":2026,"position":"QB","stars":5,"rating_247":97.0,"committed_to":"Texas","lat":26.1223084,"lng":-80.1433786,"hometown_city":"Fort Lauderdale","hometown_state":"FL"},{"name":"Ryder Lyons","year":2026,"position":"QB","stars":4,"rating_247":96.0,"committed_to":"BYU","lat":38.6779591,"lng":-121.1760583,"hometown_city":"Folsom","hometown_state":"CA"},{"name":"Jonas Williams","year":2026,"position":"QB","stars":4,"rating_247":95.0,"committed_to":"Southern California","lat":41.4958665,"lng":-87.8486613,"hometown_city":"Frankfort","hometown_state":"IL"},{"name":"Bowe Bentley","year":2026,"position":"QB","stars":4,"rating_247":95.0,"committed_to":"Oklahoma","lat":33.3238976,"lng":-96.785342,"hometown_city":"Celina","hometown_state":"TX"},{"name":"Will Griffin","year":2026,"position":"QB","stars":4,"rating_247":90.0,"committed_to":"Florida","lat":27.9477595,"lng":-82.458444,"hometown_city":"Tampa","hometown_state":"FL"},{"name":"Teddy Jarrard","year":2026,"position":"QB","stars":4,"rating_247":89.0,"committed_to":"Notre Dame","lat":34.0234337,"lng":-84.6154897,"hometown_city":"Kennesaw","hometown_state":"GA"},{"name":"Troy Huhn","year":2026,"position":"QB","stars":4,"rating_247":89.0,"committed_to":"Virginia Tech","lat":33.1433723,"lng":-117.1661449,"hometown_city":"San Marcos","hometown_state":"CA"},{"name":"Noah Grubbs","year":2026,"position":"QB","stars":4,"rating_247":88.0,"committed_to":"Notre Dame","lat":28.756618000000003,"lng":-81.33888382214167,"hometown_city":"Lake Mary","hometown_state":"FL"},{"name":"Brady Smigiel","year":2026,"position":"QB","stars":4,"rating_247":88.0,"committed_to":"Michigan","lat":34.183671,"lng":-118.9118302,"hometown_city":"Newbury Park","hometown_state":"CA"},{"name":"Luke Fahey","year":2026,"position":"QB","stars":4,"rating_247":88.0,"committed_to":"Ohio State","lat":33.5965685,"lng":-117.659405,"hometown_city":"Mission Viejo","hometown_state":"CA"},{"name":"Jaden O'Neal","year":2026,"position":"QB","stars":4,"rating_247":87.0,"committed_to":"Florida State","lat":35.384227,"lng":-97.7244813,"hometown_city":"Mustang","hometown_state":"OK"},{"name":"Brady Palmer","year":2026,"position":"QB","stars":3,"rating_247":86.0,"committed_to":"Minnesota","lat":26.1223084,"lng":-80.1433786,"hometown_city":"Fort Lauderdale","hometown_state":"FL"},{"name":"Brodie McWhorter","year":2026,"position":"QB","stars":null,"rating_247":86.0,"committed_to":"Mississippi State","lat":32.6415,"lng":-83.4426,"hometown_city":"White","hometown_state":"GA"},{"name":"EJ Crowell","year":2026,"position":"RB","stars":null,"rating_247":98.0,"committed_to":"Alabama","lat":32.7794,"lng":-86.8287,"hometown_city":"Jackson","hometown_state":"AL"},{"name":"Savion Hiter","year":2026,"position":"RB","stars":5,"rating_247":98.0,"committed_to":"Michigan","lat":38.010695,"lng":-77.9086068,"hometown_city":"Mineral","hometown_state":"VA"},{"name":"Deshonne Redeaux","year":2026,"position":"RB","stars":4,"rating_247":95.0,"committed_to":"Southern California","lat":34.1460234,"lng":-118.8061794,"hometown_city":"Westlake Village","hometown_state":"CA"},{"name":"Jonathan Hatton Jr.","year":2026,"position":"RB","stars":4,"rating_247":95.0,"committed_to":"Oklahoma","lat":29.5707831,"lng":-98.2330927,"hometown_city":"Cibolo","hometown_state":"TX"},{"name":"Legend Bey","year":2026,"position":"RB","stars":4,"rating_247":93.0,"committed_to":"Ohio State","lat":32.747893,"lng":-96.4719289,"hometown_city":"Forney","hometown_state":"TX"},{"name":"Damon Ferguson","year":2026,"position":"RB","stars":4,"rating_247":93.0,"committed_to":"Pittsburgh","lat":39.2908816,"lng":-76.610759,"hometown_city":"Baltimore","hometown_state":"MD"},{"name":"Derrek Cooper","year":2026,"position":"RB","stars":4,"rating_247":93.0,"committed_to":"Texas","lat":26.0112014,"lng":-80.1494901,"hometown_city":"Hollywood","hometown_state":"FL"},{"name":"Jonaz Walton","year":2026,"position":"RB","stars":4,"rating_247":93.0,"committed_to":"Notre Dame","lat":33.5801103,"lng":-85.0766113,"hometown_city":"Carrollton","hometown_state":"GA"},{"name":"Damarius Yates","year":2026,"position":"RB","stars":4,"rating_247":93.0,"committed_to":"Mississippi","lat":32.767633,"lng":-88.6508784,"hometown_city":"De Kalb","hometown_state":"MS"},{"name":"Javian Osborne","year":2026,"position":"RB","stars":4,"rating_247":92.0,"committed_to":"Notre Dame","lat":32.747893,"lng":-96.4719289,"hometown_city":"Forney","hometown_state":"TX"},{"name":"Jae Lamar","year":2026,"position":"RB","stars":4,"rating_247":91.0,"committed_to":"Georgia","lat":31.179998,"lng":-83.7887928,"hometown_city":"Moultrie","hometown_state":"GA"},{"name":"Carsyn Baker","year":2026,"position":"RB","stars":4,"rating_247":90.0,"committed_to":"Texas A&M","lat":33.5670562,"lng":-84.5810418,"hometown_city":"Fairburn","hometown_state":"GA"},{"name":"Favour Akih","year":2026,"position":"RB","stars":4,"rating_247":89.0,"committed_to":"Ohio State","lat":40.2986724,"lng":-83.067965,"hometown_city":"Delaware","hometown_state":"OH"},{"name":"Favour Akih","year":2026,"position":"RB","stars":4,"rating_247":89.0,"committed_to":"Ohio State","lat":40.2986724,"lng":-83.067965,"hometown_city":"Delaware","hometown_state":"OH"},{"name":"Javian Mallory","year":2026,"position":"RB","stars":4,"rating_247":88.0,"committed_to":"Miami","lat":26.3586885,"lng":-80.0830984,"hometown_city":"Boca Raton","hometown_state":"FL"},{"name":"Ja'Michael Jones","year":2026,"position":"RB","stars":3,"rating_247":88.0,"committed_to":"Mississippi","lat":32.3669656,"lng":-86.3006485,"hometown_city":"Montgomery","hometown_state":"AL"},{"name":"CJ Givers","year":2026,"position":"RB","stars":3,"rating_247":88.0,"committed_to":"Duke","lat":34.02332,"lng":-84.360022,"hometown_city":"Roswell","hometown_state":"GA"},{"name":"Kyshawn Robinson","year":2026,"position":"RB","stars":3,"rating_247":84.0,"committed_to":null,"lat":25.7742658,"lng":-80.1936589,"hometown_city":"Miami","hometown_state":"FL"},{"name":"Chris Henry Jr.","year":2026,"position":"WR","stars":5,"rating_247":98.0,"committed_to":"Ohio State","lat":33.7494951,"lng":-117.8732213,"hometown_city":"Santa Ana","hometown_state":"CA"},{"name":"Jalen Lott","year":2026,"position":"WR","stars":5,"rating_247":97.0,"committed_to":"Oregon","lat":33.1506744,"lng":-96.8236116,"hometown_city":"Frisco","hometown_state":"TX"},{"name":"Cederian Morgan","year":2026,"position":"WR","stars":4,"rating_247":97.0,"committed_to":"Alabama","lat":32.944012,"lng":-85.9538532,"hometown_city":"Alexander City","hometown_state":"AL"},{"name":"Kayden Dixon-Wyatt","year":2026,"position":"WR","stars":4,"rating_247":97.0,"committed_to":"Southern California","lat":33.7494951,"lng":-117.8732213,"hometown_city":"Santa Ana","hometown_state":"CA"},{"name":"Ethan Feaster","year":2026,"position":"WR","stars":4,"rating_247":96.0,"committed_to":"Southern California","lat":32.6061241,"lng":-96.865612653687,"hometown_city":"DeSoto","hometown_state":"TX"},{"name":"Jerquaden Guilford","year":2026,"position":"WR","stars":4,"rating_247":96.0,"committed_to":"Ohio State","lat":41.0799898,"lng":-85.1386015,"hometown_city":"Fort Wayne","hometown_state":"IN"},{"name":"Naeem Burroughs","year":2026,"position":"WR","stars":4,"rating_247":95.0,"committed_to":"Clemson","lat":30.3321838,"lng":-81.655651,"hometown_city":"Jacksonville","hometown_state":"FL"},{"name":"Connor Salmin","year":2026,"position":"WR","stars":4,"rating_247":92.0,"committed_to":"Clemson","lat":39.017936,"lng":-77.2094542,"hometown_city":"Potomac","hometown_state":"MD"},{"name":"Gordon Sellars III","year":2026,"position":"WR","stars":null,"rating_247":92.0,"committed_to":"Clemson","lat":35.5557,"lng":-79.3877,"hometown_city":"Charlotte","hometown_state":"NC"},{"name":"Jasen Lopez","year":2026,"position":"WR","stars":4,"rating_247":91.0,"committed_to":"Florida State","lat":25.7742658,"lng":-80.1936589,"hometown_city":"Miami","hometown_state":"FL"},{"name":"Jabari Mack","year":2026,"position":"WR","stars":4,"rating_247":91.0,"committed_to":"Louisiana State","lat":29.960933,"lng":-90.3705407077716,"hometown_city":"Destrehan","hometown_state":"LA"},{"name":"Messiah Hampton","year":2026,"position":"WR","stars":4,"rating_247":91.0,"committed_to":"Oregon","lat":43.157285,"lng":-77.615214,"hometown_city":"Rochester","hometown_state":"NY"},{"name":"Ryan Mosley","year":2026,"position":"WR","stars":4,"rating_247":90.0,"committed_to":"Georgia","lat":33.5801103,"lng":-85.0766113,"hometown_city":"Carrollton","hometown_state":"GA"},{"name":"Madden Williams","year":2026,"position":"WR","stars":4,"rating_247":90.0,"committed_to":"Texas A&M","lat":33.8825705,"lng":-118.1167679,"hometown_city":"Bellflower","hometown_state":"CA"},{"name":"Brayden Robinson","year":2026,"position":"WR","stars":4,"rating_247":90.0,"committed_to":"Notre Dame","lat":32.5117104,"lng":-96.80836332870047,"hometown_city":"Red Oak","hometown_state":"TX"},{"name":"Devin Carter","year":2026,"position":"WR","stars":4,"rating_247":89.0,"committed_to":"Florida State","lat":33.7514966,"lng":-84.7477136,"hometown_city":"Douglasville","hometown_state":"GA"},{"name":"Jaeden Ricketts","year":2026,"position":"WR","stars":4,"rating_247":88.0,"committed_to":"Ohio State","lat":39.9956193,"lng":-82.6743341,"hometown_city":"Pataskala","hometown_state":"OH"},{"name":"Mike Brown","year":2026,"position":"WR","stars":3,"rating_247":88.0,"committed_to":"Texas A&M","lat":30.0798826,"lng":-95.4172549,"hometown_city":"Spring","hometown_state":"TX"},{"name":"Brock Boyd","year":2026,"position":"WR","stars":3,"rating_247":87.0,"committed_to":"Ohio State","lat":32.9412363,"lng":-97.1341783,"hometown_city":"Southlake","hometown_state":"TX"},{"name":"Denairius Gray","year":2026,"position":"WR","stars":3,"rating_247":86.0,"committed_to":"Kentucky","lat":26.0112014,"lng":-80.1494901,"hometown_city":"Hollywood","hometown_state":"FL"},{"name":"Brody Keefe","year":2026,"position":"WR","stars":3,"rating_247":86.0,"committed_to":"Duke","lat":35.2272,"lng":-80.843083,"hometown_city":"Charlotte","hometown_state":"NC"},{"name":"Mark Bowman","year":2026,"position":"TE","stars":5,"rating_247":97.0,"committed_to":"Southern California","lat":33.7494951,"lng":-117.8732213,"hometown_city":"Santa Ana","hometown_state":"CA"},{"name":"Kaiden Prothro","year":2026,"position":"TE","stars":4,"rating_247":97.0,"committed_to":"Georgia","lat":33.5378885,"lng":-85.2532818,"hometown_city":"Bowdon","hometown_state":"GA"},{"name":"Mack Sutter","year":2026,"position":"TE","stars":4,"rating_247":96.0,"committed_to":"Alabama","lat":40.8616513,"lng":-89.6777665,"hometown_city":"Dunlap","hometown_state":"IL"},{"name":"Lincoln Keyes","year":2026,"position":"TE","stars":4,"rating_247":95.0,"committed_to":"Georgia","lat":42.1667072,"lng":-83.7816075,"hometown_city":"Saline","hometown_state":"MI"},{"name":"Brock Harris","year":2026,"position":"TE","stars":4,"rating_247":94.0,"committed_to":"BYU","lat":37.104153,"lng":-113.5841313,"hometown_city":"St. George","hometown_state":"UT"},{"name":"Evan Jacobson","year":2026,"position":"TE","stars":4,"rating_247":91.0,"committed_to":"Texas A&M","lat":41.6118485,"lng":-93.8845129,"hometown_city":"Waukee","hometown_state":"IA"},{"name":"Xavier Tiller","year":2026,"position":"TE","stars":4,"rating_247":90.0,"committed_to":"Florida State","lat":33.5670562,"lng":-84.5810418,"hometown_city":"Fairburn","hometown_state":"GA"},{"name":"Heze Kent","year":2026,"position":"TE","stars":4,"rating_247":90.0,"committed_to":"Florida","lat":31.1499528,"lng":-81.4914894,"hometown_city":"Brunswick","hometown_state":"GA"},{"name":"Nick Lautar","year":2026,"position":"TE","stars":3,"rating_247":89.0,"committed_to":"Ohio State","lat":39.4353373,"lng":-84.2029922,"hometown_city":"Lebanon","hometown_state":"OH"},{"name":"Luke Brewer","year":2026,"position":"TE","stars":4,"rating_247":89.0,"committed_to":"Iowa","lat":41.4755461,"lng":-93.6788304,"hometown_city":"Norwalk","hometown_state":"IA"},{"name":"Corbyn Fordham","year":2026,"position":"TE","stars":3,"rating_247":88.0,"committed_to":"Florida State","lat":30.3321838,"lng":-81.655651,"hometown_city":"Jacksonville","hometown_state":"FL"},{"name":"Ryder Mix","year":2026,"position":"TE","stars":3,"rating_247":87.0,"committed_to":"Oklahoma","lat":33.1506744,"lng":-96.8236116,"hometown_city":"Frisco","hometown_state":"TX"},{"name":"Carson Sneed","year":2026,"position":"TE","stars":3,"rating_247":86.0,"committed_to":"North Carolina","lat":36.1622296,"lng":-86.7743531,"hometown_city":"Nashville","hometown_state":"TN"},{"name":"Jude Cascone","year":2026,"position":"TE","stars":3,"rating_247":85.0,"committed_to":"Alabama","lat":33.9528472,"lng":-84.5496148,"hometown_city":"Marietta","hometown_state":"GA"},{"name":"Keenyi Pepe","year":2026,"position":"OT","stars":4,"rating_247":99.0,"committed_to":"Southern California","lat":27.4989278,"lng":-82.5748194,"hometown_city":"Bradenton","hometown_state":"FL"},{"name":"Jackson Cantwell","year":2026,"position":"OT","stars":5,"rating_247":99.0,"committed_to":"Miami","lat":37.0439358,"lng":-93.3098534,"hometown_city":"Nixa","hometown_state":"MO"},{"name":"Felix Ojo","year":2026,"position":"OT","stars":5,"rating_247":98.0,"committed_to":"Texas Tech","lat":32.5631924,"lng":-97.1416768,"hometown_city":"Mansfield","hometown_state":"TX"},{"name":"Gabriel Osenda","year":2026,"position":"OT","stars":4,"rating_247":98.0,"committed_to":"Tennessee","lat":35.0457219,"lng":-85.3094883,"hometown_city":"Chattanooga","hometown_state":"TN"},{"name":"Immanuel Iheanacho","year":2026,"position":"OT","stars":5,"rating_247":98.0,"committed_to":"Oregon","lat":39.0461292,"lng":-77.1130097,"hometown_city":"North Bethesda","hometown_state":"MD"},{"name":"Sam Greer","year":2026,"position":"OT","stars":4,"rating_247":97.0,"committed_to":"Ohio State","lat":41.083064,"lng":-81.518485,"hometown_city":"Akron","hometown_state":"OH"},{"name":"Kelvin Obot","year":2026,"position":"OT","stars":5,"rating_247":97.0,"committed_to":"Utah","lat":44.0076639,"lng":-116.9165461,"hometown_city":"Fruitland","hometown_state":"ID"},{"name":"Kevin Brown","year":2026,"position":"OT","stars":4,"rating_247":94.0,"committed_to":"West Virginia","lat":40.2663107,"lng":-76.8861122,"hometown_city":"Harrisburg","hometown_state":"PA"},{"name":"Grayson McKeogh","year":2026,"position":"OT","stars":4,"rating_247":93.0,"committed_to":"Notre Dame","lat":40.1023326,"lng":-75.1521195,"hometown_city":"Glenside","hometown_state":"PA"},{"name":"Claude Mpouma","year":2026,"position":"OT","stars":4,"rating_247":93.0,"committed_to":"Nebraska","lat":41.8755616,"lng":-87.6244212,"hometown_city":"Chicago","hometown_state":"IL"},{"name":"Marky Walbridge","year":2026,"position":"OT","stars":4,"rating_247":93.0,"committed_to":"Michigan","lat":42.283431,"lng":-71.2328329,"hometown_city":"Needham","hometown_state":"MA"},{"name":"John Turntine III","year":2026,"position":"OT","stars":4,"rating_247":93.0,"committed_to":"Texas","lat":32.753177,"lng":-97.3327459,"hometown_city":"Fort Worth","hometown_state":"TX"},{"name":"Tyler Merrill","year":2026,"position":"OT","stars":4,"rating_247":91.0,"committed_to":"Notre Dame","lat":40.2101972,"lng":-77.0047276,"hometown_city":"Mechanicsburg","hometown_state":"PA"},{"name":"Jared Doughty","year":2026,"position":"OT","stars":4,"rating_247":91.0,"committed_to":"Alabama","lat":33.7490987,"lng":-84.3901849,"hometown_city":"Atlanta","hometown_state":"GA"},{"name":"Jared Doughty","year":2026,"position":"OT","stars":4,"rating_247":91.0,"committed_to":"Alabama","lat":33.7490987,"lng":-84.3901849,"hometown_city":"Atlanta","hometown_state":"GA"},{"name":"Evan Goodwin","year":2026,"position":"OT","stars":4,"rating_247":90.0,"committed_to":"SMU","lat":34.5556489,"lng":-92.5212702,"hometown_city":"Bauxite","hometown_state":"AR"},{"name":"Champ Smith","year":2026,"position":"OT","stars":3,"rating_247":89.0,"committed_to":"Illinois","lat":25.7742658,"lng":-80.1936589,"hometown_city":"Miami","hometown_state":"FL"},{"name":"Adam Guthrie","year":2026,"position":"OT","stars":4,"rating_247":89.0,"committed_to":"Clemson","lat":39.5364511,"lng":-83.4390843,"hometown_city":"Washington Court House","hometown_state":"OH"},{"name":"Chancellor Campbell","year":2026,"position":"OT","stars":3,"rating_247":88.0,"committed_to":"Florida","lat":27.7703796,"lng":-82.6695085,"hometown_city":"St. Petersburg","hometown_state":"FL"},{"name":"Da'Ron Parks","year":2026,"position":"OT","stars":4,"rating_247":88.0,"committed_to":"North Carolina","lat":38.417919499999996,"lng":-81.84361448523134,"hometown_city":"Nitro","hometown_state":"WV"},{"name":"J.B. Shabazz","year":2026,"position":"OT","stars":4,"rating_247":88.0,"committed_to":"North Carolina","lat":36.1198589,"lng":-80.0736533,"hometown_city":"Kernersville","hometown_state":"NC"},{"name":"Aaron Thomas","year":2026,"position":"OT","stars":3,"rating_247":88.0,"committed_to":"Minnesota","lat":33.4484367,"lng":-112.0741417,"hometown_city":"Phoenix","hometown_state":"AZ"},{"name":"Kannon Smith","year":2026,"position":"OT","stars":3,"rating_247":88.0,"committed_to":"Southern California","lat":39.613321,"lng":-105.0166498,"hometown_city":"Littleton","hometown_state":"CO"},{"name":"Landry Brede","year":2026,"position":"OT","stars":3,"rating_247":87.0,"committed_to":"Ohio State","lat":41.6661573,"lng":-81.339552,"hometown_city":"Mentor","hometown_state":"OH"},{"name":"Darius Gray","year":2026,"position":"IOL","stars":4,"rating_247":98.0,"committed_to":"South Carolina","lat":37.5385087,"lng":-77.43428,"hometown_city":"Richmond","hometown_state":"VA"},{"name":"Tommy Tofi","year":2026,"position":"IOL","stars":4,"rating_247":97.0,"committed_to":"Oregon","lat":37.7790262,"lng":-122.4199061,"hometown_city":"San Francisco","hometown_state":"CA"},{"name":"Ekene Ogboko","year":2026,"position":"IOL","stars":5,"rating_247":96.0,"committed_to":"Georgia","lat":35.996653,"lng":-78.9018053,"hometown_city":"Durham","hometown_state":"NC"},{"name":"Ben Nichols","year":2026,"position":"IOL","stars":4,"rating_247":94.0,"committed_to":"Notre Dame","lat":43.0346872,"lng":-83.5180155,"hometown_city":"Davison","hometown_state":"MI"},{"name":"Breck Kolojay","year":2026,"position":"IOL","stars":4,"rating_247":93.0,"committed_to":"Southern California","lat":27.4989278,"lng":-82.5748194,"hometown_city":"Bradenton","hometown_state":"FL"},{"name":"Max Riley","year":2026,"position":"IOL","stars":null,"rating_247":93.0,"committed_to":"Ohio State","lat":40.2862,"lng":-82.7937,"hometown_city":"Avon Lake","hometown_state":"OH"},{"name":"Grant Wise","year":2026,"position":"IOL","stars":4,"rating_247":91.0,"committed_to":"Clemson","lat":30.6324149,"lng":-87.0396881,"hometown_city":"Milton","hometown_state":"FL"},{"name":"Zaden Krempin","year":2026,"position":"IOL","stars":4,"rating_247":90.0,"committed_to":"Texas A&M","lat":33.2385763,"lng":-96.7866058,"hometown_city":"Prosper","hometown_state":"TX"},{"name":"Will Conroy","year":2026,"position":"IOL","stars":3,"rating_247":89.0,"committed_to":"North Carolina","lat":27.4989278,"lng":-82.5748194,"hometown_city":"Bradenton","hometown_state":"FL"},{"name":"Sam Roseborough","year":2026,"position":"IOL","stars":null,"rating_247":89.0,"committed_to":"Texas A&M","lat":28.6305,"lng":-82.4497,"hometown_city":"Clearwater","hometown_state":"FL"},{"name":"Deacon Schmitt","year":2026,"position":"IOL","stars":4,"rating_247":89.0,"committed_to":"Oklahoma","lat":40.4774818,"lng":-104.9013617,"hometown_city":"Windsor","hometown_state":"CO"},{"name":"Drew Evers","year":2026,"position":"IOL","stars":4,"rating_247":89.0,"committed_to":"SMU","lat":33.0283854,"lng":-97.0867203,"hometown_city":"Flower Mound","hometown_state":"TX"},{"name":"Sam Utu","year":2026,"position":"IOL","stars":4,"rating_247":88.0,"committed_to":"SMU","lat":33.7872568,"lng":-117.8503088,"hometown_city":"Orange","hometown_state":"CA"},{"name":"Mason Wilhelm","year":2026,"position":"IOL","stars":3,"rating_247":88.0,"committed_to":"Ohio State","lat":41.4819932,"lng":-81.7981908,"hometown_city":"Lakewood","hometown_state":"OH"},{"name":"Tucker Smith","year":2026,"position":"IOL","stars":3,"rating_247":87.0,"committed_to":"Ohio State","lat":33.5386858,"lng":-112.1859941,"hometown_city":"Glendale","hometown_state":"AZ"},{"name":"Day'Jon Moore","year":2026,"position":"IOL","stars":3,"rating_247":87.0,"committed_to":"Maryland","lat":30.4241219,"lng":-95.4796587,"hometown_city":"Willis","hometown_state":"TX"},{"name":"Luke Wafle","year":2026,"position":"Edge","stars":4,"rating_247":99.0,"committed_to":"Southern California","lat":40.3492744,"lng":-74.6592958,"hometown_city":"Princeton","hometown_state":"NJ"},{"name":"Rodney Dunham","year":2026,"position":"Edge","stars":5,"rating_247":98.0,"committed_to":"Notre Dame","lat":35.2272,"lng":-80.843083,"hometown_city":"Charlotte","hometown_state":"NC"},{"name":"Zion Elee","year":2026,"position":"Edge","stars":5,"rating_247":98.0,"committed_to":"Maryland","lat":39.2908816,"lng":-76.610759,"hometown_city":"Baltimore","hometown_state":"MD"},{"name":"Carter Meadows","year":2026,"position":"Edge","stars":5,"rating_247":98.0,"committed_to":"Michigan","lat":38.8949855,"lng":-77.0365708,"hometown_city":"Washington","hometown_state":"DC"},{"name":"Anthony Jones Jr.","year":2026,"position":"Edge","stars":null,"rating_247":98.0,"committed_to":"Oregon","lat":32.7794,"lng":-86.8287,"hometown_city":"Mobile","hometown_state":"AL"},{"name":"Jake Kreul","year":2026,"position":"Edge","stars":4,"rating_247":96.0,"committed_to":"Oklahoma","lat":27.4989278,"lng":-82.5748194,"hometown_city":"Bradenton","hometown_state":"FL"},{"name":"Khary Wilder","year":2026,"position":"Edge","stars":4,"rating_247":95.0,"committed_to":"Ohio State","lat":33.8963593,"lng":-118.3053037,"hometown_city":"Gardena","hometown_state":"CA"},{"name":"Richard Wesley","year":2026,"position":"Edge","stars":5,"rating_247":95.0,"committed_to":"Texas","lat":34.2595715,"lng":-118.6023247,"hometown_city":"Chatsworth","hometown_state":"CA"},{"name":"Landon Barnes","year":2026,"position":"Edge","stars":4,"rating_247":94.0,"committed_to":"Mississippi","lat":32.6518004,"lng":-96.9083366,"hometown_city":"Duncanville","hometown_state":"TX"},{"name":"Derek Colman-Brusa","year":2026,"position":"Edge","stars":4,"rating_247":94.0,"committed_to":"Washington","lat":47.469918,"lng":-122.3485274,"hometown_city":"Burien","hometown_state":"WA"},{"name":"Ebenezer Ewetade","year":2026,"position":"Edge","stars":4,"rating_247":93.0,"committed_to":"Notre Dame","lat":35.7112642,"lng":-78.6141709,"hometown_city":"Garner","hometown_state":"NC"},{"name":"KJ Ford","year":2026,"position":"Edge","stars":4,"rating_247":92.0,"committed_to":"Florida","lat":32.6518004,"lng":-96.9083366,"hometown_city":"Duncanville","hometown_state":"TX"},{"name":"Dre Quinn","year":2026,"position":"Edge","stars":4,"rating_247":91.0,"committed_to":"Ohio State","lat":34.1206564,"lng":-84.0043513,"hometown_city":"Buford","hometown_state":"GA"},{"name":"Anthony Jones","year":2026,"position":"Edge","stars":3,"rating_247":91.0,"committed_to":"Oregon","lat":33.6856969,"lng":-117.8259819,"hometown_city":"Irvine","hometown_state":"CA"},{"name":"Braxton Rembert","year":2026,"position":"Edge","stars":4,"rating_247":91.0,"committed_to":"Ohio State","lat":34.096496,"lng":-83.7612839,"hometown_city":"Hoschton","hometown_state":"GA"},{"name":"Shaun Scott","year":2026,"position":"Edge","stars":4,"rating_247":90.0,"committed_to":"Southern California","lat":33.7494951,"lng":-117.8732213,"hometown_city":"Santa Ana","hometown_state":"CA"},{"name":"Elijah Littlejohn","year":2026,"position":"Edge","stars":4,"rating_247":90.0,"committed_to":"Georgia","lat":35.2272,"lng":-80.843083,"hometown_city":"Charlotte","hometown_state":"NC"},{"name":"Zavion Griffin-Haynes","year":2026,"position":"Edge","stars":3,"rating_247":89.0,"committed_to":"North Carolina","lat":35.9232862,"lng":-78.4573914,"hometown_city":"Rolesville","hometown_state":"NC"},{"name":"Andrew Harris","year":2026,"position":"Edge","stars":4,"rating_247":89.0,"committed_to":"South Carolina","lat":35.1170873,"lng":-80.723718,"hometown_city":"Matthews","hometown_state":"NC"},{"name":"Braeden Jones","year":2026,"position":"Edge","stars":4,"rating_247":88.0,"committed_to":"Southern California","lat":41.8755616,"lng":-87.6244212,"hometown_city":"Chicago","hometown_state":"IL"},{"name":"Cam Brooks","year":2026,"position":"Edge","stars":3,"rating_247":88.0,"committed_to":"Florida State","lat":30.8365815,"lng":-83.9787808,"hometown_city":"Thomasville","hometown_state":"GA"},{"name":"Keysaun Eleazer","year":2026,"position":"Edge","stars":3,"rating_247":88.0,"committed_to":"Stanford","lat":35.7803977,"lng":-78.6390989,"hometown_city":"Raleigh","hometown_state":"NC"},{"name":"Lamar Brown","year":2026,"position":"DL","stars":5,"rating_247":99.0,"committed_to":"Louisiana State","lat":30.4459596,"lng":-91.18738,"hometown_city":"Baton Rouge","hometown_state":"LA"},{"name":"Valdin Sone","year":2026,"position":"DL","stars":4,"rating_247":98.0,"committed_to":"Georgia","lat":38.2537414,"lng":-78.5397363,"hometown_city":"Dyke","hometown_state":"VA"},{"name":"Deuce Geralds","year":2026,"position":"DL","stars":4,"rating_247":96.0,"committed_to":"Louisiana State","lat":34.0514898,"lng":-84.0712997,"hometown_city":"Suwanee","hometown_state":"GA"},{"name":"Bryce Perry-Wright","year":2026,"position":"DL","stars":4,"rating_247":96.0,"committed_to":"Texas A&M","lat":34.1206564,"lng":-84.0043513,"hometown_city":"Buford","hometown_state":"GA"},{"name":"Aiden Harris","year":2026,"position":"DL","stars":4,"rating_247":95.0,"committed_to":"South Carolina","lat":35.1170873,"lng":-80.723718,"hometown_city":"Matthews","hometown_state":"NC"},{"name":"Tomuhini Topui","year":2026,"position":"DL","stars":4,"rating_247":95.0,"committed_to":"Southern California","lat":33.7494951,"lng":-117.8732213,"hometown_city":"Santa Ana","hometown_state":"CA"},{"name":"Jamarion Carlton","year":2026,"position":"DL","stars":4,"rating_247":95.0,"committed_to":"Texas","lat":31.098207,"lng":-97.3427847,"hometown_city":"Temple","hometown_state":"TX"},{"name":"Tony Cumberland","year":2026,"position":"DL","stars":4,"rating_247":95.0,"committed_to":"Oregon","lat":44.0505054,"lng":-123.0950506,"hometown_city":"Eugene","hometown_state":"OR"},{"name":"PJ Dean","year":2026,"position":"DL","stars":null,"rating_247":95.0,"committed_to":"Georgia","lat":35.5557,"lng":-79.3877,"hometown_city":"Clemmons","hometown_state":"NC"},{"name":"Noah Clark","year":2026,"position":"DL","stars":4,"rating_247":94.0,"committed_to":"South Carolina","lat":35.996653,"lng":-78.9018053,"hometown_city":"Durham","hometown_state":"NC"},{"name":"Emanuel Ruffin","year":2026,"position":"DL","stars":4,"rating_247":93.0,"committed_to":"Ohio State","lat":33.3823635,"lng":-86.91720475,"hometown_city":"Bessemer","hometown_state":"AL"},{"name":"Simote Katoanga","year":2026,"position":"DL","stars":4,"rating_247":92.0,"committed_to":"Southern California","lat":33.6408845,"lng":-117.6029341,"hometown_city":"Rancho Santa Margarita","hometown_state":"CA"},{"name":"Vodney Cleveland","year":2026,"position":"DL","stars":4,"rating_247":92.0,"committed_to":"North Carolina","lat":33.5206824,"lng":-86.8024326,"hometown_city":"Birmingham","hometown_state":"AL"},{"name":"Elijah Golden","year":2026,"position":"DL","stars":4,"rating_247":92.0,"committed_to":"Notre Dame","lat":27.3364347,"lng":-82.5306527,"hometown_city":"Sarasota","hometown_state":"FL"},{"name":"Earnest Rankins","year":2026,"position":"DL","stars":4,"rating_247":91.0,"committed_to":"Florida State","lat":33.7737582,"lng":-84.296069,"hometown_city":"Decatur","hometown_state":"GA"},{"name":"Trashawn Ruffin","year":2026,"position":"DL","stars":null,"rating_247":90.0,"committed_to":"North Carolina","lat":35.5557,"lng":-79.3877,"hometown_city":"Mt. Olive","hometown_state":"NC"},{"name":"Damari Simeon","year":2026,"position":"DL","stars":4,"rating_247":90.0,"committed_to":"Ohio State","lat":39.4917828,"lng":-74.8707243,"hometown_city":"Richland","hometown_state":"NJ"},{"name":"Alex Haskell","year":2026,"position":"DL","stars":null,"rating_247":90.0,"committed_to":"Syracuse","lat":40.8781,"lng":-77.7996,"hometown_city":"Philadelphia","hometown_state":"PA"},{"name":"Jimmy-Phrisco Alo-Suliafu","year":2026,"position":"DL","stars":3,"rating_247":90.0,"committed_to":"North Carolina","lat":29.690292,"lng":-95.8996261,"hometown_city":"Fulshear","hometown_state":"TX"},{"name":"Cameron Brickle II","year":2026,"position":"DL","stars":null,"rating_247":89.0,"committed_to":"Maryland","lat":28.6305,"lng":-82.4497,"hometown_city":"Bradenton","hometown_state":"FL"},{"name":"Jermaine Kinsler","year":2026,"position":"DL","stars":4,"rating_247":89.0,"committed_to":"Texas A&M","lat":40.9543943,"lng":-74.0308504,"hometown_city":"Oradell","hometown_state":"NJ"},{"name":"Carter Luckie","year":2026,"position":"DL","stars":4,"rating_247":89.0,"committed_to":"Georgia","lat":33.9412127,"lng":-84.2135309,"hometown_city":"Norcross","hometown_state":"GA"},{"name":"Preston Carey","year":2026,"position":"DL","stars":3,"rating_247":88.0,"committed_to":"Georgia","lat":27.4989278,"lng":-82.5748194,"hometown_city":"Bradenton","hometown_state":"FL"},{"name":"Jamir Perez","year":2026,"position":"DL","stars":3,"rating_247":88.0,"committed_to":"Ohio State","lat":41.5051613,"lng":-81.6934446,"hometown_city":"Cleveland","hometown_state":"OH"},{"name":"JJ Finch","year":2026,"position":"DL","stars":3,"rating_247":88.0,"committed_to":"Tennessee","lat":39.7683331,"lng":-86.1583502,"hometown_city":"Indianapolis","hometown_state":"IN"},{"name":"Darryus McKinley","year":2026,"position":"DL","stars":3,"rating_247":87.0,"committed_to":"Ohio State","lat":30.2240897,"lng":-92.0198427,"hometown_city":"Lafayette","hometown_state":"LA"},{"name":"Tyson Bacon","year":2026,"position":"DL","stars":3,"rating_247":86.0,"committed_to":"Miami","lat":33.3848933,"lng":-86.8070484,"hometown_city":"Hoover","hometown_state":"AL"},{"name":"Xavier Griffin","year":2026,"position":"LB","stars":5,"rating_247":98.0,"committed_to":"Alabama","lat":34.2978794,"lng":-83.8240663,"hometown_city":"Gainesville","hometown_state":"GA"},{"name":"Cincere Johnson","year":2026,"position":"LB","stars":4,"rating_247":98.0,"committed_to":"Ohio State","lat":41.5051613,"lng":-81.6934446,"hometown_city":"Cleveland","hometown_state":"OH"},{"name":"TJ White","year":2026,"position":"LB","stars":4,"rating_247":97.0,"committed_to":"Tennessee","lat":32.2990384,"lng":-90.1847691,"hometown_city":"Jackson","hometown_state":"MS"},{"name":"Tyler Atkinson","year":2026,"position":"LB","stars":5,"rating_247":97.0,"committed_to":"Texas","lat":33.8389977,"lng":-83.9007382,"hometown_city":"Loganville","hometown_state":"GA"},{"name":"Kosi Okpala","year":2026,"position":"LB","stars":4,"rating_247":96.0,"committed_to":"Texas","lat":29.7589382,"lng":-95.3676974,"hometown_city":"Houston","hometown_state":"TX"},{"name":"Brayden Rouse","year":2026,"position":"LB","stars":4,"rating_247":96.0,"committed_to":"Tennessee","lat":33.9528472,"lng":-84.5496148,"hometown_city":"Marietta","hometown_state":"GA"},{"name":"Talanoa Ili","year":2026,"position":"LB","stars":4,"rating_247":95.0,"committed_to":"Southern California","lat":21.679124,"lng":-157.94838,"hometown_city":"Kahuku","hometown_state":"HI"},{"name":"Ja'Dyn Williams","year":2026,"position":"LB","stars":4,"rating_247":91.0,"committed_to":"Indiana","lat":40.7967244,"lng":-81.5215093,"hometown_city":"Massillon","hometown_state":"OH"},{"name":"Thomas Davis Jr.","year":2026,"position":"LB","stars":4,"rating_247":90.0,"committed_to":"Notre Dame","lat":35.1170873,"lng":-80.723718,"hometown_city":"Matthews","hometown_state":"NC"},{"name":"Shadarius Toodle","year":2026,"position":"LB","stars":4,"rating_247":90.0,"committed_to":"Auburn","lat":30.6943566,"lng":-88.0430541,"hometown_city":"Mobile","hometown_state":"AL"},{"name":"CJ Sanna","year":2026,"position":"LB","stars":4,"rating_247":90.0,"committed_to":"Ohio State","lat":40.1983958,"lng":-83.0101843,"hometown_city":"Lewis Center","hometown_state":"OH"},{"name":"Storm Miller","year":2026,"position":"LB","stars":4,"rating_247":89.0,"committed_to":"Texas A&M","lat":41.3144733,"lng":-81.83511,"hometown_city":"Strongsville","hometown_state":"OH"},{"name":"Ja'Kobe Clapper","year":2026,"position":"LB","stars":null,"rating_247":89.0,"committed_to":"Notre Dame","lat":40.2862,"lng":-82.7937,"hometown_city":"Cincinnati","hometown_state":"OH"},{"name":"Jacob Eberhart","year":2026,"position":"LB","stars":4,"rating_247":89.0,"committed_to":"Illinois","lat":38.6268039,"lng":-90.1994097,"hometown_city":"St. Louis","hometown_state":"MO"},{"name":"Kenneth Goodwin III","year":2026,"position":"LB","stars":null,"rating_247":88.0,"committed_to":"SMU","lat":28.6305,"lng":-82.4497,"hometown_city":"Miami","hometown_state":"FL"},{"name":"Ant Davis","year":2026,"position":"LB","stars":null,"rating_247":88.0,"committed_to":"Mississippi","lat":32.6415,"lng":-83.4426,"hometown_city":"Loganville","hometown_state":"GA"},{"name":"Samu Moala","year":2026,"position":"LB","stars":4,"rating_247":88.0,"committed_to":"Texas A&M","lat":33.8885217,"lng":-118.3531991,"hometown_city":"Lawndale","hometown_state":"CA"},{"name":"Rodney Colton Jr.","year":2026,"position":"LB","stars":null,"rating_247":87.0,"committed_to":"Colorado","lat":32.6415,"lng":-83.4426,"hometown_city":"Newnan","hometown_state":"GA"},{"name":"Jamarion Phillips","year":2026,"position":"LB","stars":3,"rating_247":86.0,"committed_to":"Baylor","lat":32.7762719,"lng":-96.7968559,"hometown_city":"Dallas","hometown_state":"TX"},{"name":"Bryant Junius","year":2026,"position":"LB","stars":3,"rating_247":85.0,"committed_to":"Appalachian State","lat":26.0112014,"lng":-80.1494901,"hometown_city":"Hollywood","hometown_state":"FL"},{"name":"Jaiden Roper","year":2026,"position":"LB","stars":null,"rating_247":null,"committed_to":null,"lat":28.6305,"lng":-82.4497,"hometown_city":"Hollywood","hometown_state":"FL"},{"name":"CJ Sibley","year":2026,"position":"LB","stars":null,"rating_247":null,"committed_to":null,"lat":32.6415,"lng":-83.4426,"hometown_city":"Buford","hometown_state":"GA"},{"name":"Danny Odem III","year":2026,"position":"CB","stars":null,"rating_247":98.0,"committed_to":"Nebraska","lat":28.6305,"lng":-82.4497,"hometown_city":"Orlando","hometown_state":"FL"},{"name":"Jorden Edmonds","year":2026,"position":"CB","stars":5,"rating_247":98.0,"committed_to":"Alabama","lat":33.9528472,"lng":-84.5496148,"hometown_city":"Marietta","hometown_state":"GA"},{"name":"Jay Timmons","year":2026,"position":"CB","stars":4,"rating_247":97.0,"committed_to":"Ohio State","lat":40.6300671,"lng":-79.9695004,"hometown_city":"Gibsonia","hometown_state":"PA"},{"name":"Elbert Hill IV","year":2026,"position":"CB","stars":null,"rating_247":95.0,"committed_to":"Southern California","lat":40.2862,"lng":-82.7937,"hometown_city":"Akron","hometown_state":"OH"},{"name":"CJ Bronaugh","year":2026,"position":"CB","stars":4,"rating_247":95.0,"committed_to":"Florida","lat":28.5656649,"lng":-81.5856742,"hometown_city":"Winter Garden","hometown_state":"FL"},{"name":"Samari Matthews","year":2026,"position":"CB","stars":4,"rating_247":94.0,"committed_to":"Texas","lat":35.4817982,"lng":-80.8589501,"hometown_city":"Cornelius","hometown_state":"NC"},{"name":"Camdin Portis","year":2026,"position":"CB","stars":4,"rating_247":94.0,"committed_to":"Miami","lat":35.2272,"lng":-80.843083,"hometown_city":"Charlotte","hometown_state":"NC"},{"name":"Camren Hamiel","year":2026,"position":"CB","stars":4,"rating_247":93.0,"committed_to":"Texas A&M","lat":33.4353672,"lng":-112.3576005,"hometown_city":"Goodyear","hometown_state":"AZ"},{"name":"Jakob Weatherspoon","year":2026,"position":"CB","stars":4,"rating_247":93.0,"committed_to":"North Carolina","lat":41.4516512,"lng":-82.0350598,"hometown_city":"Avon","hometown_state":"OH"},{"name":"Jordan Thomas","year":2026,"position":"CB","stars":4,"rating_247":93.0,"committed_to":"Ohio State","lat":40.9543943,"lng":-74.0308504,"hometown_city":"Oradell","hometown_state":"NJ"},{"name":"Rahsjon Duncan","year":2026,"position":"CB","stars":4,"rating_247":92.0,"committed_to":"Washington","lat":37.8044557,"lng":-122.2713563,"hometown_city":"Oakland","hometown_state":"CA"},{"name":"Peyton Dyer","year":2026,"position":"CB","stars":4,"rating_247":91.0,"committed_to":"Southern California","lat":35.0457219,"lng":-85.3094883,"hometown_city":"Chattanooga","hometown_state":"TN"},{"name":"Havon Finney Jr.","year":2026,"position":"CB","stars":null,"rating_247":91.0,"committed_to":"Louisiana State","lat":37.1841,"lng":-119.4696,"hometown_city":"Chatsworth","hometown_state":"CA"},{"name":"Zech Fort","year":2026,"position":"CB","stars":4,"rating_247":91.0,"committed_to":"Georgia","lat":27.4989278,"lng":-82.5748194,"hometown_city":"Bradenton","hometown_state":"FL"},{"name":"Vic Singleton","year":2026,"position":"CB","stars":null,"rating_247":91.0,"committed_to":"Texas A&M","lat":40.2862,"lng":-82.7937,"hometown_city":"Toledo","hometown_state":"OH"},{"name":"Donovan Webb","year":2026,"position":"CB","stars":4,"rating_247":90.0,"committed_to":"Texas Tech","lat":33.1506744,"lng":-96.8236116,"hometown_city":"Frisco","hometown_state":"TX"},{"name":"Dorian Barney","year":2026,"position":"CB","stars":4,"rating_247":90.0,"committed_to":"Mississippi","lat":33.5801103,"lng":-85.0766113,"hometown_city":"Carrollton","hometown_state":"GA"},{"name":"Nascar McCoy","year":2026,"position":"CB","stars":3,"rating_247":88.0,"committed_to":"Mississippi","lat":34.1206564,"lng":-84.0043513,"hometown_city":"Buford","hometown_state":"GA"},{"name":"Ksani Jiles","year":2026,"position":"CB","stars":3,"rating_247":86.0,"committed_to":"Washington","lat":27.4989278,"lng":-82.5748194,"hometown_city":"Bradenton","hometown_state":"FL"},{"name":"Jett Washington","year":2026,"position":"S","stars":4,"rating_247":98.0,"committed_to":"Oregon","lat":36.1672559,"lng":-115.1485163,"hometown_city":"Las Vegas","hometown_state":"NV"},{"name":"Jireh Edwards","year":2026,"position":"S","stars":5,"rating_247":97.0,"committed_to":"Alabama","lat":38.8165274,"lng":-76.7519753,"hometown_city":"Upper Marlboro","hometown_state":"MD"},{"name":"Joey O'Brien","year":2026,"position":"S","stars":5,"rating_247":97.0,"committed_to":"Notre Dame","lat":40.1023326,"lng":-75.1521195,"hometown_city":"Glenside","hometown_state":"PA"},{"name":"Bralan Womack","year":2026,"position":"S","stars":5,"rating_247":97.0,"committed_to":"Mississippi State","lat":32.3095903,"lng":-90.1389757,"hometown_city":"Flowood","hometown_state":"MS"},{"name":"J'Zavien Currence","year":2026,"position":"S","stars":4,"rating_247":96.0,"committed_to":"South Carolina","lat":34.9248667,"lng":-81.0250784,"hometown_city":"Rock Hill","hometown_state":"SC"},{"name":"Davon Benjamin","year":2026,"position":"S","stars":4,"rating_247":94.0,"committed_to":"Oregon","lat":34.1460234,"lng":-118.8061794,"hometown_city":"Westlake Village","hometown_state":"CA"},{"name":"Blaine Bradford","year":2026,"position":"S","stars":4,"rating_247":94.0,"committed_to":"Ohio State","lat":30.4459596,"lng":-91.18738,"hometown_city":"Baton Rouge","hometown_state":"LA"},{"name":"Khmari Bing","year":2026,"position":"S","stars":4,"rating_247":92.0,"committed_to":"Ohio State","lat":39.2908816,"lng":-76.610759,"hometown_city":"Baltimore","hometown_state":"MD"},{"name":"Simeon Caldwell","year":2026,"position":"S","stars":4,"rating_247":91.0,"committed_to":"Ohio State","lat":30.3321838,"lng":-81.655651,"hometown_city":"Jacksonville","hometown_state":"FL"},{"name":"Kaden Gebhardt","year":2026,"position":"S","stars":3,"rating_247":90.0,"committed_to":"Ohio State","lat":40.1983958,"lng":-83.0101843,"hometown_city":"Lewis Center","hometown_state":"OH"},{"name":"Keenan Harris","year":2026,"position":"S","stars":3,"rating_247":89.0,"committed_to":"Missouri","lat":38.6268039,"lng":-90.1994097,"hometown_city":"St. Louis","hometown_state":"MO"},{"name":"Jacob Curry","year":2026,"position":"S","stars":4,"rating_247":88.0,"committed_to":"Oklahoma","lat":30.2396865,"lng":-81.3856384,"hometown_city":"Ponte Vedra Beach","hometown_state":"FL"},{"name":"Zaiden McDonald","year":2026,"position":"S","stars":3,"rating_247":88.0,"committed_to":"Stanford","lat":40.735657,"lng":-74.1723667,"hometown_city":"Newark","hometown_state":"NJ"},{"name":"Isaiah Williams","year":2026,"position":"S","stars":3,"rating_247":88.0,"committed_to":"Illinois","lat":38.6779591,"lng":-121.1760583,"hometown_city":"Folsom","hometown_state":"CA"},{"name":"Kendre Harrison","year":2026,"position":"ATH","stars":5,"rating_247":97.0,"committed_to":"Oregon","lat":36.3548586,"lng":-79.6644748,"hometown_city":"Reidsville","hometown_state":"NC"},{"name":"Aaron Gregory","year":2026,"position":"ATH","stars":4,"rating_247":94.0,"committed_to":"Texas A&M","lat":33.7514966,"lng":-84.7477136,"hometown_city":"Douglasville","hometown_state":"GA"},{"name":"C.J. Sadler","year":2026,"position":"ATH","stars":null,"rating_247":93.0,"committed_to":"North Carolina","lat":44.3467,"lng":-85.4102,"hometown_city":"Detroit","hometown_state":"MI"},{"name":"Tyriq Green","year":2026,"position":"ATH","stars":4,"rating_247":93.0,"committed_to":"Georgia","lat":34.1206564,"lng":-84.0043513,"hometown_city":"Buford","hometown_state":"GA"},{"name":"Justice Fitzpatrick","year":2026,"position":"ATH","stars":4,"rating_247":92.0,"committed_to":"Georgia","lat":26.1223084,"lng":-80.1433786,"hometown_city":"Fort Lauderdale","hometown_state":"FL"},{"name":"Jackson Ford","year":2026,"position":"ATH","stars":4,"rating_247":91.0,"committed_to":"Penn State","lat":40.034444,"lng":-75.514444,"hometown_city":"Malvern","hometown_state":"PA"},{"name":"Messiah Mickens","year":2026,"position":"ATH","stars":4,"rating_247":90.0,"committed_to":"Virginia Tech","lat":40.2663107,"lng":-76.8861122,"hometown_city":"Harrisburg","hometown_state":"PA"},{"name":"EJ White","year":2026,"position":"ATH","stars":null,"rating_247":90.0,"committed_to":"Florida State","lat":28.6305,"lng":-82.4497,"hometown_city":"Vero Beach","hometown_state":"FL"},{"name":"Amari Latimer","year":2026,"position":"ATH","stars":4,"rating_247":90.0,"committed_to":"West Virginia","lat":33.4713249,"lng":-84.5972005,"hometown_city":"Tyrone","hometown_state":"GA"},{"name":"Jabari Brady","year":2026,"position":"ATH","stars":3,"rating_247":88.0,"committed_to":"Missouri","lat":26.2378597,"lng":-80.1247667,"hometown_city":"Pompano Beach","hometown_state":"FL"},{"name":"Amari Sabb","year":2026,"position":"ATH","stars":3,"rating_247":87.0,"committed_to":"Alabama","lat":39.7027677,"lng":-75.1119434,"hometown_city":"Glassboro","hometown_state":"NJ"},{"name":"Noah Sidan","year":2026,"position":"K","stars":3,"rating_247":81.0,"committed_to":"Florida International","lat":26.0112014,"lng":-80.1494901,"hometown_city":"Hollywood","hometown_state":"FL"},{"name":"Cooper Peterson","year":2026,"position":"K","stars":null,"rating_247":81.0,"committed_to":"Ohio State","lat":35.5557,"lng":-79.3877,"hometown_city":"Charlotte","hometown_state":"NC"}],"2027":[{"name":"Trae Taylor","year":2027,"position":"QB","stars":null,"rating_247":98.0,"committed_to":"Nebraska","lat":41.5378,"lng":-99.7951,"hometown_city":"Omaha","hometown_state":"NE"},{"name":"Brady Edmunds","year":2027,"position":"QB","stars":null,"rating_247":90.0,"committed_to":"Ohio State","lat":37.1841,"lng":-119.4696,"hometown_city":"Huntington Beach","hometown_state":"CA"},{"name":"Wonderful Monds IV","year":2027,"position":"QB","stars":null,"rating_247":88.0,"committed_to":"Notre Dame","lat":28.6305,"lng":-82.4497,"hometown_city":"Vero Beach","hometown_state":"FL"},{"name":"Derrick Baker","year":2027,"position":"QB","stars":null,"rating_247":86.0,"committed_to":"Tennessee","lat":32.6415,"lng":-83.4426,"hometown_city":"Alpharetta","hometown_state":"GA"},{"name":"Kemon Spell","year":2027,"position":"RB","stars":null,"rating_247":98.0,"committed_to":"Georgia","lat":40.8781,"lng":-77.7996,"hometown_city":"McKeesport","hometown_state":"PA"},{"name":"David Gabriel Georges","year":2027,"position":"RB","stars":null,"rating_247":98.0,"committed_to":null,"lat":35.858,"lng":-86.3505,"hometown_city":"Chattanooga","hometown_state":"TN"},{"name":"Landen Williams-Callis","year":2027,"position":"RB","stars":null,"rating_247":95.0,"committed_to":null,"lat":31.4757,"lng":-99.3312,"hometown_city":"Richmond","hometown_state":"TX"},{"name":"SaRod Baker","year":2027,"position":"RB","stars":null,"rating_247":94.0,"committed_to":"Texas Tech","lat":31.4757,"lng":-99.3312,"hometown_city":"DeSoto","hometown_state":"TX"},{"name":"Trey Martin","year":2027,"position":"RB","stars":null,"rating_247":90.0,"committed_to":null,"lat":31.0689,"lng":-91.9968,"hometown_city":"Winnsboro","hometown_state":"LA"},{"name":"Jayden Miles","year":2027,"position":"RB","stars":null,"rating_247":90.0,"committed_to":"Florida State","lat":31.0689,"lng":-91.9968,"hometown_city":"Baton Rouge","hometown_state":"LA"},{"name":"Tyson Robinson","year":2027,"position":"RB","stars":null,"rating_247":90.0,"committed_to":"Michigan","lat":32.7364,"lng":-89.6678,"hometown_city":"Brandon","hometown_state":"MS"},{"name":"Brayden Tyson","year":2027,"position":"RB","stars":null,"rating_247":90.0,"committed_to":"South Carolina","lat":32.6415,"lng":-83.4426,"hometown_city":"Snellville","hometown_state":"GA"},{"name":"Nigel Newkirk","year":2027,"position":"RB","stars":null,"rating_247":89.0,"committed_to":"Alabama","lat":32.6415,"lng":-83.4426,"hometown_city":"Gainesville","hometown_state":"GA"},{"name":"Khamoni Williams","year":2027,"position":"RB","stars":null,"rating_247":89.0,"committed_to":null,"lat":35.858,"lng":-86.3505,"hometown_city":"Memphis","hometown_state":"TN"},{"name":"Amarri Irvin","year":2027,"position":"RB","stars":null,"rating_247":89.0,"committed_to":"Notre Dame","lat":28.6305,"lng":-82.4497,"hometown_city":"Bradenton","hometown_state":"FL"},{"name":"Caden Waye","year":2027,"position":"RB","stars":null,"rating_247":89.0,"committed_to":null,"lat":32.6415,"lng":-83.4426,"hometown_city":"McDonough","hometown_state":"GA"},{"name":"Elijah Kimble","year":2027,"position":"RB","stars":null,"rating_247":89.0,"committed_to":null,"lat":42.9538,"lng":-75.5268,"hometown_city":"Buffalo","hometown_state":"NY"},{"name":"Noah Roberts","year":2027,"position":"RB","stars":null,"rating_247":88.0,"committed_to":"Texas","lat":34.2744,"lng":-111.6602,"hometown_city":"Chandler","hometown_state":"AZ"},{"name":"Amir Brown","year":2027,"position":"RB","stars":null,"rating_247":88.0,"committed_to":"Nebraska","lat":35.5557,"lng":-79.3877,"hometown_city":"Rolesville","hometown_state":"NC"},{"name":"Asa Barnes","year":2027,"position":"RB","stars":null,"rating_247":88.0,"committed_to":null,"lat":35.858,"lng":-86.3505,"hometown_city":"Martin","hometown_state":"TN"},{"name":"Wayne Shanks Jr.","year":2027,"position":"RB","stars":null,"rating_247":88.0,"committed_to":"Arizona","lat":31.4757,"lng":-99.3312,"hometown_city":"Houston","hometown_state":"TX"},{"name":"Kelvin Morrison","year":2027,"position":"RB","stars":null,"rating_247":88.0,"committed_to":"Virginia Tech","lat":40.8781,"lng":-77.7996,"hometown_city":"Hermitage","hometown_state":"PA"},{"name":"Tai Phillips","year":2027,"position":"RB","stars":null,"rating_247":88.0,"committed_to":"Alabama","lat":33.9169,"lng":-80.8964,"hometown_city":"Columbia","hometown_state":"SC"},{"name":"Kelsey Gerald","year":2027,"position":"RB","stars":null,"rating_247":87.0,"committed_to":"Kentucky","lat":28.6305,"lng":-82.4497,"hometown_city":"Lantana","hometown_state":"FL"},{"name":"Arwin Jackson","year":2027,"position":"RB","stars":null,"rating_247":87.0,"committed_to":null,"lat":28.6305,"lng":-82.4497,"hometown_city":"Opa Locka","hometown_state":"FL"},{"name":"Terrance Grant Jr.","year":2027,"position":"RB","stars":null,"rating_247":87.0,"committed_to":"Maryland","lat":39.055,"lng":-76.7909,"hometown_city":"Hyattsville","hometown_state":"MD"},{"name":"Xavier Bala","year":2027,"position":"RB","stars":null,"rating_247":87.0,"committed_to":"Boston College","lat":42.9538,"lng":-75.5268,"hometown_city":"Long Island City","hometown_state":"NY"},{"name":"Mikel Stephen","year":2027,"position":"RB","stars":null,"rating_247":86.0,"committed_to":"Duke","lat":32.7364,"lng":-89.6678,"hometown_city":"Madison","hometown_state":"MS"},{"name":"Jakoby Dixon","year":2027,"position":"RB","stars":null,"rating_247":86.0,"committed_to":"Oklahoma","lat":31.4757,"lng":-99.3312,"hometown_city":"Brenham","hometown_state":"TX"},{"name":"CJ Cowley","year":2027,"position":"RB","stars":null,"rating_247":null,"committed_to":null,"lat":32.7794,"lng":-86.8287,"hometown_city":"Alabaster","hometown_state":"AL"},{"name":"Monshun Sales","year":2027,"position":"WR","stars":null,"rating_247":98.0,"committed_to":null,"lat":39.8942,"lng":-86.2816,"hometown_city":"Indianapolis","hometown_state":"IN"},{"name":"Easton Royal","year":2027,"position":"WR","stars":null,"rating_247":98.0,"committed_to":"Texas","lat":31.0689,"lng":-91.9968,"hometown_city":"New Orleans","hometown_state":"LA"},{"name":"Dakota Guerrant","year":2027,"position":"WR","stars":null,"rating_247":98.0,"committed_to":null,"lat":44.3467,"lng":-85.4102,"hometown_city":"Harper Woods","hometown_state":"MI"},{"name":"Osani Gayles","year":2027,"position":"WR","stars":null,"rating_247":95.0,"committed_to":null,"lat":28.6305,"lng":-82.4497,"hometown_city":"Bradenton","hometown_state":"FL"},{"name":"Quentin Hale","year":2027,"position":"WR","stars":null,"rating_247":94.0,"committed_to":"Southern California","lat":37.1841,"lng":-119.4696,"hometown_city":"Corona","hometown_state":"CA"},{"name":"Eric McFarland III","year":2027,"position":"WR","stars":null,"rating_247":94.0,"committed_to":null,"lat":28.6305,"lng":-82.4497,"hometown_city":"Bradenton","hometown_state":"FL"},{"name":"Kesean Bowman","year":2027,"position":"WR","stars":null,"rating_247":93.0,"committed_to":"Tennessee","lat":35.858,"lng":-86.3505,"hometown_city":"Brentwood","hometown_state":"TN"},{"name":"Roye Oliver III","year":2027,"position":"WR","stars":null,"rating_247":93.0,"committed_to":"Southern California","lat":34.2744,"lng":-111.6602,"hometown_city":"Chandler","hometown_state":"AZ"},{"name":"Benny Easter Jr.","year":2027,"position":"WR","stars":null,"rating_247":92.0,"committed_to":"Texas Tech","lat":31.4757,"lng":-99.3312,"hometown_city":"Humble","hometown_state":"TX"},{"name":"Julius Jones","year":2027,"position":"WR","stars":null,"rating_247":92.0,"committed_to":null,"lat":28.6305,"lng":-82.4497,"hometown_city":"Fort Lauderdale","hometown_state":"FL"},{"name":"Khalil Taylor","year":2027,"position":"WR","stars":null,"rating_247":92.0,"committed_to":null,"lat":40.8781,"lng":-77.7996,"hometown_city":"Gibsonia","hometown_state":"PA"},{"name":"Deshawn Hall","year":2027,"position":"WR","stars":null,"rating_247":91.0,"committed_to":null,"lat":32.7794,"lng":-86.8287,"hometown_city":"Prattville","hometown_state":"AL"},{"name":"Briceson Thrower Jr.","year":2027,"position":"WR","stars":null,"rating_247":91.0,"committed_to":"Texas","lat":31.4757,"lng":-99.3312,"hometown_city":"Forney","hometown_state":"TX"},{"name":"Tre Moore","year":2027,"position":"WR","stars":null,"rating_247":90.0,"committed_to":"Washington","lat":31.4757,"lng":-99.3312,"hometown_city":"Pflugerville","hometown_state":"TX"},{"name":"Quentin Burrell","year":2027,"position":"WR","stars":null,"rating_247":90.0,"committed_to":"Michigan","lat":40.0417,"lng":-89.1965,"hometown_city":"Chicago","hometown_state":"IL"},{"name":"Trenton Yancey","year":2027,"position":"WR","stars":null,"rating_247":90.0,"committed_to":"Purdue","lat":31.4757,"lng":-99.3312,"hometown_city":"Duncanville","hometown_state":"TX"},{"name":"Blake Wong","year":2027,"position":"WR","stars":null,"rating_247":90.0,"committed_to":null,"lat":37.1841,"lng":-119.4696,"hometown_city":"Norco","hometown_state":"CA"},{"name":"Julian Caldwell","year":2027,"position":"WR","stars":null,"rating_247":90.0,"committed_to":"Texas Tech","lat":31.4757,"lng":-99.3312,"hometown_city":"Argyle","hometown_state":"TX"},{"name":"Myles McAfee","year":2027,"position":"WR","stars":null,"rating_247":90.0,"committed_to":null,"lat":39.055,"lng":-76.7909,"hometown_city":"Severn","hometown_state":"MD"},{"name":"Damani Warren","year":2027,"position":"WR","stars":null,"rating_247":89.0,"committed_to":null,"lat":39.3289,"lng":-116.6312,"hometown_city":"Las Vegas","hometown_state":"NV"},{"name":"Iveon Lewis","year":2027,"position":"WR","stars":null,"rating_247":89.0,"committed_to":"Kentucky","lat":37.5215,"lng":-78.8537,"hometown_city":"Richmond","hometown_state":"VA"},{"name":"Taurean Rawlins","year":2027,"position":"WR","stars":null,"rating_247":89.0,"committed_to":"Georgia","lat":32.6415,"lng":-83.4426,"hometown_city":"Atlanta","hometown_state":"GA"},{"name":"Miguel Whitley","year":2027,"position":"WR","stars":null,"rating_247":88.0,"committed_to":"Mississippi","lat":31.0689,"lng":-91.9968,"hometown_city":"New Orleans","hometown_state":"LA"},{"name":"Bryan Porter","year":2027,"position":"WR","stars":null,"rating_247":88.0,"committed_to":null,"lat":40.1907,"lng":-74.6728,"hometown_city":"Oradell","hometown_state":"NJ"},{"name":"Zayden Smith","year":2027,"position":"WR","stars":null,"rating_247":88.0,"committed_to":null,"lat":40.8781,"lng":-77.7996,"hometown_city":"Mechanicsburg","hometown_state":"PA"},{"name":"Antayvious Ellis","year":2027,"position":"WR","stars":null,"rating_247":87.0,"committed_to":"Nebraska","lat":41.5378,"lng":-99.7951,"hometown_city":"Omaha","hometown_state":"NE"},{"name":"Jordan Donahoo","year":2027,"position":"WR","stars":null,"rating_247":86.0,"committed_to":null,"lat":28.6305,"lng":-82.4497,"hometown_city":"Oviedo","hometown_state":"FL"},{"name":"Khamarian Young","year":2027,"position":"WR","stars":null,"rating_247":85.0,"committed_to":null,"lat":28.6305,"lng":-82.4497,"hometown_city":"Hollywood","hometown_state":"FL"},{"name":"Vermont Carmack","year":2027,"position":"WR","stars":null,"rating_247":85.0,"committed_to":null,"lat":35.5557,"lng":-79.3877,"hometown_city":"Greensboro","hometown_state":"NC"},{"name":"Ahmad Hudson","year":2027,"position":"TE","stars":null,"rating_247":98.0,"committed_to":"Louisiana State","lat":31.0689,"lng":-91.9968,"hometown_city":"Ruston","hometown_state":"LA"},{"name":"Jaxon Dollar","year":2027,"position":"TE","stars":null,"rating_247":98.0,"committed_to":"Georgia","lat":35.5557,"lng":-79.3877,"hometown_city":"Denver","hometown_state":"NC"},{"name":"Seneca Driver","year":2027,"position":"TE","stars":null,"rating_247":94.0,"committed_to":"Oklahoma","lat":37.5347,"lng":-85.3021,"hometown_city":"Danville","hometown_state":"KY"},{"name":"Jordan Karhoff","year":2027,"position":"TE","stars":null,"rating_247":93.0,"committed_to":"Virginia Tech","lat":40.2862,"lng":-82.7937,"hometown_city":"Columbus","hometown_state":"OH"},{"name":"Brock Williams","year":2027,"position":"TE","stars":null,"rating_247":93.0,"committed_to":"Texas","lat":40.0417,"lng":-89.1965,"hometown_city":"Libertyville","hometown_state":"IL"},{"name":"Parker Newman","year":2027,"position":"TE","stars":null,"rating_247":90.0,"committed_to":"Duke","lat":35.858,"lng":-86.3505,"hometown_city":"Sevierville","hometown_state":"TN"},{"name":"Tommy Douglas","year":2027,"position":"TE","stars":null,"rating_247":89.0,"committed_to":"Florida","lat":40.1907,"lng":-74.6728,"hometown_city":"Princeton","hometown_state":"NJ"},{"name":"D'Angelo White","year":2027,"position":"TE","stars":null,"rating_247":89.0,"committed_to":"Louisville","lat":40.2862,"lng":-82.7937,"hometown_city":"Cleveland","hometown_state":"OH"},{"name":"Sean Currie","year":2027,"position":"TE","stars":null,"rating_247":89.0,"committed_to":"Penn State","lat":40.1907,"lng":-74.6728,"hometown_city":"Lawrenceville","hometown_state":"NJ"},{"name":"Colton Johnson","year":2027,"position":"TE","stars":null,"rating_247":88.0,"committed_to":null,"lat":35.858,"lng":-86.3505,"hometown_city":"Baxter","hometown_state":"TN"},{"name":"Grant Haviland","year":2027,"position":"TE","stars":null,"rating_247":88.0,"committed_to":"Vanderbilt","lat":32.6415,"lng":-83.4426,"hometown_city":"Alpharetta","hometown_state":"GA"},{"name":"Anthony Cartwright","year":2027,"position":"TE","stars":null,"rating_247":88.0,"committed_to":null,"lat":44.3467,"lng":-85.4102,"hometown_city":"Franklin","hometown_state":"MI"},{"name":"JT Geraci","year":2027,"position":"TE","stars":null,"rating_247":88.0,"committed_to":"Texas","lat":40.1907,"lng":-74.6728,"hometown_city":"Ramsey","hometown_state":"NJ"},{"name":"Max Patterson","year":2027,"position":"TE","stars":null,"rating_247":88.0,"committed_to":"Pittsburgh","lat":32.6415,"lng":-83.4426,"hometown_city":"Suwanee","hometown_state":"GA"},{"name":"Zac Fares","year":2027,"position":"TE","stars":null,"rating_247":88.0,"committed_to":"UCLA","lat":39.3289,"lng":-116.6312,"hometown_city":"Las Vegas","hometown_state":"NV"},{"name":"Holden Niemi","year":2027,"position":"TE","stars":null,"rating_247":87.0,"committed_to":"Texas A&M","lat":44.3467,"lng":-85.4102,"hometown_city":"Dexter","hometown_state":"MI"},{"name":"Judah Lancaster","year":2027,"position":"TE","stars":null,"rating_247":86.0,"committed_to":"South Carolina","lat":35.858,"lng":-86.3505,"hometown_city":"Brentwood","hometown_state":"TN"},{"name":"Brady Johnson","year":2027,"position":"TE","stars":null,"rating_247":85.0,"committed_to":"Northwestern","lat":40.0417,"lng":-89.1965,"hometown_city":"Glen Ellyn","hometown_state":"IL"},{"name":"Maxwell Hiller","year":2027,"position":"OT","stars":null,"rating_247":98.0,"committed_to":"Florida","lat":40.8781,"lng":-77.7996,"hometown_city":"Coatesville","hometown_state":"PA"},{"name":"Mark Matthews","year":2027,"position":"OT","stars":null,"rating_247":98.0,"committed_to":"Texas A&M","lat":28.6305,"lng":-82.4497,"hometown_city":"Fort Lauderdale","hometown_state":"FL"},{"name":"Oluwasemilore Olubobola","year":2027,"position":"OT","stars":null,"rating_247":98.0,"committed_to":"Notre Dame","lat":40.1907,"lng":-74.6728,"hometown_city":"Jersey City","hometown_state":"NJ"},{"name":"Kellen Wymer","year":2027,"position":"OT","stars":null,"rating_247":94.0,"committed_to":"Ohio State","lat":40.2862,"lng":-82.7937,"hometown_city":"Liberty Center","hometown_state":"OH"},{"name":"Caden Moss","year":2027,"position":"OT","stars":null,"rating_247":94.0,"committed_to":null,"lat":32.7364,"lng":-89.6678,"hometown_city":"Jackson","hometown_state":"MS"},{"name":"Kennedy Brown","year":2027,"position":"OT","stars":null,"rating_247":94.0,"committed_to":"Texas A&M","lat":31.4757,"lng":-99.3312,"hometown_city":"Kingwood","hometown_state":"TX"},{"name":"Jake Hildebrand","year":2027,"position":"OT","stars":null,"rating_247":93.0,"committed_to":"Arizona State","lat":34.2744,"lng":-111.6602,"hometown_city":"Chandler","hometown_state":"AZ"},{"name":"Kaeden Scott","year":2027,"position":"OT","stars":null,"rating_247":93.0,"committed_to":"Texas A&M","lat":31.4757,"lng":-99.3312,"hometown_city":"San Antonio","hometown_state":"TX"},{"name":"Layton von Brandt","year":2027,"position":"OT","stars":null,"rating_247":92.0,"committed_to":"Auburn","lat":38.9896,"lng":-75.505,"hometown_city":"Middletown","hometown_state":"DE"},{"name":"Joshua Sam-Epelle","year":2027,"position":"OT","stars":null,"rating_247":92.0,"committed_to":null,"lat":32.6415,"lng":-83.4426,"hometown_city":"Douglasville","hometown_state":"GA"},{"name":"Cooper Hackett","year":2027,"position":"OT","stars":null,"rating_247":92.0,"committed_to":"Oklahoma","lat":35.5889,"lng":-97.4943,"hometown_city":"Fort Gibson","hometown_state":"OK"},{"name":"Brian Swanson","year":2027,"position":"OT","stars":null,"rating_247":91.0,"committed_to":null,"lat":31.4757,"lng":-99.3312,"hometown_city":"Dallas","hometown_state":"TX"},{"name":"Cole Reiter","year":2027,"position":"OT","stars":null,"rating_247":91.0,"committed_to":"Wisconsin","lat":44.6243,"lng":-89.9941,"hometown_city":"Germantown","hometown_state":"WI"},{"name":"Elijah Hutcheson","year":2027,"position":"OT","stars":null,"rating_247":91.0,"committed_to":"Florida","lat":37.5215,"lng":-78.8537,"hometown_city":"Roanoke","hometown_state":"VA"},{"name":"Kelsey Adams","year":2027,"position":"OT","stars":null,"rating_247":90.0,"committed_to":"Georgia","lat":32.6415,"lng":-83.4426,"hometown_city":"Fairburn","hometown_state":"GA"},{"name":"Mason Wilt","year":2027,"position":"OT","stars":null,"rating_247":90.0,"committed_to":"Ohio State","lat":40.2862,"lng":-82.7937,"hometown_city":"Saint Clairsville","hometown_state":"OH"},{"name":"Jimmy Kalis","year":2027,"position":"OT","stars":null,"rating_247":90.0,"committed_to":"Ohio State","lat":40.8781,"lng":-77.7996,"hometown_city":"Pittsburgh","hometown_state":"PA"},{"name":"Davis Seaman","year":2027,"position":"OT","stars":null,"rating_247":90.0,"committed_to":"Ohio State","lat":40.2862,"lng":-82.7937,"hometown_city":"Columbus","hometown_state":"OH"},{"name":"Dewey Young","year":2027,"position":"OT","stars":null,"rating_247":90.0,"committed_to":null,"lat":44.3467,"lng":-85.4102,"hometown_city":"Kalamazoo","hometown_state":"MI"},{"name":"Antonio Keefer","year":2027,"position":"OT","stars":null,"rating_247":90.0,"committed_to":"Mississippi","lat":35.858,"lng":-86.3505,"hometown_city":"Memphis","hometown_state":"TN"},{"name":"Princeton Uwaifo","year":2027,"position":"OT","stars":null,"rating_247":90.0,"committed_to":"Tennessee","lat":35.858,"lng":-86.3505,"hometown_city":"Murfreesboro","hometown_state":"TN"},{"name":"Cameron Wagner","year":2027,"position":"OT","stars":null,"rating_247":90.0,"committed_to":"Oregon","lat":40.0417,"lng":-89.1965,"hometown_city":"St. Joseph","hometown_state":"IL"},{"name":"Carter Jones","year":2027,"position":"OT","stars":null,"rating_247":90.0,"committed_to":"Clemson","lat":37.5215,"lng":-78.8537,"hometown_city":"Poquoson","hometown_state":"VA"},{"name":"Junior Saunders","year":2027,"position":"OT","stars":null,"rating_247":90.0,"committed_to":"Virginia Tech","lat":37.5215,"lng":-78.8537,"hometown_city":"Woodberry Forest","hometown_state":"VA"},{"name":"Kal-El Johnson","year":2027,"position":"OT","stars":null,"rating_247":90.0,"committed_to":null,"lat":40.2862,"lng":-82.7937,"hometown_city":"Cincinnati","hometown_state":"OH"},{"name":"Qua Ford","year":2027,"position":"OT","stars":null,"rating_247":88.0,"committed_to":"SMU","lat":31.4757,"lng":-99.3312,"hometown_city":"Texarkana","hometown_state":"TX"},{"name":"Lucas Rhoa","year":2027,"position":"OT","stars":null,"rating_247":88.0,"committed_to":null,"lat":37.1841,"lng":-119.4696,"hometown_city":"Orange","hometown_state":"CA"},{"name":"Jacob Burns","year":2027,"position":"OT","stars":null,"rating_247":88.0,"committed_to":null,"lat":32.6415,"lng":-83.4426,"hometown_city":"Rabun Gap","hometown_state":"GA"},{"name":"Brody McNeel","year":2027,"position":"OT","stars":null,"rating_247":88.0,"committed_to":"Ohio State","lat":37.5215,"lng":-78.8537,"hometown_city":"Richmond","hometown_state":"VA"},{"name":"Ryan Robbins","year":2027,"position":"OT","stars":null,"rating_247":88.0,"committed_to":"Penn State","lat":40.8781,"lng":-77.7996,"hometown_city":"Upper St. Clair","hometown_state":"PA"},{"name":"Tre Warren III","year":2027,"position":"OT","stars":null,"rating_247":87.0,"committed_to":"North Carolina State","lat":32.6415,"lng":-83.4426,"hometown_city":"Columbus","hometown_state":"GA"},{"name":"Luke Injaychock","year":2027,"position":"OT","stars":null,"rating_247":86.0,"committed_to":"Missouri","lat":40.0417,"lng":-89.1965,"hometown_city":"La Grange Park","hometown_state":"IL"},{"name":"Ismael Camara","year":2027,"position":"IOL","stars":null,"rating_247":98.0,"committed_to":null,"lat":31.4757,"lng":-99.3312,"hometown_city":"Gilmer","hometown_state":"TX"},{"name":"Kaeden Penny","year":2027,"position":"IOL","stars":null,"rating_247":98.0,"committed_to":"Oklahoma","lat":35.5889,"lng":-97.4943,"hometown_city":"Bixby","hometown_state":"OK"},{"name":"Terrance Smith","year":2027,"position":"IOL","stars":null,"rating_247":95.0,"committed_to":null,"lat":40.8781,"lng":-77.7996,"hometown_city":"Lansdale","hometown_state":"PA"},{"name":"James Halter","year":2027,"position":"IOL","stars":null,"rating_247":94.0,"committed_to":"Notre Dame","lat":40.8781,"lng":-77.7996,"hometown_city":"Pittsburgh","hometown_state":"PA"},{"name":"Jatori Williams","year":2027,"position":"IOL","stars":null,"rating_247":93.0,"committed_to":"Miami","lat":32.7794,"lng":-86.8287,"hometown_city":"Phenix City","hometown_state":"AL"},{"name":"Jordan Agbanoma","year":2027,"position":"IOL","stars":null,"rating_247":91.0,"committed_to":"Nebraska","lat":32.6415,"lng":-83.4426,"hometown_city":"Loganville","hometown_state":"GA"},{"name":"Sean Tatum","year":2027,"position":"IOL","stars":null,"rating_247":90.0,"committed_to":"Miami","lat":28.6305,"lng":-82.4497,"hometown_city":"Fort Pierce","hometown_state":"FL"},{"name":"Jackson Roper","year":2027,"position":"IOL","stars":null,"rating_247":90.0,"committed_to":"UCLA","lat":38.9972,"lng":-105.5478,"hometown_city":"Englewood","hometown_state":"CO"},{"name":"Reed Ramsier","year":2027,"position":"IOL","stars":null,"rating_247":90.0,"committed_to":"Auburn","lat":28.6305,"lng":-82.4497,"hometown_city":"Orlando","hometown_state":"FL"},{"name":"Ian Walker","year":2027,"position":"IOL","stars":null,"rating_247":89.0,"committed_to":"Kentucky","lat":40.1907,"lng":-74.6728,"hometown_city":"Pennington","hometown_state":"NJ"},{"name":"Lincoln Mageo","year":2027,"position":"IOL","stars":null,"rating_247":88.0,"committed_to":null,"lat":37.1841,"lng":-119.4696,"hometown_city":"Oceanside","hometown_state":"CA"},{"name":"Tristan Dare","year":2027,"position":"IOL","stars":null,"rating_247":87.0,"committed_to":"Missouri","lat":31.4757,"lng":-99.3312,"hometown_city":"Southlake","hometown_state":"TX"},{"name":"Jayden Dean","year":2027,"position":"IOL","stars":null,"rating_247":85.0,"committed_to":null,"lat":28.6305,"lng":-82.4497,"hometown_city":"Fort Lauderdale","hometown_state":"FL"},{"name":"DJ Jacobs","year":2027,"position":"Edge","stars":null,"rating_247":98.0,"committed_to":"Ohio State","lat":32.6415,"lng":-83.4426,"hometown_city":"Roswell","hometown_state":"GA"},{"name":"KJ Green","year":2027,"position":"Edge","stars":null,"rating_247":98.0,"committed_to":"Louisiana State","lat":32.6415,"lng":-83.4426,"hometown_city":"Stone Mountain","hometown_state":"GA"},{"name":"Anthony Sweeney","year":2027,"position":"Edge","stars":null,"rating_247":98.0,"committed_to":"Texas Tech","lat":39.055,"lng":-76.7909,"hometown_city":"Baltimore","hometown_state":"MD"},{"name":"Abraham Sesay","year":2027,"position":"Edge","stars":null,"rating_247":98.0,"committed_to":null,"lat":40.8781,"lng":-77.7996,"hometown_city":"Exton","hometown_state":"PA"},{"name":"Mekai Brown","year":2027,"position":"Edge","stars":null,"rating_247":98.0,"committed_to":"Southern California","lat":41.6219,"lng":-72.7273,"hometown_city":"Greenwich","hometown_state":"CT"},{"name":"Rashad Streets","year":2027,"position":"Edge","stars":null,"rating_247":98.0,"committed_to":"Oregon","lat":35.5557,"lng":-79.3877,"hometown_city":"Raleigh","hometown_state":"NC"},{"name":"Zyron Forstall","year":2027,"position":"Edge","stars":null,"rating_247":98.0,"committed_to":"Texas A&M","lat":28.6305,"lng":-82.4497,"hometown_city":"Bradenton","hometown_state":"FL"},{"name":"Chris Whitehead","year":2027,"position":"Edge","stars":null,"rating_247":94.0,"committed_to":null,"lat":37.5215,"lng":-78.8537,"hometown_city":"Chesterfield","hometown_state":"VA"},{"name":"Aidan O'Neil","year":2027,"position":"Edge","stars":null,"rating_247":93.0,"committed_to":"Notre Dame","lat":40.1907,"lng":-74.6728,"hometown_city":"Ramsey","hometown_state":"NJ"},{"name":"Wyatt Smith","year":2027,"position":"Edge","stars":null,"rating_247":93.0,"committed_to":"Ohio State","lat":28.6305,"lng":-82.4497,"hometown_city":"Fort Lauderdale","hometown_state":"FL"},{"name":"Jabarrius Garror","year":2027,"position":"Edge","stars":null,"rating_247":92.0,"committed_to":null,"lat":32.7794,"lng":-86.8287,"hometown_city":"Mobile","hometown_state":"AL"},{"name":"Jackson Vaughn","year":2027,"position":"Edge","stars":null,"rating_247":92.0,"committed_to":"Notre Dame","lat":40.1907,"lng":-74.6728,"hometown_city":"Oradell","hometown_state":"NJ"},{"name":"Prince Goldsby","year":2027,"position":"Edge","stars":null,"rating_247":92.0,"committed_to":"Ohio State","lat":38.3566,"lng":-92.458,"hometown_city":"Blue Springs","hometown_state":"MO"},{"name":"Cameron Pritchett","year":2027,"position":"Edge","stars":null,"rating_247":92.0,"committed_to":"Oregon","lat":32.7794,"lng":-86.8287,"hometown_city":"Alabaster","hometown_state":"AL"},{"name":"Zane Rowe","year":2027,"position":"Edge","stars":null,"rating_247":92.0,"committed_to":"Oregon","lat":31.4757,"lng":-99.3312,"hometown_city":"Denton","hometown_state":"TX"},{"name":"James Pace III","year":2027,"position":"Edge","stars":null,"rating_247":91.0,"committed_to":null,"lat":39.055,"lng":-76.7909,"hometown_city":"Hyattsville","hometown_state":"MD"},{"name":"Marquis Evans","year":2027,"position":"Edge","stars":null,"rating_247":90.0,"committed_to":null,"lat":32.7794,"lng":-86.8287,"hometown_city":"Hoover","hometown_state":"AL"},{"name":"Krew Jones","year":2027,"position":"Edge","stars":null,"rating_247":90.0,"committed_to":"Oklahoma","lat":39.321,"lng":-111.0937,"hometown_city":"Orem","hometown_state":"UT"},{"name":"Justin Weeks","year":2027,"position":"Edge","stars":null,"rating_247":89.0,"committed_to":null,"lat":32.6415,"lng":-83.4426,"hometown_city":"Douglasville","hometown_state":"GA"},{"name":"T.K. Cunningham","year":2027,"position":"Edge","stars":null,"rating_247":89.0,"committed_to":null,"lat":34.2744,"lng":-111.6602,"hometown_city":"Chandler","hometown_state":"AZ"},{"name":"Myles Smith","year":2027,"position":"Edge","stars":null,"rating_247":89.0,"committed_to":"Indiana","lat":44.3467,"lng":-85.4102,"hometown_city":"Farmington","hometown_state":"MI"},{"name":"Chaz Gray","year":2027,"position":"Edge","stars":null,"rating_247":89.0,"committed_to":"Washington","lat":40.1907,"lng":-74.6728,"hometown_city":"Montvale","hometown_state":"NJ"},{"name":"Kaylon Bailey","year":2027,"position":"Edge","stars":null,"rating_247":88.0,"committed_to":null,"lat":40.2862,"lng":-82.7937,"hometown_city":"Cleveland","hometown_state":"OH"},{"name":"Jayce Brewer","year":2027,"position":"Edge","stars":null,"rating_247":88.0,"committed_to":"Michigan","lat":39.8942,"lng":-86.2816,"hometown_city":"Indianapolis","hometown_state":"IN"},{"name":"Adriel Rojas","year":2027,"position":"Edge","stars":null,"rating_247":88.0,"committed_to":"Duke","lat":32.6415,"lng":-83.4426,"hometown_city":"Cumming","hometown_state":"GA"},{"name":"Munir Lewis","year":2027,"position":"Edge","stars":null,"rating_247":88.0,"committed_to":"Louisville","lat":40.2862,"lng":-82.7937,"hometown_city":"Cleveland","hometown_state":"OH"},{"name":"Isaac Miller","year":2027,"position":"Edge","stars":null,"rating_247":87.0,"committed_to":"Wisconsin","lat":44.6243,"lng":-89.9941,"hometown_city":"Waukesha","hometown_state":"WI"},{"name":"Jalen Brewster","year":2027,"position":"DL","stars":null,"rating_247":98.0,"committed_to":"Texas Tech","lat":31.4757,"lng":-99.3312,"hometown_city":"Cedar Hill","hometown_state":"TX"},{"name":"Kasi Currie","year":2027,"position":"DL","stars":null,"rating_247":95.0,"committed_to":null,"lat":37.1841,"lng":-119.4696,"hometown_city":"Chatsworth","hometown_state":"CA"},{"name":"Marcus Fakatou","year":2027,"position":"DL","stars":null,"rating_247":94.0,"committed_to":null,"lat":37.1841,"lng":-119.4696,"hometown_city":"Chatsworth","hometown_state":"CA"},{"name":"Mitchell Turner","year":2027,"position":"DL","stars":null,"rating_247":94.0,"committed_to":null,"lat":32.7364,"lng":-89.6678,"hometown_city":"Louisville","hometown_state":"MS"},{"name":"David Folorunsho","year":2027,"position":"DL","stars":null,"rating_247":94.0,"committed_to":"Notre Dame","lat":40.0417,"lng":-89.1965,"hometown_city":"Chicago","hometown_state":"IL"},{"name":"Myels Smith","year":2027,"position":"DL","stars":null,"rating_247":94.0,"committed_to":"Texas A&M","lat":37.1841,"lng":-119.4696,"hometown_city":"Inglewood","hometown_state":"CA"},{"name":"Karlos May","year":2027,"position":"DL","stars":null,"rating_247":92.0,"committed_to":null,"lat":32.7794,"lng":-86.8287,"hometown_city":"Birmingham","hometown_state":"AL"},{"name":"Cahron Wheeler","year":2027,"position":"DL","stars":null,"rating_247":91.0,"committed_to":"Florida","lat":39.055,"lng":-76.7909,"hometown_city":"Baltimore","hometown_state":"MD"},{"name":"Alifeleti Tuihalamaka","year":2027,"position":"DL","stars":null,"rating_247":91.0,"committed_to":"Southern California","lat":37.1841,"lng":-119.4696,"hometown_city":"Westlake Village","hometown_state":"CA"},{"name":"Brayden Parks","year":2027,"position":"DL","stars":null,"rating_247":91.0,"committed_to":null,"lat":40.0417,"lng":-89.1965,"hometown_city":"Oak Lawn","hometown_state":"IL"},{"name":"John Archer","year":2027,"position":"DL","stars":null,"rating_247":91.0,"committed_to":"South Carolina","lat":35.5557,"lng":-79.3877,"hometown_city":"Fayetteville","hometown_state":"NC"},{"name":"Ezekiel Ayangbile","year":2027,"position":"DL","stars":null,"rating_247":90.0,"committed_to":"Miami","lat":31.4757,"lng":-99.3312,"hometown_city":"Houston","hometown_state":"TX"},{"name":"Nate Carson","year":2027,"position":"DL","stars":null,"rating_247":90.0,"committed_to":null,"lat":33.9169,"lng":-80.8964,"hometown_city":"Columbia","hometown_state":"SC"},{"name":"Elijah Patmon","year":2027,"position":"DL","stars":null,"rating_247":90.0,"committed_to":"Texas A&M","lat":32.6415,"lng":-83.4426,"hometown_city":"Warner Robins","hometown_state":"GA"},{"name":"Donivan Moore","year":2027,"position":"DL","stars":null,"rating_247":90.0,"committed_to":"Auburn","lat":32.7794,"lng":-86.8287,"hometown_city":"Bessemer","hometown_state":"AL"},{"name":"Marvin Nguetsop","year":2027,"position":"DL","stars":null,"rating_247":90.0,"committed_to":"Mississippi","lat":41.6219,"lng":-72.7273,"hometown_city":"Oakdale","hometown_state":"CT"},{"name":"George Toia","year":2027,"position":"DL","stars":null,"rating_247":90.0,"committed_to":"UCLA","lat":31.4757,"lng":-99.3312,"hometown_city":"Trophy Club","hometown_state":"TX"},{"name":"Joseph Buchanan","year":2027,"position":"DL","stars":null,"rating_247":90.0,"committed_to":"Virginia Tech","lat":39.055,"lng":-76.7909,"hometown_city":"Owings Mills","hometown_state":"MD"},{"name":"Nate Kamba","year":2027,"position":"DL","stars":null,"rating_247":90.0,"committed_to":null,"lat":35.5557,"lng":-79.3877,"hometown_city":"Charlotte","hometown_state":"NC"},{"name":"Elija Harmon","year":2027,"position":"DL","stars":null,"rating_247":90.0,"committed_to":"Oklahoma","lat":37.1841,"lng":-119.4696,"hometown_city":"Inglewood","hometown_state":"CA"},{"name":"Jamarkus Pittman","year":2027,"position":"DL","stars":null,"rating_247":90.0,"committed_to":"Mississippi","lat":35.858,"lng":-86.3505,"hometown_city":"Memphis","hometown_state":"TN"},{"name":"Deven Robertson","year":2027,"position":"DL","stars":null,"rating_247":89.0,"committed_to":"Oklahoma","lat":32.7364,"lng":-89.6678,"hometown_city":"Hattiesburg","hometown_state":"MS"},{"name":"Reinaldo Perez","year":2027,"position":"DL","stars":null,"rating_247":89.0,"committed_to":"Indiana","lat":40.2862,"lng":-82.7937,"hometown_city":"Columbus","hometown_state":"OH"},{"name":"Ohimai Ozolua","year":2027,"position":"DL","stars":null,"rating_247":89.0,"committed_to":"Michigan State","lat":40.0417,"lng":-89.1965,"hometown_city":"Chicago","hometown_state":"IL"},{"name":"Tyler Alexander","year":2027,"position":"DL","stars":null,"rating_247":88.0,"committed_to":null,"lat":28.6305,"lng":-82.4497,"hometown_city":"Wellington","hometown_state":"FL"},{"name":"Maleek Lee","year":2027,"position":"DL","stars":null,"rating_247":88.0,"committed_to":"Georgia Tech","lat":28.6305,"lng":-82.4497,"hometown_city":"Sarasota","hometown_state":"FL"},{"name":"Jamar Thompson","year":2027,"position":"DL","stars":null,"rating_247":88.0,"committed_to":"Georgia Tech","lat":28.6305,"lng":-82.4497,"hometown_city":"Boca Raton","hometown_state":"FL"},{"name":"Malachi Brown","year":2027,"position":"DL","stars":null,"rating_247":88.0,"committed_to":"Kentucky","lat":37.5347,"lng":-85.3021,"hometown_city":"Corbin","hometown_state":"KY"},{"name":"Amari Vickerson","year":2027,"position":"DL","stars":null,"rating_247":88.0,"committed_to":"SMU","lat":31.4757,"lng":-99.3312,"hometown_city":"Cypress","hometown_state":"TX"},{"name":"Waylon Wooten","year":2027,"position":"DL","stars":null,"rating_247":87.0,"committed_to":"Georgia","lat":32.6415,"lng":-83.4426,"hometown_city":"Loganville","hometown_state":"GA"},{"name":"Kamarui Dorsey","year":2027,"position":"LB","stars":null,"rating_247":95.0,"committed_to":"Texas A&M","lat":32.6415,"lng":-83.4426,"hometown_city":"Hampton","hometown_state":"GA"},{"name":"Kaden Henderson","year":2027,"position":"LB","stars":null,"rating_247":94.0,"committed_to":null,"lat":28.6305,"lng":-82.4497,"hometown_city":"Tampa","hometown_state":"FL"},{"name":"Jhadyn Nelson","year":2027,"position":"LB","stars":null,"rating_247":94.0,"committed_to":"Texas Tech","lat":31.4757,"lng":-99.3312,"hometown_city":"Houston","hometown_state":"TX"},{"name":"Toa Satele","year":2027,"position":"LB","stars":null,"rating_247":93.0,"committed_to":"Oregon","lat":20.2927,"lng":-156.3737,"hometown_city":"Mililani","hometown_state":"HI"},{"name":"Taven Epps","year":2027,"position":"LB","stars":null,"rating_247":92.0,"committed_to":"Oklahoma","lat":37.1841,"lng":-119.4696,"hometown_city":"Tustin","hometown_state":"CA"},{"name":"Roman Igwebuike","year":2027,"position":"LB","stars":null,"rating_247":91.0,"committed_to":null,"lat":40.0417,"lng":-89.1965,"hometown_city":"Chicago","hometown_state":"IL"},{"name":"Quinton Cypher","year":2027,"position":"LB","stars":null,"rating_247":90.0,"committed_to":"Ohio State","lat":35.5557,"lng":-79.3877,"hometown_city":"Raleigh","hometown_state":"NC"},{"name":"Noah Glover","year":2027,"position":"LB","stars":null,"rating_247":90.0,"committed_to":"Miami","lat":37.5215,"lng":-78.8537,"hometown_city":"Haymarket","hometown_state":"VA"},{"name":"Ja'Bios Smith","year":2027,"position":"LB","stars":null,"rating_247":90.0,"committed_to":"Florida","lat":32.6415,"lng":-83.4426,"hometown_city":"Swainsboro","hometown_state":"GA"},{"name":"Kobe Rhymes","year":2027,"position":"LB","stars":null,"rating_247":90.0,"committed_to":"Missouri","lat":38.3566,"lng":-92.458,"hometown_city":"Kansas City","hometown_state":"MO"},{"name":"Cole Crawford","year":2027,"position":"LB","stars":null,"rating_247":88.0,"committed_to":null,"lat":32.6415,"lng":-83.4426,"hometown_city":"Cartersville","hometown_state":"GA"},{"name":"Antwoine Higgins","year":2027,"position":"LB","stars":null,"rating_247":88.0,"committed_to":"Kentucky","lat":40.2862,"lng":-82.7937,"hometown_city":"Cincinnati","hometown_state":"OH"},{"name":"Jalaythan Mayfield","year":2027,"position":"LB","stars":null,"rating_247":88.0,"committed_to":null,"lat":35.5557,"lng":-79.3877,"hometown_city":"Lincolnton","hometown_state":"NC"},{"name":"Isaiah Phelps","year":2027,"position":"LB","stars":null,"rating_247":88.0,"committed_to":"San Diego State","lat":37.1841,"lng":-119.4696,"hometown_city":"Oxnard","hometown_state":"CA"},{"name":"Ellis McGaskin","year":2027,"position":"LB","stars":null,"rating_247":88.0,"committed_to":"Florida","lat":32.7794,"lng":-86.8287,"hometown_city":"Mobile","hometown_state":"AL"},{"name":"Braylon Williams","year":2027,"position":"LB","stars":null,"rating_247":88.0,"committed_to":"SMU","lat":31.4757,"lng":-99.3312,"hometown_city":"Arlington","hometown_state":"TX"},{"name":"Isaiah Leilua","year":2027,"position":"LB","stars":null,"rating_247":88.0,"committed_to":"Washington","lat":37.1841,"lng":-119.4696,"hometown_city":"Anaheim","hometown_state":"CA"},{"name":"Jake Godfree","year":2027,"position":"LB","stars":null,"rating_247":87.0,"committed_to":"North Carolina State","lat":32.6415,"lng":-83.4426,"hometown_city":"Suwanee","hometown_state":"GA"},{"name":"Ethan Coach","year":2027,"position":"LB","stars":null,"rating_247":87.0,"committed_to":"Washington","lat":37.1841,"lng":-119.4696,"hometown_city":"Bellflower","hometown_state":"CA"},{"name":"Josiah Poyer","year":2027,"position":"LB","stars":null,"rating_247":87.0,"committed_to":"Southern California","lat":37.1841,"lng":-119.4696,"hometown_city":"Bellflower","hometown_state":"CA"},{"name":"Liufau Loumoli","year":2027,"position":"LB","stars":null,"rating_247":86.0,"committed_to":null,"lat":28.6305,"lng":-82.4497,"hometown_city":"Bradenton","hometown_state":"FL"},{"name":"John Meredith III","year":2027,"position":"CB","stars":null,"rating_247":98.0,"committed_to":null,"lat":31.4757,"lng":-99.3312,"hometown_city":"Fort Worth","hometown_state":"TX"},{"name":"Gabriel Osborne Jr.","year":2027,"position":"CB","stars":null,"rating_247":98.0,"committed_to":"Oklahoma","lat":35.5889,"lng":-97.4943,"hometown_city":"Mustang","hometown_state":"OK"},{"name":"Danny Lang","year":2027,"position":"CB","stars":null,"rating_247":95.0,"committed_to":"Southern California","lat":37.1841,"lng":-119.4696,"hometown_city":"Santa Ana","hometown_state":"CA"},{"name":"Raylaun Henry","year":2027,"position":"CB","stars":null,"rating_247":95.0,"committed_to":"Texas A&M","lat":39.055,"lng":-76.7909,"hometown_city":"Baltimore","hometown_state":"MD"},{"name":"Hayden Stepp","year":2027,"position":"CB","stars":null,"rating_247":94.0,"committed_to":null,"lat":39.3289,"lng":-116.6312,"hometown_city":"Las Vegas","hometown_state":"NV"},{"name":"Xavier Hasan","year":2027,"position":"CB","stars":null,"rating_247":94.0,"committed_to":"Notre Dame","lat":35.5557,"lng":-79.3877,"hometown_city":"Raleigh","hometown_state":"NC"},{"name":"Joshua Dobson","year":2027,"position":"CB","stars":null,"rating_247":94.0,"committed_to":null,"lat":35.5557,"lng":-79.3877,"hometown_city":"Cornelius","hometown_state":"NC"},{"name":"Aaryn Washington","year":2027,"position":"CB","stars":null,"rating_247":93.0,"committed_to":"Southern California","lat":28.6305,"lng":-82.4497,"hometown_city":"Bradenton","hometown_state":"FL"},{"name":"Ace Alston","year":2027,"position":"CB","stars":null,"rating_247":93.0,"committed_to":"Notre Dame","lat":40.2862,"lng":-82.7937,"hometown_city":"Cincinnati","hometown_state":"OH"},{"name":"Monsanna Torbert Jr.","year":2027,"position":"CB","stars":null,"rating_247":93.0,"committed_to":null,"lat":40.2862,"lng":-82.7937,"hometown_city":"Cincinnati","hometown_state":"OH"},{"name":"Zayden Gamble","year":2027,"position":"CB","stars":null,"rating_247":92.0,"committed_to":"Notre Dame","lat":28.6305,"lng":-82.4497,"hometown_city":"Fort Lauderdale","hometown_state":"FL"},{"name":"Censere Gaylord","year":2027,"position":"CB","stars":null,"rating_247":92.0,"committed_to":null,"lat":28.6305,"lng":-82.4497,"hometown_city":"Bradenton","hometown_state":"FL"},{"name":"Kei'Shjuan Telfair","year":2027,"position":"CB","stars":null,"rating_247":92.0,"committed_to":"Penn State","lat":40.2862,"lng":-82.7937,"hometown_city":"Euclid","hometown_state":"OH"},{"name":"Tavares Harrington","year":2027,"position":"CB","stars":null,"rating_247":90.0,"committed_to":"Michigan","lat":40.0417,"lng":-89.1965,"hometown_city":"Chicago","hometown_state":"IL"},{"name":"Ai'King Hall","year":2027,"position":"CB","stars":null,"rating_247":90.0,"committed_to":"Miami","lat":32.7794,"lng":-86.8287,"hometown_city":"Dothan","hometown_state":"AL"},{"name":"Taelyn Mayo","year":2027,"position":"CB","stars":null,"rating_247":90.0,"committed_to":"Mississippi","lat":31.4757,"lng":-99.3312,"hometown_city":"Lewisville","hometown_state":"TX"},{"name":"Josiah Molden","year":2027,"position":"CB","stars":null,"rating_247":90.0,"committed_to":"Oregon","lat":43.9336,"lng":-120.5583,"hometown_city":"West Linn","hometown_state":"OR"},{"name":"Bryce Williams","year":2027,"position":"CB","stars":null,"rating_247":90.0,"committed_to":"Nebraska","lat":28.6305,"lng":-82.4497,"hometown_city":"Fort Lauderdale","hometown_state":"FL"},{"name":"Duvay Williams","year":2027,"position":"CB","stars":null,"rating_247":90.0,"committed_to":"California","lat":37.1841,"lng":-119.4696,"hometown_city":"Inglewood","hometown_state":"CA"},{"name":"Junior Tu'upo","year":2027,"position":"CB","stars":null,"rating_247":89.0,"committed_to":null,"lat":32.7794,"lng":-86.8287,"hometown_city":"Alabaster","hometown_state":"AL"},{"name":"MJ Burnett","year":2027,"position":"CB","stars":null,"rating_247":89.0,"committed_to":"Georgia Tech","lat":32.6415,"lng":-83.4426,"hometown_city":"Marietta","hometown_state":"GA"},{"name":"Aamaury Fountain","year":2027,"position":"CB","stars":null,"rating_247":89.0,"committed_to":"Florida","lat":32.6415,"lng":-83.4426,"hometown_city":"Warner Robins","hometown_state":"GA"},{"name":"Bryce Woods","year":2027,"position":"CB","stars":null,"rating_247":88.0,"committed_to":"Virginia Tech","lat":32.6415,"lng":-83.4426,"hometown_city":"College Park","hometown_state":"GA"},{"name":"Jaden Carey","year":2027,"position":"CB","stars":null,"rating_247":88.0,"committed_to":null,"lat":28.6305,"lng":-82.4497,"hometown_city":"Fort Lauderdale","hometown_state":"FL"},{"name":"Larry Moon III","year":2027,"position":"CB","stars":null,"rating_247":88.0,"committed_to":null,"lat":28.6305,"lng":-82.4497,"hometown_city":"Bradenton","hometown_state":"FL"},{"name":"Mikyal Davis","year":2027,"position":"CB","stars":null,"rating_247":88.0,"committed_to":"Oklahoma","lat":34.2744,"lng":-111.6602,"hometown_city":"Goodyear","hometown_state":"AZ"},{"name":"Akedran Crumel","year":2027,"position":"CB","stars":null,"rating_247":88.0,"committed_to":null,"lat":35.5557,"lng":-79.3877,"hometown_city":"Clayton","hometown_state":"NC"},{"name":"Samari Howard","year":2027,"position":"CB","stars":null,"rating_247":87.0,"committed_to":"Colorado","lat":28.6305,"lng":-82.4497,"hometown_city":"Fort Lauderdale","hometown_state":"FL"},{"name":"Honor Fa'alave-Johnson","year":2027,"position":"S","stars":null,"rating_247":98.0,"committed_to":"Southern California","lat":37.1841,"lng":-119.4696,"hometown_city":"San Diego","hometown_state":"CA"},{"name":"JayQuan Snell","year":2027,"position":"S","stars":null,"rating_247":94.0,"committed_to":"Texas A&M","lat":31.4757,"lng":-99.3312,"hometown_city":"Waxahachie","hometown_state":"TX"},{"name":"Omarii Sanders","year":2027,"position":"S","stars":null,"rating_247":94.0,"committed_to":"Vanderbilt","lat":35.858,"lng":-86.3505,"hometown_city":"Nashville","hometown_state":"TN"},{"name":"Cooper Witten","year":2027,"position":"S","stars":null,"rating_247":94.0,"committed_to":"Oklahoma","lat":31.4757,"lng":-99.3312,"hometown_city":"Argyle","hometown_state":"TX"},{"name":"Semaj Stanford","year":2027,"position":"S","stars":null,"rating_247":94.0,"committed_to":"Oregon","lat":35.5889,"lng":-97.4943,"hometown_city":"Broken Arrow","hometown_state":"OK"},{"name":"Ta'Shawn Poole","year":2027,"position":"S","stars":null,"rating_247":93.0,"committed_to":null,"lat":32.6415,"lng":-83.4426,"hometown_city":"Macon","hometown_state":"GA"},{"name":"Karnell James","year":2027,"position":"S","stars":null,"rating_247":93.0,"committed_to":"Texas","lat":31.4757,"lng":-99.3312,"hometown_city":"Manvel","hometown_state":"TX"},{"name":"Gavin Williams","year":2027,"position":"S","stars":null,"rating_247":93.0,"committed_to":"Southern California","lat":37.1841,"lng":-119.4696,"hometown_city":"La Verne","hometown_state":"CA"},{"name":"Chance Gilbert","year":2027,"position":"S","stars":null,"rating_247":92.0,"committed_to":"Auburn","lat":32.6415,"lng":-83.4426,"hometown_city":"Sharpsburg","hometown_state":"GA"},{"name":"Davion Jones","year":2027,"position":"S","stars":null,"rating_247":91.0,"committed_to":null,"lat":35.5557,"lng":-79.3877,"hometown_city":"Cornelius","hometown_state":"NC"},{"name":"Pole Moala","year":2027,"position":"S","stars":null,"rating_247":90.0,"committed_to":"UCLA","lat":37.1841,"lng":-119.4696,"hometown_city":"Lawndale","hometown_state":"CA"},{"name":"Myles Baker","year":2027,"position":"S","stars":null,"rating_247":90.0,"committed_to":"California","lat":37.1841,"lng":-119.4696,"hometown_city":"Chatsworth","hometown_state":"CA"},{"name":"Kenaz Sullivan","year":2027,"position":"S","stars":null,"rating_247":90.0,"committed_to":null,"lat":37.5215,"lng":-78.8537,"hometown_city":"Springfield","hometown_state":"VA"},{"name":"Jayden Aparicio-Bailey","year":2027,"position":"S","stars":null,"rating_247":90.0,"committed_to":null,"lat":32.7794,"lng":-86.8287,"hometown_city":"Prattville","hometown_state":"AL"},{"name":"Karon Eugene","year":2027,"position":"S","stars":null,"rating_247":90.0,"committed_to":null,"lat":31.0689,"lng":-91.9968,"hometown_city":"New Iberia","hometown_state":"LA"},{"name":"Seth Williams","year":2027,"position":"S","stars":null,"rating_247":90.0,"committed_to":null,"lat":32.6415,"lng":-83.4426,"hometown_city":"Atlanta","hometown_state":"GA"},{"name":"Kaleb Elkins","year":2027,"position":"S","stars":null,"rating_247":90.0,"committed_to":"Purdue","lat":39.8942,"lng":-86.2816,"hometown_city":"Indianapolis","hometown_state":"IN"},{"name":"Adryan Cole","year":2027,"position":"S","stars":null,"rating_247":90.0,"committed_to":null,"lat":32.6415,"lng":-83.4426,"hometown_city":"Douglasville","hometown_state":"GA"},{"name":"Malakai Taufoou","year":2027,"position":"S","stars":null,"rating_247":89.0,"committed_to":"Oregon","lat":37.1841,"lng":-119.4696,"hometown_city":"San Mateo","hometown_state":"CA"},{"name":"Marcus Jones","year":2027,"position":"S","stars":null,"rating_247":89.0,"committed_to":null,"lat":40.8781,"lng":-77.7996,"hometown_city":"Haverford","hometown_state":"PA"},{"name":"Eli Johnson","year":2027,"position":"S","stars":null,"rating_247":88.0,"committed_to":"Ohio State","lat":31.4757,"lng":-99.3312,"hometown_city":"Cibolo","hometown_state":"TX"},{"name":"Khalil Terry","year":2027,"position":"S","stars":null,"rating_247":88.0,"committed_to":"UCLA","lat":37.1841,"lng":-119.4696,"hometown_city":"Tustin","hometown_state":"CA"},{"name":"Marquis Bryant","year":2027,"position":"S","stars":null,"rating_247":88.0,"committed_to":"Kentucky","lat":35.5557,"lng":-79.3877,"hometown_city":"Rolesville","hometown_state":"NC"},{"name":"Angelo Smith","year":2027,"position":"S","stars":null,"rating_247":88.0,"committed_to":"Ohio State","lat":28.6305,"lng":-82.4497,"hometown_city":"Hollywood","hometown_state":"FL"},{"name":"Isala Aisa Wily-Ava","year":2027,"position":"S","stars":null,"rating_247":88.0,"committed_to":"Washington","lat":37.1841,"lng":-119.4696,"hometown_city":"Bellflower","hometown_state":"CA"},{"name":"Errol Kerns III","year":2027,"position":"S","stars":null,"rating_247":88.0,"committed_to":"Texas A&M","lat":39.8942,"lng":-86.2816,"hometown_city":"Indianapolis","hometown_state":"IN"},{"name":"Emmanuel Moses","year":2027,"position":"S","stars":null,"rating_247":86.0,"committed_to":null,"lat":31.0689,"lng":-91.9968,"hometown_city":"Baton Rouge","hometown_state":"LA"},{"name":"Bryson Brown","year":2027,"position":"S","stars":null,"rating_247":84.0,"committed_to":"Oklahoma State","lat":35.5889,"lng":-97.4943,"hometown_city":"Broken Arrow","hometown_state":"OK"},{"name":"Jamier Brown","year":2027,"position":"ATH","stars":null,"rating_247":98.0,"committed_to":"Ohio State","lat":40.2862,"lng":-82.7937,"hometown_city":"Sunbury","hometown_state":"OH"},{"name":"Aroson Randle Jr.","year":2027,"position":"ATH","stars":null,"rating_247":94.0,"committed_to":"Miami","lat":35.5557,"lng":-79.3877,"hometown_city":"Garner","hometown_state":"NC"},{"name":"Tae Walden Jr.","year":2027,"position":"ATH","stars":null,"rating_247":94.0,"committed_to":null,"lat":35.858,"lng":-86.3505,"hometown_city":"Collierville","hometown_state":"TN"},{"name":"Myson Johnson-Cook","year":2027,"position":"ATH","stars":null,"rating_247":94.0,"committed_to":"Auburn","lat":40.0417,"lng":-89.1965,"hometown_city":"East St. Louis","hometown_state":"IL"},{"name":"Xavier Sabb","year":2027,"position":"ATH","stars":null,"rating_247":94.0,"committed_to":null,"lat":40.1907,"lng":-74.6728,"hometown_city":"Glassboro","hometown_state":"NJ"},{"name":"Brayton Feister","year":2027,"position":"ATH","stars":null,"rating_247":91.0,"committed_to":null,"lat":40.2862,"lng":-82.7937,"hometown_city":"Massillon","hometown_state":"OH"},{"name":"Corey Hadley Jr.","year":2027,"position":"ATH","stars":null,"rating_247":90.0,"committed_to":"Nebraska","lat":32.6415,"lng":-83.4426,"hometown_city":"Tyrone","hometown_state":"GA"},{"name":"Demarcus Deroche","year":2027,"position":"ATH","stars":null,"rating_247":90.0,"committed_to":"Miami","lat":28.6305,"lng":-82.4497,"hometown_city":"Fort Lauderdale","hometown_state":"FL"},{"name":"Deontay Malone","year":2027,"position":"ATH","stars":null,"rating_247":89.0,"committed_to":null,"lat":40.2862,"lng":-82.7937,"hometown_city":"Massillon","hometown_state":"OH"},{"name":"Colt Lumpris","year":2027,"position":"ATH","stars":null,"rating_247":89.0,"committed_to":"Michigan","lat":40.1907,"lng":-74.6728,"hometown_city":"Lawrenceville","hometown_state":"NJ"},{"name":"Mason Oglesby","year":2027,"position":"ATH","stars":null,"rating_247":89.0,"committed_to":"Kansas","lat":39.8942,"lng":-86.2816,"hometown_city":"New Palestine","hometown_state":"IN"},{"name":"Brennen Lacey","year":2027,"position":"ATH","stars":null,"rating_247":88.0,"committed_to":"Louisiana State","lat":31.4757,"lng":-99.3312,"hometown_city":"Frisco","hometown_state":"TX"},{"name":"Caden Jones","year":2027,"position":"ATH","stars":null,"rating_247":88.0,"committed_to":null,"lat":37.1841,"lng":-119.4696,"hometown_city":"Irvine","hometown_state":"CA"},{"name":"Jonathan Galette","year":2027,"position":"ATH","stars":null,"rating_247":87.0,"committed_to":"Penn State","lat":40.1907,"lng":-74.6728,"hometown_city":"Montvale","hometown_state":"NJ"},{"name":"Caleb Cooper","year":2027,"position":"ATH","stars":null,"rating_247":87.0,"committed_to":"Penn State","lat":35.5557,"lng":-79.3877,"hometown_city":"Charlotte","hometown_state":"NC"},{"name":"Max Brown","year":2027,"position":"ATH","stars":null,"rating_247":86.0,"committed_to":"Clemson","lat":32.6415,"lng":-83.4426,"hometown_city":"Jefferson","hometown_state":"GA"},{"name":"Wesley Winn","year":2027,"position":"ATH","stars":null,"rating_247":85.0,"committed_to":null,"lat":28.6305,"lng":-82.4497,"hometown_city":"Boca Raton","hometown_state":"FL"}],"2028":[{"name":"Jayden Wade","year":2028,"position":"QB","stars":null,"rating_247":95.0,"committed_to":"Georgia","lat":28.6305,"lng":-82.4497,"hometown_city":"Bradenton","hometown_state":"FL"},{"name":"Christopher Vargas","year":2028,"position":"QB","stars":null,"rating_247":95.0,"committed_to":null,"lat":42.2596,"lng":-71.8083,"hometown_city":"Danvers","hometown_state":"MA"},{"name":"Donald Tabron II","year":2028,"position":"QB","stars":null,"rating_247":90.0,"committed_to":null,"lat":44.3467,"lng":-85.4102,"hometown_city":"Detroit","hometown_state":"MI"},{"name":"Neimann Lawrence","year":2028,"position":"QB","stars":null,"rating_247":90.0,"committed_to":null,"lat":28.6305,"lng":-82.4497,"hometown_city":"Plantation","hometown_state":"FL"},{"name":"Lukas Prock","year":2028,"position":"QB","stars":null,"rating_247":90.0,"committed_to":null,"lat":40.1907,"lng":-74.6728,"hometown_city":"Princeton","hometown_state":"NJ"},{"name":"Hunter Fujikawa","year":2028,"position":"QB","stars":null,"rating_247":90.0,"committed_to":null,"lat":20.2927,"lng":-156.3737,"hometown_city":"Mililani","hometown_state":"HI"},{"name":"Graham Simpson","year":2028,"position":"QB","stars":null,"rating_247":89.0,"committed_to":null,"lat":35.858,"lng":-86.3505,"hometown_city":"Martin","hometown_state":"TN"},{"name":"Trey Tagliaferri","year":2028,"position":"QB","stars":null,"rating_247":89.0,"committed_to":null,"lat":40.1907,"lng":-74.6728,"hometown_city":"Oradell","hometown_state":"NJ"},{"name":"Treyvone Towns Jr.","year":2028,"position":"QB","stars":null,"rating_247":86.0,"committed_to":null,"lat":37.1841,"lng":-119.4696,"hometown_city":"Rancho Cucamonga","hometown_state":"CA"},{"name":"Caiden Belton","year":2028,"position":"QB","stars":null,"rating_247":null,"committed_to":null,"lat":32.7364,"lng":-89.6678,"hometown_city":"Columbia","hometown_state":"MS"},{"name":"Ian Thomas","year":2028,"position":"RB","stars":null,"rating_247":90.0,"committed_to":null,"lat":31.4757,"lng":-99.3312,"hometown_city":"Tomball","hometown_state":"TX"},{"name":"Elijah Newman-Hall","year":2028,"position":"RB","stars":null,"rating_247":90.0,"committed_to":"Ohio State","lat":28.6305,"lng":-82.4497,"hometown_city":"Bradenton","hometown_state":"FL"},{"name":"Zaiden Jernigan","year":2028,"position":"RB","stars":null,"rating_247":90.0,"committed_to":null,"lat":32.7364,"lng":-89.6678,"hometown_city":"Louisville","hometown_state":"MS"},{"name":"Micah Rhodes","year":2028,"position":"RB","stars":null,"rating_247":90.0,"committed_to":null,"lat":31.4757,"lng":-99.3312,"hometown_city":"Spring","hometown_state":"TX"},{"name":"Tahmere Brown","year":2028,"position":"RB","stars":null,"rating_247":90.0,"committed_to":null,"lat":40.1907,"lng":-74.6728,"hometown_city":"Pennington","hometown_state":"NJ"},{"name":"Zachary Belyeu","year":2028,"position":"RB","stars":null,"rating_247":88.0,"committed_to":null,"lat":32.6415,"lng":-83.4426,"hometown_city":"Kennesaw","hometown_state":"GA"},{"name":"Anthony Howard Jr.","year":2028,"position":"RB","stars":null,"rating_247":87.0,"committed_to":null,"lat":28.6305,"lng":-82.4497,"hometown_city":"Auburndale","hometown_state":"FL"},{"name":"Caiden Bellard","year":2028,"position":"RB","stars":null,"rating_247":null,"committed_to":null,"lat":31.0689,"lng":-91.9968,"hometown_city":"Lafayette","hometown_state":"LA"},{"name":"Brysen Wright","year":2028,"position":"WR","stars":null,"rating_247":95.0,"committed_to":null,"lat":28.6305,"lng":-82.4497,"hometown_city":"Jacksonville","hometown_state":"FL"},{"name":"Jaylen Addai","year":2028,"position":"WR","stars":null,"rating_247":93.0,"committed_to":null,"lat":31.4757,"lng":-99.3312,"hometown_city":"Pearland","hometown_state":"TX"},{"name":"Jett Harrison","year":2028,"position":"WR","stars":null,"rating_247":92.0,"committed_to":null,"lat":40.8781,"lng":-77.7996,"hometown_city":"Philadelphia","hometown_state":"PA"},{"name":"Deandre Bidden","year":2028,"position":"WR","stars":null,"rating_247":92.0,"committed_to":null,"lat":44.3467,"lng":-85.4102,"hometown_city":"Harper Woods","hometown_state":"MI"},{"name":"Braylon Clark","year":2028,"position":"WR","stars":null,"rating_247":91.0,"committed_to":null,"lat":35.5557,"lng":-79.3877,"hometown_city":"Charlotte","hometown_state":"NC"},{"name":"Tyree Mannings Jr.","year":2028,"position":"WR","stars":null,"rating_247":90.0,"committed_to":null,"lat":28.6305,"lng":-82.4497,"hometown_city":"Venice","hometown_state":"FL"},{"name":"Brandon Jefferson","year":2028,"position":"WR","stars":null,"rating_247":90.0,"committed_to":null,"lat":39.055,"lng":-76.7909,"hometown_city":"Baltimore","hometown_state":"MD"},{"name":"Damarion Mays","year":2028,"position":"WR","stars":null,"rating_247":90.0,"committed_to":null,"lat":31.4757,"lng":-99.3312,"hometown_city":"Fort Worth","hometown_state":"TX"},