{"2026":[{"name":"Keisean Henderson","year":2026,"position":"QB","stars":5,"rating_247":100.0,"committed_to":"Houston","lat":30.0798826,"lng":-95.4172549,"hometown_city":"Spring","hometown_state":"TX"},{"name":"Jared Curtis","year":2026,"position":"QB","stars":5,"rating_247":99.0,"committed_to":"Vanderbilt","lat":36.1622296,"lng":-86.7743531,"hometown_city":"Nashville","hometown_state":"TN"},{"name":"Faizon Brandon","year":2026,"position":"QB","stars":5,"rating_247":99.0,"committed_to":"Tennessee","lat":36.0726355,"lng":-79.7919754,"hometown_city":"Greensboro","hometown_state":"NC"},{"name":"Dia Bell","year":2026,"position":"QB","stars":5,"rating_247":97.0,"committed_to":"Texas","lat":26.1223084,"lng":-80.1433786,"hometown_city":"Fort Lauderdale","hometown_state":"FL"},{"name":"Ryder Lyons","year":2026,"position":"QB","stars":4,"rating_247":96.0,"committed_to":"BYU","lat":38.6779591,"lng":-121.1760583,"hometown_city":"Folsom","hometown_state":"CA"},{"name":"Jonas Williams","year":2026,"position":"QB","stars":4,"rating_247":95.0,"committed_to":"Southern California","lat":41.4958665,"lng":-87.8486613,"hometown_city":"Frankfort","hometown_state":"IL"},{"name":"Legend Bey","year":2026,"position":"QB","stars":4,"rating_247":93.0,"committed_to":"Ohio State","lat":32.747893,"lng":-96.4719289,"hometown_city":"Forney","hometown_state":"TX"},{"name":"Landon Duckworth","year":2026,"position":"QB","stars":4,"rating_247":93.0,"committed_to":"South Carolina","lat":31.5090521,"lng":-87.8944435,"hometown_city":"Jackson","hometown_state":"AL"},{"name":"Bryson Beaver","year":2026,"position":"QB","stars":4,"rating_247":91.0,"committed_to":"Oregon","lat":33.577752399999994,"lng":-117.18845420205307,"hometown_city":"Murrieta","hometown_state":"CA"},{"name":"Will Griffin","year":2026,"position":"QB","stars":4,"rating_247":90.0,"committed_to":"Florida","lat":27.9477595,"lng":-82.458444,"hometown_city":"Tampa","hometown_state":"FL"},{"name":"Helaman Casuga","year":2026,"position":"QB","stars":4,"rating_247":90.0,"committed_to":"Texas A&M","lat":40.5246711,"lng":-111.8638226,"hometown_city":"Draper","hometown_state":"UT"},{"name":"Matt Ponatoski","year":2026,"position":"QB","stars":4,"rating_247":89.0,"committed_to":"Kentucky","lat":39.1014537,"lng":-84.5124602,"hometown_city":"Cincinnati","hometown_state":"OH"},{"name":"Troy Huhn","year":2026,"position":"QB","stars":4,"rating_247":89.0,"committed_to":"Virginia Tech","lat":33.1433723,"lng":-117.1661449,"hometown_city":"San Marcos","hometown_state":"CA"},{"name":"Tait Reynolds","year":2026,"position":"QB","stars":3,"rating_247":88.0,"committed_to":"Clemson","lat":33.2483858,"lng":-111.6341585,"hometown_city":"Queen Creek","hometown_state":"AZ"},{"name":"Brady Smigiel","year":2026,"position":"QB","stars":4,"rating_247":88.0,"committed_to":"Michigan","lat":34.183671,"lng":-118.9118302,"hometown_city":"Newbury Park","hometown_state":"CA"},{"name":"Luke Fahey","year":2026,"position":"QB","stars":4,"rating_247":88.0,"committed_to":"Ohio State","lat":33.5965685,"lng":-117.659405,"hometown_city":"Mission Viejo","hometown_state":"CA"},{"name":"Jackson Taylor","year":2026,"position":"QB","stars":3,"rating_247":87.0,"committed_to":"Boise State","lat":34.1460234,"lng":-118.8061794,"hometown_city":"Westlake Village","hometown_state":"CA"},{"name":"Jaden O'Neal","year":2026,"position":"QB","stars":4,"rating_247":87.0,"committed_to":"Florida State","lat":35.384227,"lng":-97.7244813,"hometown_city":"Mustang","hometown_state":"OK"},{"name":"Deagan Rose","year":2026,"position":"QB","stars":3,"rating_247":87.0,"committed_to":"Fresno State","lat":36.8252277,"lng":-119.7029194,"hometown_city":"Clovis","hometown_state":"CA"},{"name":"Brodie McWhorter","year":2026,"position":"QB","stars":null,"rating_247":86.0,"committed_to":"Mississippi State","lat":32.6415,"lng":-83.4426,"hometown_city":"White","hometown_state":"GA"},{"name":"Tayden-Evan Kaawa","year":2026,"position":"QB","stars":null,"rating_247":86.0,"committed_to":"Alabama","lat":39.321,"lng":-111.0937,"hometown_city":"Orem","hometown_state":"UT"},{"name":"EJ Crowell","year":2026,"position":"RB","stars":null,"rating_247":98.0,"committed_to":"Alabama","lat":32.7794,"lng":-86.8287,"hometown_city":"Jackson","hometown_state":"AL"},{"name":"Savion Hiter","year":2026,"position":"RB","stars":5,"rating_247":98.0,"committed_to":"Michigan","lat":38.010695,"lng":-77.9086068,"hometown_city":"Mineral","hometown_state":"VA"},{"name":"KJ Edwards","year":2026,"position":"RB","stars":4,"rating_247":97.0,"committed_to":"Texas A&M","lat":32.1570412,"lng":-94.338114,"hometown_city":"Carthage","hometown_state":"TX"},{"name":"Davian Groce","year":2026,"position":"RB","stars":4,"rating_247":96.0,"committed_to":"Florida","lat":33.1506744,"lng":-96.8236116,"hometown_city":"Frisco","hometown_state":"TX"},{"name":"Tradarian Ball","year":2026,"position":"RB","stars":4,"rating_247":96.0,"committed_to":"Oregon","lat":33.44628645,"lng":-94.07638067493534,"hometown_city":"Texarkana","hometown_state":"TX"},{"name":"Deshonne Redeaux","year":2026,"position":"RB","stars":4,"rating_247":95.0,"committed_to":"Southern California","lat":34.1460234,"lng":-118.8061794,"hometown_city":"Westlake Village","hometown_state":"CA"},{"name":"Jonathan Hatton Jr.","year":2026,"position":"RB","stars":4,"rating_247":95.0,"committed_to":"Oklahoma","lat":29.5707831,"lng":-98.2330927,"hometown_city":"Cibolo","hometown_state":"TX"},{"name":"Brian Bonner Jr.","year":2026,"position":"RB","stars":null,"rating_247":94.0,"committed_to":"Washington","lat":37.1841,"lng":-119.4696,"hometown_city":"Valencia","hometown_state":"CA"},{"name":"Jonaz Walton","year":2026,"position":"RB","stars":4,"rating_247":93.0,"committed_to":"Notre Dame","lat":33.5801103,"lng":-85.0766113,"hometown_city":"Carrollton","hometown_state":"GA"},{"name":"Javian Osborne","year":2026,"position":"RB","stars":4,"rating_247":92.0,"committed_to":"Notre Dame","lat":32.747893,"lng":-96.4719289,"hometown_city":"Forney","hometown_state":"TX"},{"name":"Brandon Smith","year":2026,"position":"RB","stars":4,"rating_247":90.0,"committed_to":"Oregon","lat":36.7295295,"lng":-119.70886126075588,"hometown_city":"Fresno","hometown_state":"CA"},{"name":"TJ Hodges","year":2026,"position":"RB","stars":null,"rating_247":90.0,"committed_to":"Arkansas","lat":34.8938,"lng":-92.4426,"hometown_city":"Bryant","hometown_state":"AR"},{"name":"Amari Latimer","year":2026,"position":"RB","stars":4,"rating_247":90.0,"committed_to":"West Virginia","lat":33.4713249,"lng":-84.5972005,"hometown_city":"Tyrone","hometown_state":"GA"},{"name":"Cardae Mack","year":2026,"position":"RB","stars":4,"rating_247":90.0,"committed_to":"Arizona State","lat":29.9988312,"lng":-95.2621553,"hometown_city":"Humble","hometown_state":"TX"},{"name":"DeZephen Walker","year":2026,"position":"RB","stars":4,"rating_247":89.0,"committed_to":"Oklahoma","lat":38.7145481,"lng":-94.4611204,"hometown_city":"Peculiar","hometown_state":"MO"},{"name":"KD Jones","year":2026,"position":"RB","stars":3,"rating_247":89.0,"committed_to":"Oklahoma State","lat":36.0228734,"lng":-95.9683278,"hometown_city":"Jenks","hometown_state":"OK"},{"name":"Victor Santino","year":2026,"position":"RB","stars":4,"rating_247":89.0,"committed_to":"California","lat":25.7742658,"lng":-80.1936589,"hometown_city":"Miami","hometown_state":"FL"},{"name":"LaMarcus Bell","year":2026,"position":"RB","stars":3,"rating_247":89.0,"committed_to":"Utah","lat":45.4206749,"lng":-122.6706498,"hometown_city":"Lake Oswego","hometown_state":"OR"},{"name":"Javian Mallory","year":2026,"position":"RB","stars":4,"rating_247":88.0,"committed_to":"Miami","lat":26.3586885,"lng":-80.0830984,"hometown_city":"Boca Raton","hometown_state":"FL"},{"name":"Ja'Michael Jones","year":2026,"position":"RB","stars":3,"rating_247":88.0,"committed_to":"Mississippi","lat":32.3669656,"lng":-86.3006485,"hometown_city":"Montgomery","hometown_state":"AL"},{"name":"Jaeden Hill","year":2026,"position":"RB","stars":3,"rating_247":87.0,"committed_to":"Mississippi State","lat":34.2576067,"lng":-88.7033859,"hometown_city":"Tupelo","hometown_state":"MS"},{"name":"Dionne Sims","year":2026,"position":"RB","stars":3,"rating_247":85.0,"committed_to":"Rice","lat":29.7589382,"lng":-95.3676974,"hometown_city":"Houston","hometown_state":"TX"},{"name":"Sy'eer Coleman","year":2026,"position":"RB","stars":3,"rating_247":84.0,"committed_to":"Albany","lat":39.9527237,"lng":-75.1635262,"hometown_city":"Philadelphia","hometown_state":"PA"},{"name":"Quinnterion Hollins","year":2026,"position":"RB","stars":3,"rating_247":84.0,"committed_to":null,"lat":35.1490215,"lng":-90.0516285,"hometown_city":"Memphis","hometown_state":"TN"},{"name":"Tarvail Mathis","year":2026,"position":"RB","stars":null,"rating_247":null,"committed_to":null,"lat":28.6305,"lng":-82.4497,"hometown_city":"Miami","hometown_state":"FL"},{"name":"Taariq Denson","year":2026,"position":"RB","stars":null,"rating_247":null,"committed_to":null,"lat":39.055,"lng":-76.7909,"hometown_city":"Upper Marlboro","hometown_state":"MD"},{"name":"TK Keys","year":2026,"position":"WR","stars":null,"rating_247":98.0,"committed_to":"Tennessee","lat":32.7364,"lng":-89.6678,"hometown_city":"Hattiesburg","hometown_state":"MS"},{"name":"Chris Henry Jr.","year":2026,"position":"WR","stars":5,"rating_247":98.0,"committed_to":"Ohio State","lat":33.7494951,"lng":-117.8732213,"hometown_city":"Santa Ana","hometown_state":"CA"},{"name":"Calvin Russell III","year":2026,"position":"WR","stars":null,"rating_247":98.0,"committed_to":"Syracuse","lat":28.6305,"lng":-82.4497,"hometown_city":"Miami","hometown_state":"FL"},{"name":"Jalen Lott","year":2026,"position":"WR","stars":5,"rating_247":97.0,"committed_to":"Oregon","lat":33.1506744,"lng":-96.8236116,"hometown_city":"Frisco","hometown_state":"TX"},{"name":"Cederian Morgan","year":2026,"position":"WR","stars":4,"rating_247":97.0,"committed_to":"Alabama","lat":32.944012,"lng":-85.9538532,"hometown_city":"Alexander City","hometown_state":"AL"},{"name":"Kayden Dixon-Wyatt","year":2026,"position":"WR","stars":4,"rating_247":97.0,"committed_to":"Southern California","lat":33.7494951,"lng":-117.8732213,"hometown_city":"Santa Ana","hometown_state":"CA"},{"name":"Corey Barber Jr.","year":2026,"position":"WR","stars":null,"rating_247":96.0,"committed_to":"Louisiana State","lat":32.7794,"lng":-86.8287,"hometown_city":"Pinson","hometown_state":"AL"},{"name":"Ethan Feaster","year":2026,"position":"WR","stars":4,"rating_247":96.0,"committed_to":"Southern California","lat":32.6061241,"lng":-96.865612653687,"hometown_city":"DeSoto","hometown_state":"TX"},{"name":"Milan Parris","year":2026,"position":"WR","stars":4,"rating_247":96.0,"committed_to":"Miami","lat":41.1596261,"lng":-81.4406258,"hometown_city":"Stow","hometown_state":"OH"},{"name":"Jabari Mack","year":2026,"position":"WR","stars":4,"rating_247":91.0,"committed_to":"Louisiana State","lat":29.960933,"lng":-90.3705407077716,"hometown_city":"Destrehan","hometown_state":"LA"},{"name":"Zion Robinson","year":2026,"position":"WR","stars":4,"rating_247":91.0,"committed_to":"Stanford","lat":32.5631924,"lng":-97.1416768,"hometown_city":"Mansfield","hometown_state":"TX"},{"name":"Mason James","year":2026,"position":"WR","stars":4,"rating_247":91.0,"committed_to":"Washington","lat":35.2225717,"lng":-97.4394816,"hometown_city":"Norman","hometown_state":"OK"},{"name":"Messiah Hampton","year":2026,"position":"WR","stars":4,"rating_247":91.0,"committed_to":"Oregon","lat":43.157285,"lng":-77.615214,"hometown_city":"Rochester","hometown_state":"NY"},{"name":"Vance Spafford","year":2026,"position":"WR","stars":4,"rating_247":90.0,"committed_to":"Miami","lat":33.5965685,"lng":-117.659405,"hometown_city":"Mission Viejo","hometown_state":"CA"},{"name":"Brayden Robinson","year":2026,"position":"WR","stars":4,"rating_247":90.0,"committed_to":"Notre Dame","lat":32.5117104,"lng":-96.80836332870047,"hometown_city":"Red Oak","hometown_state":"TX"},{"name":"Daniel Odom","year":2026,"position":"WR","stars":4,"rating_247":90.0,"committed_to":"Oklahoma","lat":33.8825705,"lng":-118.1167679,"hometown_city":"Bellflower","hometown_state":"CA"},{"name":"Kennan Pula","year":2026,"position":"WR","stars":3,"rating_247":90.0,"committed_to":"BYU","lat":40.3768954,"lng":-111.7957645,"hometown_city":"American Fork","hometown_state":"UT"},{"name":"Devin Carter","year":2026,"position":"WR","stars":4,"rating_247":89.0,"committed_to":"Florida State","lat":33.7514966,"lng":-84.7477136,"hometown_city":"Douglasville","hometown_state":"GA"},{"name":"Cynai Thomas","year":2026,"position":"WR","stars":3,"rating_247":89.0,"committed_to":"Oregon State","lat":37.7790262,"lng":-122.4199061,"hometown_city":"San Francisco","hometown_state":"CA"},{"name":"Mike Brown","year":2026,"position":"WR","stars":3,"rating_247":88.0,"committed_to":"Texas A&M","lat":30.0798826,"lng":-95.4172549,"hometown_city":"Spring","hometown_state":"TX"},{"name":"Daylen Sharper","year":2026,"position":"WR","stars":3,"rating_247":88.0,"committed_to":"Stanford","lat":33.4484367,"lng":-112.0741417,"hometown_city":"Phoenix","hometown_state":"AZ"},{"name":"Brock Boyd","year":2026,"position":"WR","stars":3,"rating_247":87.0,"committed_to":"Ohio State","lat":32.9412363,"lng":-97.1341783,"hometown_city":"Southlake","hometown_state":"TX"},{"name":"Jayden Kitchens","year":2026,"position":"WR","stars":3,"rating_247":87.0,"committed_to":"Maryland","lat":38.7890522,"lng":-77.1870368,"hometown_city":"Springfield","hometown_state":"VA"},{"name":"Kentrell Davis","year":2026,"position":"WR","stars":3,"rating_247":87.0,"committed_to":"Georgia Tech","lat":33.5206824,"lng":-86.8024326,"hometown_city":"Birmingham","hometown_state":"AL"},{"name":"Hudson Lewis","year":2026,"position":"WR","stars":3,"rating_247":86.0,"committed_to":"Oregon","lat":43.6166163,"lng":-116.200886,"hometown_city":"Boise","hometown_state":"ID"},{"name":"Deion Thomas","year":2026,"position":"WR","stars":3,"rating_247":86.0,"committed_to":"Missouri State","lat":33.7490987,"lng":-84.3901849,"hometown_city":"Atlanta","hometown_state":"GA"},{"name":"Jabarie Thornton","year":2026,"position":"WR","stars":3,"rating_247":85.0,"committed_to":"Oklahoma State","lat":31.549333,"lng":-97.1466695,"hometown_city":"Waco","hometown_state":"TX"},{"name":"Jaylen Pile","year":2026,"position":"WR","stars":3,"rating_247":85.0,"committed_to":"Michigan","lat":32.7762719,"lng":-96.7968559,"hometown_city":"Dallas","hometown_state":"TX"},{"name":"Jaxon Toala","year":2026,"position":"WR","stars":3,"rating_247":85.0,"committed_to":"Weber State","lat":40.7596198,"lng":-111.8867975,"hometown_city":"Salt Lake City","hometown_state":"UT"},{"name":"Cameron Vasquez","year":2026,"position":"WR","stars":3,"rating_247":84.0,"committed_to":null,"lat":34.01979,"lng":-117.9503677,"hometown_city":"La Puente","hometown_state":"CA"},{"name":"Kamarie Smith","year":2026,"position":"WR","stars":3,"rating_247":83.0,"committed_to":null,"lat":33.7690164,"lng":-118.1916048,"hometown_city":"Long Beach","hometown_state":"CA"},{"name":"Jordan Nunuha","year":2026,"position":"WR","stars":3,"rating_247":82.0,"committed_to":"UCF","lat":21.304547,"lng":-157.8556764,"hometown_city":"Honolulu","hometown_state":"HI"},{"name":"Dominic Saidu","year":2026,"position":"WR","stars":null,"rating_247":null,"committed_to":null,"lat":31.4757,"lng":-99.3312,"hometown_city":"Kaufman","hometown_state":"TX"},{"name":"Ian Premer","year":2026,"position":"TE","stars":5,"rating_247":98.0,"committed_to":"Notre Dame","lat":38.3625063,"lng":-98.7804087,"hometown_city":"Great Bend","hometown_state":"KS"},{"name":"Mark Bowman","year":2026,"position":"TE","stars":5,"rating_247":97.0,"committed_to":"Southern California","lat":33.7494951,"lng":-117.8732213,"hometown_city":"Santa Ana","hometown_state":"CA"},{"name":"Kendre Harrison","year":2026,"position":"TE","stars":5,"rating_247":97.0,"committed_to":"Oregon","lat":36.3548586,"lng":-79.6644748,"hometown_city":"Reidsville","hometown_state":"NC"},{"name":"Brock Harris","year":2026,"position":"TE","stars":4,"rating_247":94.0,"committed_to":"BYU","lat":37.104153,"lng":-113.5841313,"hometown_city":"St. George","hometown_state":"UT"},{"name":"Matt Ludwig","year":2026,"position":"TE","stars":4,"rating_247":91.0,"committed_to":"Texas Tech","lat":45.7874957,"lng":-108.49607,"hometown_city":"Billings","hometown_state":"MT"},{"name":"JC Anderson","year":2026,"position":"TE","stars":null,"rating_247":91.0,"committed_to":"Louisiana State","lat":40.0417,"lng":-89.1965,"hometown_city":"Mt. Zion","hometown_state":"IL"},{"name":"Taimane Purcell","year":2026,"position":"TE","stars":3,"rating_247":90.0,"committed_to":"California","lat":21.304547,"lng":-157.8556764,"hometown_city":"Honolulu","hometown_state":"HI"},{"name":"Israel Briggs","year":2026,"position":"TE","stars":4,"rating_247":90.0,"committed_to":"Miami","lat":36.8252277,"lng":-119.7029194,"hometown_city":"Clovis","hometown_state":"CA"},{"name":"Luke Brewer","year":2026,"position":"TE","stars":4,"rating_247":89.0,"committed_to":"Iowa","lat":41.4755461,"lng":-93.6788304,"hometown_city":"Norwalk","hometown_state":"IA"},{"name":"Caleb Tafua","year":2026,"position":"TE","stars":4,"rating_247":88.0,"committed_to":"Texas A&M","lat":33.4151117,"lng":-111.8314773,"hometown_city":"Mesa","hometown_state":"AZ"},{"name":"Zack Turner","year":2026,"position":"TE","stars":null,"rating_247":88.0,"committed_to":"SMU","lat":31.4757,"lng":-99.3312,"hometown_city":"Duncanville","hometown_state":"TX"},{"name":"Damon Hall","year":2026,"position":"TE","stars":null,"rating_247":88.0,"committed_to":"Maryland","lat":39.055,"lng":-76.7909,"hometown_city":"Baltimore","hometown_state":"MD"},{"name":"Lincoln Watkins","year":2026,"position":"TE","stars":3,"rating_247":88.0,"committed_to":"Kentucky","lat":42.9815877,"lng":-82.440466,"hometown_city":"Port Huron","hometown_state":"MI"},{"name":"Aveon Williams","year":2026,"position":"TE","stars":3,"rating_247":87.0,"committed_to":"Nevada, Las Vegas","lat":32.8795022,"lng":-111.7573521,"hometown_city":"Casa Grande","hometown_state":"AZ"},{"name":"Ryder Mix","year":2026,"position":"TE","stars":3,"rating_247":87.0,"committed_to":"Oklahoma","lat":33.1506744,"lng":-96.8236116,"hometown_city":"Frisco","hometown_state":"TX"},{"name":"Jack Janda","year":2026,"position":"TE","stars":3,"rating_247":87.0,"committed_to":"Iowa","lat":42.5869558,"lng":-83.36895696372882,"hometown_city":"Orchard Lake","hometown_state":"MI"},{"name":"Landen Miree","year":2026,"position":"TE","stars":3,"rating_247":87.0,"committed_to":"Arizona State","lat":39.1014537,"lng":-84.5124602,"hometown_city":"Cincinnati","hometown_state":"OH"},{"name":"Carson Sneed","year":2026,"position":"TE","stars":3,"rating_247":86.0,"committed_to":"North Carolina","lat":36.1622296,"lng":-86.7743531,"hometown_city":"Nashville","hometown_state":"TN"},{"name":"Keenyi Pepe","year":2026,"position":"OT","stars":4,"rating_247":99.0,"committed_to":"Southern California","lat":27.4989278,"lng":-82.5748194,"hometown_city":"Bradenton","hometown_state":"FL"},{"name":"Jackson Cantwell","year":2026,"position":"OT","stars":5,"rating_247":99.0,"committed_to":"Miami","lat":37.0439358,"lng":-93.3098534,"hometown_city":"Nixa","hometown_state":"MO"},{"name":"Felix Ojo","year":2026,"position":"OT","stars":5,"rating_247":98.0,"committed_to":"Texas Tech","lat":32.5631924,"lng":-97.1416768,"hometown_city":"Mansfield","hometown_state":"TX"},{"name":"Kodi Greene","year":2026,"position":"OT","stars":5,"rating_247":98.0,"committed_to":"Washington","lat":33.7494951,"lng":-117.8732213,"hometown_city":"Santa Ana","hometown_state":"CA"},{"name":"Sam Greer","year":2026,"position":"OT","stars":4,"rating_247":97.0,"committed_to":"Ohio State","lat":41.083064,"lng":-81.518485,"hometown_city":"Akron","hometown_state":"OH"},{"name":"Kelvin Obot","year":2026,"position":"OT","stars":5,"rating_247":97.0,"committed_to":"Utah","lat":44.0076639,"lng":-116.9165461,"hometown_city":"Fruitland","hometown_state":"ID"},{"name":"Brysten Martinez","year":2026,"position":"OT","stars":4,"rating_247":95.0,"committed_to":"Louisiana State","lat":30.2385294,"lng":-90.9200987,"hometown_city":"Gonzales","hometown_state":"LA"},{"name":"Malakai Lee","year":2026,"position":"OT","stars":4,"rating_247":95.0,"committed_to":"Michigan","lat":21.304547,"lng":-157.8556764,"hometown_city":"Honolulu","hometown_state":"HI"},{"name":"Bryce Gilmore","year":2026,"position":"OT","stars":4,"rating_247":93.0,"committed_to":"Texas Tech","lat":33.2385763,"lng":-96.7866058,"hometown_city":"Prosper","hometown_state":"TX"},{"name":"Breck Kolojay","year":2026,"position":"OT","stars":4,"rating_247":93.0,"committed_to":"Southern California","lat":27.4989278,"lng":-82.5748194,"hometown_city":"Bradenton","hometown_state":"FL"},{"name":"John Turntine III","year":2026,"position":"OT","stars":4,"rating_247":93.0,"committed_to":"Texas","lat":32.753177,"lng":-97.3327459,"hometown_city":"Fort Worth","hometown_state":"TX"},{"name":"Grant Wise","year":2026,"position":"OT","stars":4,"rating_247":91.0,"committed_to":"Clemson","lat":30.6324149,"lng":-87.0396881,"hometown_city":"Milton","hometown_state":"FL"},{"name":"Zaden Krempin","year":2026,"position":"OT","stars":4,"rating_247":90.0,"committed_to":"Texas A&M","lat":33.2385763,"lng":-96.7866058,"hometown_city":"Prosper","hometown_state":"TX"},{"name":"Cortavious Tisaby","year":2026,"position":"OT","stars":3,"rating_247":90.0,"committed_to":"Arizona State","lat":32.7762719,"lng":-96.7968559,"hometown_city":"Dallas","hometown_state":"TX"},{"name":"Adam Guthrie","year":2026,"position":"OT","stars":4,"rating_247":89.0,"committed_to":"Clemson","lat":39.5364511,"lng":-83.4390843,"hometown_city":"Washington Court House","hometown_state":"OH"},{"name":"Graham Houston","year":2026,"position":"OT","stars":4,"rating_247":89.0,"committed_to":"Georgia","lat":34.1206564,"lng":-84.0043513,"hometown_city":"Buford","hometown_state":"GA"},{"name":"Sam Utu","year":2026,"position":"OT","stars":4,"rating_247":88.0,"committed_to":"SMU","lat":33.7872568,"lng":-117.8503088,"hometown_city":"Orange","hometown_state":"CA"},{"name":"Aaron Thomas","year":2026,"position":"OT","stars":3,"rating_247":88.0,"committed_to":"Minnesota","lat":33.4484367,"lng":-112.0741417,"hometown_city":"Phoenix","hometown_state":"AZ"},{"name":"Kannon Smith","year":2026,"position":"OT","stars":3,"rating_247":88.0,"committed_to":"Southern California","lat":39.613321,"lng":-105.0166498,"hometown_city":"Littleton","hometown_state":"CO"},{"name":"Dominic Harris","year":2026,"position":"OT","stars":3,"rating_247":88.0,"committed_to":"Washington","lat":36.1672559,"lng":-115.1485163,"hometown_city":"Las Vegas","hometown_state":"NV"},{"name":"Canon Pickett","year":2026,"position":"OT","stars":3,"rating_247":87.0,"committed_to":"Miami","lat":27.9477595,"lng":-82.458444,"hometown_city":"Tampa","hometown_state":"FL"},{"name":"Blaise Thomassie","year":2026,"position":"OT","stars":3,"rating_247":87.0,"committed_to":"Stanford","lat":30.4459596,"lng":-91.18738,"hometown_city":"Baton Rouge","hometown_state":"LA"},{"name":"Elisha Faamatuainu","year":2026,"position":"OT","stars":3,"rating_247":87.0,"committed_to":"California","lat":33.577752399999994,"lng":-117.18845420205307,"hometown_city":"Murrieta","hometown_state":"CA"},{"name":"Jesse Moody","year":2026,"position":"OT","stars":3,"rating_247":86.0,"committed_to":"Maryland","lat":39.9527237,"lng":-75.1635262,"hometown_city":"Philadelphia","hometown_state":"PA"},{"name":"Charles Humphrey","year":2026,"position":"OT","stars":3,"rating_247":86.0,"committed_to":"Southern","lat":35.9603948,"lng":-83.9210261,"hometown_city":"Knoxville","hometown_state":"TN"},{"name":"Hudson Reed","year":2026,"position":"OT","stars":3,"rating_247":85.0,"committed_to":"UAB","lat":33.5206824,"lng":-86.8024326,"hometown_city":"Birmingham","hometown_state":"AL"},{"name":"Lamar Brown","year":2026,"position":"IOL","stars":5,"rating_247":99.0,"committed_to":"Louisiana State","lat":30.4459596,"lng":-91.18738,"hometown_city":"Baton Rouge","hometown_state":"LA"},{"name":"Darius Gray","year":2026,"position":"IOL","stars":4,"rating_247":98.0,"committed_to":"South Carolina","lat":37.5385087,"lng":-77.43428,"hometown_city":"Richmond","hometown_state":"VA"},{"name":"Immanuel Iheanacho","year":2026,"position":"IOL","stars":5,"rating_247":98.0,"committed_to":"Oregon","lat":39.0461292,"lng":-77.1130097,"hometown_city":"North Bethesda","hometown_state":"MD"},{"name":"Tommy Tofi","year":2026,"position":"IOL","stars":4,"rating_247":97.0,"committed_to":"Oregon","lat":37.7790262,"lng":-122.4199061,"hometown_city":"San Francisco","hometown_state":"CA"},{"name":"Esun Tafa","year":2026,"position":"IOL","stars":4,"rating_247":94.0,"committed_to":"Southern California","lat":40.5246711,"lng":-111.8638226,"hometown_city":"Draper","hometown_state":"UT"},{"name":"Carter Scruggs","year":2026,"position":"IOL","stars":4,"rating_247":90.0,"committed_to":"Clemson","lat":39.1154496,"lng":-77.5645446,"hometown_city":"Leesburg","hometown_state":"VA"},{"name":"Sean Stover","year":2026,"position":"IOL","stars":4,"rating_247":90.0,"committed_to":"Duke","lat":33.2385763,"lng":-96.7866058,"hometown_city":"Prosper","hometown_state":"TX"},{"name":"Will Conroy","year":2026,"position":"IOL","stars":3,"rating_247":89.0,"committed_to":"North Carolina","lat":27.4989278,"lng":-82.5748194,"hometown_city":"Bradenton","hometown_state":"FL"},{"name":"Leo Delaney","year":2026,"position":"IOL","stars":4,"rating_247":89.0,"committed_to":"Clemson","lat":35.2272,"lng":-80.843083,"hometown_city":"Charlotte","hometown_state":"NC"},{"name":"Drew Evers","year":2026,"position":"IOL","stars":4,"rating_247":89.0,"committed_to":"SMU","lat":33.0283854,"lng":-97.0867203,"hometown_city":"Flower Mound","hometown_state":"TX"},{"name":"Jax Tanner","year":2026,"position":"IOL","stars":4,"rating_247":89.0,"committed_to":"BYU","lat":43.6086295,"lng":-116.392326,"hometown_city":"Meridian","hometown_state":"ID"},{"name":"Donel Robinson","year":2026,"position":"IOL","stars":4,"rating_247":89.0,"committed_to":"Baylor","lat":33.1131834,"lng":-90.0531408,"hometown_city":"Lexington","hometown_state":"MS"},{"name":"Da'Ron Parks","year":2026,"position":"IOL","stars":4,"rating_247":88.0,"committed_to":"North Carolina","lat":38.417919499999996,"lng":-81.84361448523134,"hometown_city":"Nitro","hometown_state":"WV"},{"name":"Kamo'i Huihui-White","year":2026,"position":"IOL","stars":3,"rating_247":88.0,"committed_to":"California","lat":21.304547,"lng":-157.8556764,"hometown_city":"Honolulu","hometown_state":"HI"},{"name":"Koloi Keli","year":2026,"position":"IOL","stars":3,"rating_247":87.0,"committed_to":"Oregon","lat":21.304547,"lng":-157.8556764,"hometown_city":"Honolulu","hometown_state":"HI"},{"name":"Desmond Green","year":2026,"position":"IOL","stars":3,"rating_247":87.0,"committed_to":"Florida","lat":33.406361000000004,"lng":-79.92930142942461,"hometown_city":"St. Stephen","hometown_state":"SC"},{"name":"Jalan Chapman","year":2026,"position":"IOL","stars":3,"rating_247":87.0,"committed_to":"Mississippi","lat":29.9499323,"lng":-90.0701156,"hometown_city":"New Orleans","hometown_state":"LA"},{"name":"Jerald Mays","year":2026,"position":"IOL","stars":3,"rating_247":87.0,"committed_to":"Texas Tech","lat":30.4393696,"lng":-97.6200043,"hometown_city":"Pflugerville","hometown_state":"TX"},{"name":"Toa Katoa","year":2026,"position":"IOL","stars":null,"rating_247":86.0,"committed_to":"SMU","lat":31.4757,"lng":-99.3312,"hometown_city":"Euless","hometown_state":"TX"},{"name":"Langston Hogg","year":2026,"position":"IOL","stars":3,"rating_247":84.0,"committed_to":"Wake Forest","lat":34.1650972,"lng":-84.7999383,"hometown_city":"Cartersville","hometown_state":"GA"},{"name":"Niniva Nicholson","year":2026,"position":"IOL","stars":3,"rating_247":84.0,"committed_to":"Arizona State","lat":33.1958696,"lng":-117.3794834,"hometown_city":"Oceanside","hometown_state":"CA"},{"name":"Luke Wafle","year":2026,"position":"Edge","stars":4,"rating_247":99.0,"committed_to":"Southern California","lat":40.3492744,"lng":-74.6592958,"hometown_city":"Princeton","hometown_state":"NJ"},{"name":"Rodney Dunham","year":2026,"position":"Edge","stars":5,"rating_247":98.0,"committed_to":"Notre Dame","lat":35.2272,"lng":-80.843083,"hometown_city":"Charlotte","hometown_state":"NC"},{"name":"Zion Elee","year":2026,"position":"Edge","stars":5,"rating_247":98.0,"committed_to":"Maryland","lat":39.2908816,"lng":-76.610759,"hometown_city":"Baltimore","hometown_state":"MD"},{"name":"Anthony Jones Jr.","year":2026,"position":"Edge","stars":null,"rating_247":98.0,"committed_to":"Oregon","lat":32.7794,"lng":-86.8287,"hometown_city":"Mobile","hometown_state":"AL"},{"name":"LaDamion Guyton","year":2026,"position":"Edge","stars":5,"rating_247":97.0,"committed_to":"Texas Tech","lat":32.0809263,"lng":-81.0911768,"hometown_city":"Savannah","hometown_state":"GA"},{"name":"Jake Kreul","year":2026,"position":"Edge","stars":4,"rating_247":96.0,"committed_to":"Oklahoma","lat":27.4989278,"lng":-82.5748194,"hometown_city":"Bradenton","hometown_state":"FL"},{"name":"Richard Wesley","year":2026,"position":"Edge","stars":5,"rating_247":95.0,"committed_to":"Texas","lat":34.2595715,"lng":-118.6023247,"hometown_city":"Chatsworth","hometown_state":"CA"},{"name":"Derek Colman-Brusa","year":2026,"position":"Edge","stars":4,"rating_247":94.0,"committed_to":"Washington","lat":47.469918,"lng":-122.3485274,"hometown_city":"Burien","hometown_state":"WA"},{"name":"Simote Katoanga","year":2026,"position":"Edge","stars":4,"rating_247":92.0,"committed_to":"Southern California","lat":33.6408845,"lng":-117.6029341,"hometown_city":"Rancho Santa Margarita","hometown_state":"CA"},{"name":"Colton Yarbrough","year":2026,"position":"Edge","stars":3,"rating_247":89.0,"committed_to":"Arkansas","lat":33.9958945,"lng":-96.3814259,"hometown_city":"Durant","hometown_state":"OK"},{"name":"Hezekiah Harris","year":2026,"position":"Edge","stars":4,"rating_247":89.0,"committed_to":"Tennessee","lat":34.729847,"lng":-86.5859011,"hometown_city":"Huntsville","hometown_state":"AL"},{"name":"Keenan Britt","year":2026,"position":"Edge","stars":3,"rating_247":89.0,"committed_to":"South Carolina","lat":33.5853695,"lng":-85.91428175037092,"hometown_city":"Oxford","hometown_state":"AL"},{"name":"Fameitau Siale","year":2026,"position":"Edge","stars":3,"rating_247":88.0,"committed_to":"Utah","lat":47.6038321,"lng":-122.3300624,"hometown_city":"Seattle","hometown_state":"WA"},{"name":"Ronelle Johnson","year":2026,"position":"Edge","stars":4,"rating_247":88.0,"committed_to":"Indiana","lat":39.017316,"lng":-94.282265,"hometown_city":"Blue Springs","hometown_state":"MO"},{"name":"Dutch Horisk","year":2026,"position":"Edge","stars":3,"rating_247":88.0,"committed_to":"Oregon","lat":33.8825705,"lng":-118.1167679,"hometown_city":"Bellflower","hometown_state":"CA"},{"name":"Ben Mubenga","year":2026,"position":"Edge","stars":3,"rating_247":86.0,"committed_to":"Arkansas","lat":34.1206564,"lng":-84.0043513,"hometown_city":"Buford","hometown_state":"GA"},{"name":"Bastian Vanden Bosch","year":2026,"position":"Edge","stars":3,"rating_247":84.0,"committed_to":null,"lat":33.4484367,"lng":-112.0741417,"hometown_city":"Phoenix","hometown_state":"AZ"},{"name":"Richard Anderson","year":2026,"position":"DL","stars":5,"rating_247":98.0,"committed_to":"Louisiana State","lat":29.9499323,"lng":-90.0701156,"hometown_city":"New Orleans","hometown_state":"LA"},{"name":"Deuce Geralds","year":2026,"position":"DL","stars":4,"rating_247":96.0,"committed_to":"Louisiana State","lat":34.0514898,"lng":-84.0712997,"hometown_city":"Suwanee","hometown_state":"GA"},{"name":"Titan Davis","year":2026,"position":"DL","stars":4,"rating_247":96.0,"committed_to":"Michigan","lat":38.6268039,"lng":-90.1994097,"hometown_city":"St. Louis","hometown_state":"MO"},{"name":"Bryce Perry-Wright","year":2026,"position":"DL","stars":4,"rating_247":96.0,"committed_to":"Texas A&M","lat":34.1206564,"lng":-84.0043513,"hometown_city":"Buford","hometown_state":"GA"},{"name":"Aiden Harris","year":2026,"position":"DL","stars":4,"rating_247":95.0,"committed_to":"South Carolina","lat":35.1170873,"lng":-80.723718,"hometown_city":"Matthews","hometown_state":"NC"},{"name":"Tomuhini Topui","year":2026,"position":"DL","stars":4,"rating_247":95.0,"committed_to":"Southern California","lat":33.7494951,"lng":-117.8732213,"hometown_city":"Santa Ana","hometown_state":"CA"},{"name":"Tony Cumberland","year":2026,"position":"DL","stars":4,"rating_247":95.0,"committed_to":"Oregon","lat":44.0505054,"lng":-123.0950506,"hometown_city":"Eugene","hometown_state":"OR"},{"name":"Dylan Berymon","year":2026,"position":"DL","stars":4,"rating_247":94.0,"committed_to":"Nebraska","lat":32.5093109,"lng":-92.1193012,"hometown_city":"Monroe","hometown_state":"LA"},{"name":"Danny Beale III","year":2026,"position":"DL","stars":null,"rating_247":94.0,"committed_to":"Arkansas","lat":34.8938,"lng":-92.4426,"hometown_city":"Cherry Valley","hometown_state":"AR"},{"name":"Bott Mulitalo","year":2026,"position":"DL","stars":4,"rating_247":94.0,"committed_to":"BYU","lat":40.3768954,"lng":-111.7957645,"hometown_city":"American Fork","hometown_state":"UT"},{"name":"Vodney Cleveland","year":2026,"position":"DL","stars":4,"rating_247":92.0,"committed_to":"North Carolina","lat":33.5206824,"lng":-86.8024326,"hometown_city":"Birmingham","hometown_state":"AL"},{"name":"Elijah Golden","year":2026,"position":"DL","stars":4,"rating_247":92.0,"committed_to":"Notre Dame","lat":27.3364347,"lng":-82.5306527,"hometown_city":"Sarasota","hometown_state":"FL"},{"name":"Anthony Jones","year":2026,"position":"DL","stars":3,"rating_247":91.0,"committed_to":"Oregon","lat":33.6856969,"lng":-117.8259819,"hometown_city":"Irvine","hometown_state":"CA"},{"name":"Prince Tavizon","year":2026,"position":"DL","stars":4,"rating_247":90.0,"committed_to":"Oregon","lat":32.7174209,"lng":-117.1627714,"hometown_city":"San Diego","hometown_state":"CA"},{"name":"Cameron Brickle II","year":2026,"position":"DL","stars":null,"rating_247":89.0,"committed_to":"Maryland","lat":28.6305,"lng":-82.4497,"hometown_city":"Bradenton","hometown_state":"FL"},{"name":"Jermaine Kinsler","year":2026,"position":"DL","stars":4,"rating_247":89.0,"committed_to":"Texas A&M","lat":40.9543943,"lng":-74.0308504,"hometown_city":"Oradell","hometown_state":"NJ"},{"name":"JaReylan McCoy","year":2026,"position":"DL","stars":4,"rating_247":89.0,"committed_to":"Florida","lat":34.2576067,"lng":-88.7033859,"hometown_city":"Tupelo","hometown_state":"MS"},{"name":"Tico Crittendon Jr.","year":2026,"position":"DL","stars":null,"rating_247":89.0,"committed_to":"Mississippi State","lat":32.6415,"lng":-83.4426,"hometown_city":"Lithonia","hometown_state":"GA"},{"name":"Preston Carey","year":2026,"position":"DL","stars":3,"rating_247":88.0,"committed_to":"Georgia","lat":27.4989278,"lng":-82.5748194,"hometown_city":"Bradenton","hometown_state":"FL"},{"name":"Nemyah Telona","year":2026,"position":"DL","stars":3,"rating_247":88.0,"committed_to":"California","lat":37.9768525,"lng":-122.0335624,"hometown_city":"Concord","hometown_state":"CA"},{"name":"Tiki Hola","year":2026,"position":"DL","stars":4,"rating_247":88.0,"committed_to":"Notre Dame","lat":30.1104947,"lng":-97.3152701,"hometown_city":"Bastrop","hometown_state":"TX"},{"name":"Viliami Moala","year":2026,"position":"DL","stars":3,"rating_247":88.0,"committed_to":"North Carolina","lat":33.2442813,"lng":-86.8163773,"hometown_city":"Alabaster","hometown_state":"AL"},{"name":"James Carrington","year":2026,"position":"DL","stars":3,"rating_247":87.0,"committed_to":"Oklahoma","lat":33.6856969,"lng":-117.8259819,"hometown_city":"Irvine","hometown_state":"CA"},{"name":"Joseph Peko","year":2026,"position":"DL","stars":3,"rating_247":87.0,"committed_to":"Washington","lat":34.1460234,"lng":-118.8061794,"hometown_city":"Westlake Village","hometown_state":"CA"},{"name":"Xavier Griffin","year":2026,"position":"LB","stars":5,"rating_247":98.0,"committed_to":"Alabama","lat":34.2978794,"lng":-83.8240663,"hometown_city":"Gainesville","hometown_state":"GA"},{"name":"Cincere Johnson","year":2026,"position":"LB","stars":4,"rating_247":98.0,"committed_to":"Ohio State","lat":41.5051613,"lng":-81.6934446,"hometown_city":"Cleveland","hometown_state":"OH"},{"name":"Tyler Atkinson","year":2026,"position":"LB","stars":5,"rating_247":97.0,"committed_to":"Texas","lat":33.8389977,"lng":-83.9007382,"hometown_city":"Loganville","hometown_state":"GA"},{"name":"Jaquez Wilkes","year":2026,"position":"LB","stars":4,"rating_247":96.0,"committed_to":"Auburn","lat":33.1215089,"lng":-85.5663432,"hometown_city":"Wadley","hometown_state":"AL"},{"name":"Talanoa Ili","year":2026,"position":"LB","stars":4,"rating_247":95.0,"committed_to":"Southern California","lat":21.679124,"lng":-157.94838,"hometown_city":"Kahuku","hometown_state":"HI"},{"name":"Jordan Campbell","year":2026,"position":"LB","stars":4,"rating_247":93.0,"committed_to":"Miami","lat":25.896733849999997,"lng":-80.25949640850294,"hometown_city":"Opa Locka","hometown_state":"FL"},{"name":"Qui Beck","year":2026,"position":"LB","stars":null,"rating_247":91.0,"committed_to":"Texas A&M","lat":31.4757,"lng":-99.3312,"hometown_city":"Carthage","hometown_state":"TX"},{"name":"Izayia Williams","year":2026,"position":"LB","stars":4,"rating_247":91.0,"committed_to":"Florida State","lat":28.78992535,"lng":-81.77516353978501,"hometown_city":"Tavares","hometown_state":"FL"},{"name":"Braylon Hodge","year":2026,"position":"LB","stars":4,"rating_247":91.0,"committed_to":"Oregon","lat":39.6482059,"lng":-104.9879641,"hometown_city":"Englewood","hometown_state":"CO"},{"name":"Tristan Phillips","year":2026,"position":"LB","stars":4,"rating_247":91.0,"committed_to":"Oregon","lat":34.3435092,"lng":-119.29560423163717,"hometown_city":"Ventura","hometown_state":"CA"},{"name":"Thomas Davis Jr.","year":2026,"position":"LB","stars":4,"rating_247":90.0,"committed_to":"Notre Dame","lat":35.1170873,"lng":-80.723718,"hometown_city":"Matthews","hometown_state":"NC"},{"name":"Nick Abrams II","year":2026,"position":"LB","stars":4,"rating_247":90.0,"committed_to":"Georgia","lat":39.4010753,"lng":-76.796299,"hometown_city":"Owings Mills","hometown_state":"MD"},{"name":"Shadarius Toodle","year":2026,"position":"LB","stars":4,"rating_247":90.0,"committed_to":"Auburn","lat":30.6943566,"lng":-88.0430541,"hometown_city":"Mobile","hometown_state":"AL"},{"name":"Malik Morris","year":2026,"position":"LB","stars":4,"rating_247":89.0,"committed_to":"Florida","lat":28.0394654,"lng":-81.9498042,"hometown_city":"Lakeland","hometown_state":"FL"},{"name":"Storm Miller","year":2026,"position":"LB","stars":4,"rating_247":89.0,"committed_to":"Texas A&M","lat":41.3144733,"lng":-81.83511,"hometown_city":"Strongsville","hometown_state":"OH"},{"name":"Ja'Kobe Clapper","year":2026,"position":"LB","stars":null,"rating_247":89.0,"committed_to":"Notre Dame","lat":40.2862,"lng":-82.7937,"hometown_city":"Cincinnati","hometown_state":"OH"},{"name":"Calvin Thomas","year":2026,"position":"LB","stars":4,"rating_247":89.0,"committed_to":"North Carolina","lat":29.9691116,"lng":-95.6971686,"hometown_city":"Cypress","hometown_state":"TX"},{"name":"Kenneth Goodwin III","year":2026,"position":"LB","stars":null,"rating_247":88.0,"committed_to":"SMU","lat":28.6305,"lng":-82.4497,"hometown_city":"Miami","hometown_state":"FL"},{"name":"Ant Davis","year":2026,"position":"LB","stars":null,"rating_247":88.0,"committed_to":"Mississippi","lat":32.6415,"lng":-83.4426,"hometown_city":"Loganville","hometown_state":"GA"},{"name":"Samu Moala","year":2026,"position":"LB","stars":4,"rating_247":88.0,"committed_to":"Texas A&M","lat":33.8885217,"lng":-118.3531991,"hometown_city":"Lawndale","hometown_state":"CA"},{"name":"Ja'Michael Garrett","year":2026,"position":"LB","stars":null,"rating_247":88.0,"committed_to":"Mississippi","lat":31.0689,"lng":-91.9968,"hometown_city":"Baton Rouge","hometown_state":"LA"},{"name":"Cameron Thomas","year":2026,"position":"LB","stars":null,"rating_247":88.0,"committed_to":"Illinois","lat":40.2862,"lng":-82.7937,"hometown_city":"West Chester","hometown_state":"OH"},{"name":"Hudson Dunn","year":2026,"position":"LB","stars":3,"rating_247":87.0,"committed_to":"Minnesota","lat":33.5806115,"lng":-112.2372942,"hometown_city":"Peoria","hometown_state":"AZ"},{"name":"Rodney Colton Jr.","year":2026,"position":"LB","stars":null,"rating_247":87.0,"committed_to":"Colorado","lat":32.6415,"lng":-83.4426,"hometown_city":"Newnan","hometown_state":"GA"},{"name":"Jakore Smith","year":2026,"position":"LB","stars":3,"rating_247":87.0,"committed_to":"Arkansas","lat":34.5959265,"lng":-92.4890469,"hometown_city":"Bryant","hometown_state":"AR"},{"name":"Beau Jandreau","year":2026,"position":"LB","stars":3,"rating_247":86.0,"committed_to":"Oklahoma","lat":33.3062223,"lng":-111.8413317,"hometown_city":"Chandler","hometown_state":"AZ"},{"name":"Jaylyn Colter","year":2026,"position":"LB","stars":3,"rating_247":86.0,"committed_to":"Western New Mexico","lat":33.4484367,"lng":-112.0741417,"hometown_city":"Phoenix","hometown_state":"AZ"},{"name":"Noriel Dominguez","year":2026,"position":"LB","stars":3,"rating_247":86.0,"committed_to":"Texas Christian","lat":29.5821811,"lng":-95.7607832,"hometown_city":"Richmond","hometown_state":"TX"},{"name":"CJ Sibley","year":2026,"position":"LB","stars":null,"rating_247":null,"committed_to":null,"lat":32.6415,"lng":-83.4426,"hometown_city":"Buford","hometown_state":"GA"},{"name":"Khary Adams","year":2026,"position":"CB","stars":5,"rating_247":97.0,"committed_to":"Notre Dame","lat":39.4018552,"lng":-76.602388,"hometown_city":"Towson","hometown_state":"MD"},{"name":"Chuck Kennon","year":2026,"position":"CB","stars":null,"rating_247":97.0,"committed_to":"Florida State","lat":28.6305,"lng":-82.4497,"hometown_city":"Sarasota","hometown_state":"FL"},{"name":"Zyan Gibson","year":2026,"position":"CB","stars":4,"rating_247":96.0,"committed_to":"Alabama","lat":34.010929,"lng":-85.9989596,"hometown_city":"Gadsden","hometown_state":"AL"},{"name":"J'Zavien Currence","year":2026,"position":"CB","stars":4,"rating_247":96.0,"committed_to":"South Carolina","lat":34.9248667,"lng":-81.0250784,"hometown_city":"Rock Hill","hometown_state":"SC"},{"name":"Elbert Hill IV","year":2026,"position":"CB","stars":null,"rating_247":95.0,"committed_to":"Southern California","lat":40.2862,"lng":-82.7937,"hometown_city":"Akron","hometown_state":"OH"},{"name":"JJ Dunnigan","year":2026,"position":"CB","stars":4,"rating_247":95.0,"committed_to":"Miami","lat":39.1836082,"lng":-96.5716694,"hometown_city":"Manhattan","hometown_state":"KS"},{"name":"Samari Matthews","year":2026,"position":"CB","stars":4,"rating_247":94.0,"committed_to":"Texas","lat":35.4817982,"lng":-80.8589501,"hometown_city":"Cornelius","hometown_state":"NC"},{"name":"Davon Benjamin","year":2026,"position":"CB","stars":4,"rating_247":94.0,"committed_to":"Oregon","lat":34.1460234,"lng":-118.8061794,"hometown_city":"Westlake Village","hometown_state":"CA"},{"name":"Jaelen Waters","year":2026,"position":"CB","stars":4,"rating_247":94.0,"committed_to":"Miami","lat":27.998541000000003,"lng":-82.27488400114905,"hometown_city":"Seffner","hometown_state":"FL"},{"name":"Camren Hamiel","year":2026,"position":"CB","stars":4,"rating_247":93.0,"committed_to":"Texas A&M","lat":33.4353672,"lng":-112.3576005,"hometown_city":"Goodyear","hometown_state":"AZ"},{"name":"Jordan Thomas","year":2026,"position":"CB","stars":4,"rating_247":93.0,"committed_to":"Ohio State","lat":40.9543943,"lng":-74.0308504,"hometown_city":"Oradell","hometown_state":"NJ"},{"name":"Rahsjon Duncan","year":2026,"position":"CB","stars":4,"rating_247":92.0,"committed_to":"Washington","lat":37.8044557,"lng":-122.2713563,"hometown_city":"Oakland","hometown_state":"CA"},{"name":"Justice Fitzpatrick","year":2026,"position":"CB","stars":4,"rating_247":92.0,"committed_to":"Georgia","lat":26.1223084,"lng":-80.1433786,"hometown_city":"Fort Lauderdale","hometown_state":"FL"},{"name":"Azel Banag","year":2026,"position":"CB","stars":3,"rating_247":92.0,"committed_to":"Oregon","lat":34.0007493,"lng":-81.0343313,"hometown_city":"Columbia","hometown_state":"SC"},{"name":"Havon Finney Jr.","year":2026,"position":"CB","stars":null,"rating_247":91.0,"committed_to":"Louisiana State","lat":37.1841,"lng":-119.4696,"hometown_city":"Chatsworth","hometown_state":"CA"},{"name":"Zech Fort","year":2026,"position":"CB","stars":4,"rating_247":91.0,"committed_to":"Georgia","lat":27.4989278,"lng":-82.5748194,"hometown_city":"Bradenton","hometown_state":"FL"},{"name":"Vic Singleton","year":2026,"position":"CB","stars":null,"rating_247":91.0,"committed_to":"Texas A&M","lat":40.2862,"lng":-82.7937,"hometown_city":"Toledo","hometown_state":"OH"},{"name":"Chaz Smith","year":2026,"position":"CB","stars":null,"rating_247":91.0,"committed_to":"Notre Dame","lat":35.858,"lng":-86.3505,"hometown_city":"Knoxville","hometown_state":"TN"},{"name":"Donovan Webb","year":2026,"position":"CB","stars":4,"rating_247":90.0,"committed_to":"Texas Tech","lat":33.1506744,"lng":-96.8236116,"hometown_city":"Frisco","hometown_state":"TX"},{"name":"Jeron Jones","year":2026,"position":"CB","stars":4,"rating_247":90.0,"committed_to":"Washington","lat":33.5965685,"lng":-117.659405,"hometown_city":"Mission Viejo","hometown_state":"CA"},{"name":"Dorian Barney","year":2026,"position":"CB","stars":4,"rating_247":90.0,"committed_to":"Mississippi","lat":33.5801103,"lng":-85.0766113,"hometown_city":"Carrollton","hometown_state":"GA"},{"name":"Brandon Lockhart","year":2026,"position":"CB","stars":4,"rating_247":89.0,"committed_to":"Southern California","lat":34.2595715,"lng":-118.6023247,"hometown_city":"Chatsworth","hometown_state":"CA"},{"name":"Sean Johnson","year":2026,"position":"CB","stars":3,"rating_247":89.0,"committed_to":"Maryland","lat":39.1278864,"lng":-76.6869128,"hometown_city":"Severn","hometown_state":"MD"},{"name":"Aisa Galea'i","year":2026,"position":"CB","stars":3,"rating_247":89.0,"committed_to":"Utah","lat":40.2971825,"lng":-111.694943,"hometown_city":"Orem","hometown_state":"UT"},{"name":"Nascar McCoy","year":2026,"position":"CB","stars":3,"rating_247":88.0,"committed_to":"Mississippi","lat":34.1206564,"lng":-84.0043513,"hometown_city":"Buford","hometown_state":"GA"},{"name":"Hakim Satterwhite","year":2026,"position":"CB","stars":3,"rating_247":88.0,"committed_to":"Maryland","lat":39.2908816,"lng":-76.610759,"hometown_city":"Baltimore","hometown_state":"MD"},{"name":"Deuce Gilbert","year":2026,"position":"CB","stars":null,"rating_247":88.0,"committed_to":"SMU","lat":31.4757,"lng":-99.3312,"hometown_city":"Forney","hometown_state":"TX"},{"name":"Isaiah Williams","year":2026,"position":"CB","stars":3,"rating_247":88.0,"committed_to":"Illinois","lat":38.6779591,"lng":-121.1760583,"hometown_city":"Folsom","hometown_state":"CA"},{"name":"Marcell Gipson Jr.","year":2026,"position":"CB","stars":null,"rating_247":87.0,"committed_to":"Clemson","lat":31.4757,"lng":-99.3312,"hometown_city":"Dallas","hometown_state":"TX"},{"name":"Andre Johnson","year":2026,"position":"CB","stars":3,"rating_247":86.0,"committed_to":"CSU-Pueblo","lat":34.1033192,"lng":-117.5751735,"hometown_city":"Rancho Cucamonga","hometown_state":"CA"},{"name":"LaRon Dues","year":2026,"position":"CB","stars":3,"rating_247":86.0,"committed_to":"James Madison","lat":27.3364347,"lng":-82.5306527,"hometown_city":"Sarasota","hometown_state":"FL"},{"name":"Brock King","year":2026,"position":"CB","stars":3,"rating_247":86.0,"committed_to":"Texas Christian","lat":29.8988618,"lng":-93.9288723,"hometown_city":"Port Arthur","hometown_state":"TX"},{"name":"Trevon Watson","year":2026,"position":"CB","stars":null,"rating_247":84.0,"committed_to":"Oregon","lat":37.1841,"lng":-119.4696,"hometown_city":"San Mateo","hometown_state":"CA"},{"name":"Jett Washington","year":2026,"position":"S","stars":4,"rating_247":98.0,"committed_to":"Oregon","lat":36.1672559,"lng":-115.1485163,"hometown_city":"Las Vegas","hometown_state":"NV"},{"name":"Jireh Edwards","year":2026,"position":"S","stars":5,"rating_247":97.0,"committed_to":"Alabama","lat":38.8165274,"lng":-76.7519753,"hometown_city":"Upper Marlboro","hometown_state":"MD"},{"name":"Bralan Womack","year":2026,"position":"S","stars":5,"rating_247":97.0,"committed_to":"Mississippi State","lat":32.3095903,"lng":-90.1389757,"hometown_city":"Flowood","hometown_state":"MS"},{"name":"Ayden Pouncey","year":2026,"position":"S","stars":4,"rating_247":96.0,"committed_to":"Notre Dame","lat":26.13784445,"lng":-81.75399813758739,"hometown_city":"Winter Park","hometown_state":"FL"},{"name":"Salesi Moa","year":2026,"position":"S","stars":4,"rating_247":95.0,"committed_to":"Utah","lat":41.2230048,"lng":-111.9738429,"hometown_city":"Ogden","hometown_state":"UT"},{"name":"Devin Jackson","year":2026,"position":"S","stars":4,"rating_247":95.0,"committed_to":"Oregon","lat":28.5421109,"lng":-81.3790304,"hometown_city":"Orlando","hometown_state":"FL"},{"name":"CJ Bronaugh","year":2026,"position":"S","stars":4,"rating_247":95.0,"committed_to":"Florida","lat":28.5656649,"lng":-81.5856742,"hometown_city":"Winter Garden","hometown_state":"FL"},{"name":"Blaine Bradford","year":2026,"position":"S","stars":4,"rating_247":94.0,"committed_to":"Ohio State","lat":30.4459596,"lng":-91.18738,"hometown_city":"Baton Rouge","hometown_state":"LA"},{"name":"Jakob Weatherspoon","year":2026,"position":"S","stars":4,"rating_247":93.0,"committed_to":"North Carolina","lat":41.4516512,"lng":-82.0350598,"hometown_city":"Avon","hometown_state":"OH"},{"name":"Aiden Hall","year":2026,"position":"S","stars":4,"rating_247":92.0,"committed_to":"Louisiana State","lat":29.9499323,"lng":-90.0701156,"hometown_city":"New Orleans","hometown_state":"LA"},{"name":"Darrell Carey","year":2026,"position":"S","stars":3,"rating_247":92.0,"committed_to":"Maryland","lat":38.9529442,"lng":-76.9408647,"hometown_city":"Hyattsville","hometown_state":"MD"},{"name":"Xavier Lherisse","year":2026,"position":"S","stars":4,"rating_247":91.0,"committed_to":"Oregon","lat":28.0836269,"lng":-80.6081089,"hometown_city":"Melbourne","hometown_state":"FL"},{"name":"Keenan Harris","year":2026,"position":"S","stars":3,"rating_247":89.0,"committed_to":"Missouri","lat":38.6268039,"lng":-90.1994097,"hometown_city":"St. Louis","hometown_state":"MO"},{"name":"Cortez Redding","year":2026,"position":"S","stars":4,"rating_247":88.0,"committed_to":"Miami","lat":33.5215013,"lng":-84.3538128,"hometown_city":"Jonesboro","hometown_state":"GA"},{"name":"Chace Calicut","year":2026,"position":"S","stars":4,"rating_247":88.0,"committed_to":"Georgia Southern","lat":29.7589382,"lng":-95.3676974,"hometown_city":"Houston","hometown_state":"TX"},{"name":"Markel Ford","year":2026,"position":"S","stars":3,"rating_247":88.0,"committed_to":"Oklahoma","lat":32.7666103,"lng":-96.599472,"hometown_city":"Mesquite","hometown_state":"TX"},{"name":"Jamarrion Gordon","year":2026,"position":"S","stars":3,"rating_247":88.0,"committed_to":"North Carolina","lat":31.5090521,"lng":-87.8944435,"hometown_city":"Jackson","hometown_state":"AL"},{"name":"Jamar Owens","year":2026,"position":"S","stars":3,"rating_247":87.0,"committed_to":"Indiana","lat":33.7514966,"lng":-84.7477136,"hometown_city":"Douglasville","hometown_state":"GA"},{"name":"Brandon Arrington","year":2026,"position":"ATH","stars":5,"rating_247":98.0,"committed_to":"Texas A&M","lat":32.7174209,"lng":-117.1627714,"hometown_city":"San Diego","hometown_state":"CA"},{"name":"Joey O'Brien","year":2026,"position":"ATH","stars":5,"rating_247":97.0,"committed_to":"Notre Dame","lat":40.1023326,"lng":-75.1521195,"hometown_city":"Glenside","hometown_state":"PA"},{"name":"Mack Sutter","year":2026,"position":"ATH","stars":4,"rating_247":96.0,"committed_to":"Alabama","lat":40.8616513,"lng":-89.6777665,"hometown_city":"Dunlap","hometown_state":"IL"},{"name":"Aaron Gregory","year":2026,"position":"ATH","stars":4,"rating_247":94.0,"committed_to":"Texas A&M","lat":33.7514966,"lng":-84.7477136,"hometown_city":"Douglasville","hometown_state":"GA"},{"name":"C.J. Sadler","year":2026,"position":"ATH","stars":null,"rating_247":93.0,"committed_to":"North Carolina","lat":44.3467,"lng":-85.4102,"hometown_city":"Detroit","hometown_state":"MI"},{"name":"Derrek Cooper","year":2026,"position":"ATH","stars":4,"rating_247":93.0,"committed_to":"Texas","lat":26.0112014,"lng":-80.1494901,"hometown_city":"Hollywood","hometown_state":"FL"},{"name":"Tyriq Green","year":2026,"position":"ATH","stars":4,"rating_247":93.0,"committed_to":"Georgia","lat":34.1206564,"lng":-84.0043513,"hometown_city":"Buford","hometown_state":"GA"},{"name":"Jaron Pula","year":2026,"position":"ATH","stars":4,"rating_247":91.0,"committed_to":"BYU","lat":40.3768954,"lng":-111.7957645,"hometown_city":"American Fork","hometown_state":"UT"},{"name":"Trent Mosley","year":2026,"position":"ATH","stars":4,"rating_247":91.0,"committed_to":"Southern California","lat":33.6408845,"lng":-117.6029341,"hometown_city":"Rancho Santa Margarita","hometown_state":"CA"},{"name":"Nas Rankin","year":2026,"position":"ATH","stars":null,"rating_247":91.0,"committed_to":"Illinois","lat":40.0417,"lng":-89.1965,"hometown_city":"Chicago","hometown_state":"IL"},{"name":"Ryelan Morris","year":2026,"position":"ATH","stars":4,"rating_247":91.0,"committed_to":"Baylor","lat":33.5834377,"lng":-95.9099681,"hometown_city":"Honey Grove","hometown_state":"TX"},{"name":"Kaydon Finley","year":2026,"position":"ATH","stars":4,"rating_247":91.0,"committed_to":"Notre Dame","lat":32.69900905,"lng":-97.60396629774493,"hometown_city":"Aledo","hometown_state":"TX"},{"name":"Madden Williams","year":2026,"position":"ATH","stars":4,"rating_247":90.0,"committed_to":"Texas A&M","lat":33.8825705,"lng":-118.1167679,"hometown_city":"Bellflower","hometown_state":"CA"},{"name":"Messiah Mickens","year":2026,"position":"ATH","stars":4,"rating_247":90.0,"committed_to":"Virginia Tech","lat":40.2663107,"lng":-76.8861122,"hometown_city":"Harrisburg","hometown_state":"PA"},{"name":"London Smith","year":2026,"position":"ATH","stars":4,"rating_247":90.0,"committed_to":"Baylor","lat":31.549333,"lng":-97.1466695,"hometown_city":"Waco","hometown_state":"TX"},{"name":"EJ White","year":2026,"position":"ATH","stars":null,"rating_247":90.0,"committed_to":"Florida State","lat":28.6305,"lng":-82.4497,"hometown_city":"Vero Beach","hometown_state":"FL"},{"name":"Asaad Chapman","year":2026,"position":"ATH","stars":null,"rating_247":90.0,"committed_to":"Texas-San Antonio","lat":37.1841,"lng":-119.4696,"hometown_city":"San Bernardino","hometown_state":"CA"},{"name":"Dequane Prevo","year":2026,"position":"ATH","stars":4,"rating_247":89.0,"committed_to":"Arkansas","lat":36.3728538,"lng":-94.2088172,"hometown_city":"Bentonville","hometown_state":"AR"},{"name":"Jacob Eberhart","year":2026,"position":"ATH","stars":4,"rating_247":89.0,"committed_to":"Illinois","lat":38.6268039,"lng":-90.1994097,"hometown_city":"St. Louis","hometown_state":"MO"},{"name":"Jabari Brady","year":2026,"position":"ATH","stars":3,"rating_247":88.0,"committed_to":"Missouri","lat":26.2378597,"lng":-80.1247667,"hometown_city":"Pompano Beach","hometown_state":"FL"},{"name":"Shavar Young Jr.","year":2026,"position":"ATH","stars":3,"rating_247":88.0,"committed_to":"Clemson","lat":35.9603948,"lng":-83.9210261,"hometown_city":"Knoxville","hometown_state":"TN"},{"name":"Jontavius Wyman","year":2026,"position":"ATH","stars":4,"rating_247":88.0,"committed_to":"Miami","lat":33.5215013,"lng":-84.3538128,"hometown_city":"Jonesboro","hometown_state":"GA"},{"name":"Jameson Powell","year":2026,"position":"ATH","stars":3,"rating_247":88.0,"committed_to":"Oregon State","lat":38.6779591,"lng":-121.1760583,"hometown_city":"Folsom","hometown_state":"CA"},{"name":"Terrance Saryon","year":2026,"position":"ATH","stars":3,"rating_247":88.0,"committed_to":"BYU","lat":45.6306954,"lng":-122.6744557,"hometown_city":"Vancouver","hometown_state":"WA"},{"name":"Amari Sabb","year":2026,"position":"ATH","stars":3,"rating_247":87.0,"committed_to":"Alabama","lat":39.7027677,"lng":-75.1119434,"hometown_city":"Glassboro","hometown_state":"NJ"},{"name":"Tay Lockett","year":2026,"position":"ATH","stars":3,"rating_247":87.0,"committed_to":"Arkansas","lat":32.7174209,"lng":-117.1627714,"hometown_city":"San Diego","hometown_state":"CA"},{"name":"Kaue Akana","year":2026,"position":"ATH","stars":3,"rating_247":87.0,"committed_to":"BYU","lat":40.2971825,"lng":-111.694943,"hometown_city":"Orem","hometown_state":"UT"},{"name":"Ansu Sanoe","year":2026,"position":"ATH","stars":3,"rating_247":87.0,"committed_to":"Washington","lat":45.4206749,"lng":-122.6706498,"hometown_city":"Lake Oswego","hometown_state":"OR"},{"name":"Kaj Baker","year":2026,"position":"ATH","stars":3,"rating_247":86.0,"committed_to":"UCF","lat":25.7742658,"lng":-80.1936589,"hometown_city":"Miami","hometown_state":"FL"},{"name":"Braylon Outlaw","year":2026,"position":"ATH","stars":3,"rating_247":86.0,"committed_to":"Georgia Tech","lat":32.272931,"lng":-86.15018999518217,"hometown_city":"Pike Road","hometown_state":"AL"},{"name":"Dayton Raiola","year":2026,"position":"ATH","stars":3,"rating_247":85.0,"committed_to":"Oregon","lat":34.1206564,"lng":-84.0043513,"hometown_city":"Buford","hometown_state":"GA"},{"name":"Izayah Lee","year":2026,"position":"ATH","stars":3,"rating_247":85.0,"committed_to":"Vanderbilt","lat":32.5920798,"lng":-96.7561083,"hometown_city":"Lancaster","hometown_state":"TX"},{"name":"Asa Thompson","year":2026,"position":"ATH","stars":3,"rating_247":85.0,"committed_to":"Washington","lat":47.6088445,"lng":-122.0423067,"hometown_city":"Sammamish","hometown_state":"WA"},{"name":"Kenny Golston","year":2026,"position":"ATH","stars":null,"rating_247":84.0,"committed_to":"Idaho","lat":35.5889,"lng":-97.4943,"hometown_city":"Valliant","hometown_state":"OK"},{"name":"Elijah Pendleton","year":2026,"position":"ATH","stars":3,"rating_247":80.0,"committed_to":null,"lat":34.1816482,"lng":-118.3258554,"hometown_city":"Burbank","hometown_state":"CA"}],"2027":[{"name":"Trae Taylor","year":2027,"position":"QB","stars":null,"rating_247":98.0,"committed_to":"Nebraska","lat":41.5378,"lng":-99.7951,"hometown_city":"Omaha","hometown_state":"NE"},{"name":"Jake Nawrot","year":2027,"position":"QB","stars":null,"rating_247":94.0,"committed_to":"Kentucky","lat":40.0417,"lng":-89.1965,"hometown_city":"Arlington Heights","hometown_state":"IL"},{"name":"Peter Bourque","year":2027,"position":"QB","stars":null,"rating_247":94.0,"committed_to":"Virginia Tech","lat":42.2596,"lng":-71.8083,"hometown_city":"Marion","hometown_state":"MA"},{"name":"Will Mencl","year":2027,"position":"QB","stars":null,"rating_247":94.0,"committed_to":"Oregon","lat":34.2744,"lng":-111.6602,"hometown_city":"Chandler","hometown_state":"AZ"},{"name":"Kavian Bryant","year":2027,"position":"QB","stars":null,"rating_247":93.0,"committed_to":"Texas Tech","lat":31.4757,"lng":-99.3312,"hometown_city":"Palestine","hometown_state":"TX"},{"name":"Keegan Croucher","year":2027,"position":"QB","stars":null,"rating_247":91.0,"committed_to":"Mississippi","lat":35.858,"lng":-86.3505,"hometown_city":"Chattanooga","hometown_state":"TN"},{"name":"Blake Roskopf","year":2027,"position":"QB","stars":null,"rating_247":90.0,"committed_to":"Washington","lat":34.2744,"lng":-111.6602,"hometown_city":"Goodyear","hometown_state":"AZ"},{"name":"Trent Seaborn","year":2027,"position":"QB","stars":null,"rating_247":90.0,"committed_to":"Alabama","lat":32.7794,"lng":-86.8287,"hometown_city":"Alabaster","hometown_state":"AL"},{"name":"Brady Edmunds","year":2027,"position":"QB","stars":null,"rating_247":90.0,"committed_to":"Ohio State","lat":37.1841,"lng":-119.4696,"hometown_city":"Huntington Beach","hometown_state":"CA"},{"name":"Kamden Lopati","year":2027,"position":"QB","stars":null,"rating_247":89.0,"committed_to":"Michigan","lat":39.321,"lng":-111.0937,"hometown_city":"Salt Lake City","hometown_state":"UT"},{"name":"Andre Adams","year":2027,"position":"QB","stars":null,"rating_247":89.0,"committed_to":"Colorado","lat":35.858,"lng":-86.3505,"hometown_city":"Antioch","hometown_state":"TN"},{"name":"Weston Nielsen","year":2027,"position":"QB","stars":null,"rating_247":89.0,"committed_to":"Arizona State","lat":31.4757,"lng":-99.3312,"hometown_city":"Bastrop","hometown_state":"TX"},{"name":"Wonderful Monds IV","year":2027,"position":"QB","stars":null,"rating_247":88.0,"committed_to":"Notre Dame","lat":28.6305,"lng":-82.4497,"hometown_city":"Vero Beach","hometown_state":"FL"},{"name":"Jameson Purcell","year":2027,"position":"QB","stars":null,"rating_247":88.0,"committed_to":"Indiana","lat":40.0417,"lng":-89.1965,"hometown_city":"Park Ridge","hometown_state":"IL"},{"name":"Dane Weber","year":2027,"position":"QB","stars":null,"rating_247":88.0,"committed_to":"California","lat":37.1841,"lng":-119.4696,"hometown_city":"Temecula","hometown_state":"CA"},{"name":"Sione Kaho","year":2027,"position":"QB","stars":null,"rating_247":88.0,"committed_to":"Stanford","lat":47.3826,"lng":-120.4472,"hometown_city":"Tacoma","hometown_state":"WA"},{"name":"Daniel Mielke","year":2027,"position":"QB","stars":null,"rating_247":84.0,"committed_to":null,"lat":37.1841,"lng":-119.4696,"hometown_city":"Murrieta","hometown_state":"CA"},{"name":"Kemon Spell","year":2027,"position":"RB","stars":null,"rating_247":98.0,"committed_to":"Georgia","lat":40.8781,"lng":-77.7996,"hometown_city":"McKeesport","hometown_state":"PA"},{"name":"David Gabriel Georges","year":2027,"position":"RB","stars":null,"rating_247":98.0,"committed_to":null,"lat":35.858,"lng":-86.3505,"hometown_city":"Chattanooga","hometown_state":"TN"},{"name":"Landen Williams-Callis","year":2027,"position":"RB","stars":null,"rating_247":95.0,"committed_to":null,"lat":31.4757,"lng":-99.3312,"hometown_city":"Richmond","hometown_state":"TX"},{"name":"SaRod Baker","year":2027,"position":"RB","stars":null,"rating_247":94.0,"committed_to":"Texas Tech","lat":31.4757,"lng":-99.3312,"hometown_city":"DeSoto","hometown_state":"TX"},{"name":"CaDarius McMiller","year":2027,"position":"RB","stars":null,"rating_247":90.0,"committed_to":"Oregon","lat":31.4757,"lng":-99.3312,"hometown_city":"Tyler","hometown_state":"TX"},{"name":"Lathan Whisenton","year":2027,"position":"RB","stars":null,"rating_247":90.0,"committed_to":"Notre Dame","lat":31.4757,"lng":-99.3312,"hometown_city":"Waco","hometown_state":"TX"},{"name":"Andrew Beard","year":2027,"position":"RB","stars":null,"rating_247":90.0,"committed_to":"Florida","lat":32.6415,"lng":-83.4426,"hometown_city":"Bogart","hometown_state":"GA"},{"name":"Keldrid Ben","year":2027,"position":"RB","stars":null,"rating_247":90.0,"committed_to":"Oklahoma","lat":31.4757,"lng":-99.3312,"hometown_city":"Montgomery","hometown_state":"TX"},{"name":"Jayden Miles","year":2027,"position":"RB","stars":null,"rating_247":90.0,"committed_to":"Florida State","lat":31.0689,"lng":-91.9968,"hometown_city":"Baton Rouge","hometown_state":"LA"},{"name":"Tyson Robinson","year":2027,"position":"RB","stars":null,"rating_247":90.0,"committed_to":"Michigan","lat":32.7364,"lng":-89.6678,"hometown_city":"Brandon","hometown_state":"MS"},{"name":"Brayden Tyson","year":2027,"position":"RB","stars":null,"rating_247":90.0,"committed_to":"South Carolina","lat":32.6415,"lng":-83.4426,"hometown_city":"Snellville","hometown_state":"GA"},{"name":"Khamoni Williams","year":2027,"position":"RB","stars":null,"rating_247":89.0,"committed_to":null,"lat":35.858,"lng":-86.3505,"hometown_city":"Memphis","hometown_state":"TN"},{"name":"Amarri Irvin","year":2027,"position":"RB","stars":null,"rating_247":89.0,"committed_to":"Notre Dame","lat":28.6305,"lng":-82.4497,"hometown_city":"Bradenton","hometown_state":"FL"},{"name":"Caden Waye","year":2027,"position":"RB","stars":null,"rating_247":89.0,"committed_to":null,"lat":32.6415,"lng":-83.4426,"hometown_city":"McDonough","hometown_state":"GA"},{"name":"Elijah Kimble","year":2027,"position":"RB","stars":null,"rating_247":89.0,"committed_to":null,"lat":42.9538,"lng":-75.5268,"hometown_city":"Buffalo","hometown_state":"NY"},{"name":"Quinterrius Gipson","year":2027,"position":"RB","stars":null,"rating_247":89.0,"committed_to":"Georgia Tech","lat":32.6415,"lng":-83.4426,"hometown_city":"Marietta","hometown_state":"GA"},{"name":"Javian Jones-Priest","year":2027,"position":"RB","stars":null,"rating_247":89.0,"committed_to":"Virginia Tech","lat":31.4757,"lng":-99.3312,"hometown_city":"Arlington","hometown_state":"TX"},{"name":"Noah Roberts","year":2027,"position":"RB","stars":null,"rating_247":88.0,"committed_to":"Texas","lat":34.2744,"lng":-111.6602,"hometown_city":"Chandler","hometown_state":"AZ"},{"name":"Jayshon Gibson","year":2027,"position":"RB","stars":null,"rating_247":88.0,"committed_to":"UCLA","lat":31.4757,"lng":-99.3312,"hometown_city":"North Richland Hills","hometown_state":"TX"},{"name":"Amir Brown","year":2027,"position":"RB","stars":null,"rating_247":88.0,"committed_to":"Nebraska","lat":35.5557,"lng":-79.3877,"hometown_city":"Rolesville","hometown_state":"NC"},{"name":"Jaxsen Stokes","year":2027,"position":"RB","stars":null,"rating_247":88.0,"committed_to":"California","lat":37.1841,"lng":-119.4696,"hometown_city":"Chatsworth","hometown_state":"CA"},{"name":"Arwin Jackson","year":2027,"position":"RB","stars":null,"rating_247":87.0,"committed_to":null,"lat":28.6305,"lng":-82.4497,"hometown_city":"Opa Locka","hometown_state":"FL"},{"name":"Lee Prince Jr.","year":2027,"position":"RB","stars":null,"rating_247":87.0,"committed_to":"West Virginia","lat":28.6305,"lng":-82.4497,"hometown_city":"Opa Locka","hometown_state":"FL"},{"name":"Terrance Grant Jr.","year":2027,"position":"RB","stars":null,"rating_247":87.0,"committed_to":"Maryland","lat":39.055,"lng":-76.7909,"hometown_city":"Hyattsville","hometown_state":"MD"},{"name":"Benjamin Harris","year":2027,"position":"RB","stars":null,"rating_247":87.0,"committed_to":null,"lat":37.1841,"lng":-119.4696,"hometown_city":"Anaheim","hometown_state":"CA"},{"name":"Jakoby Dixon","year":2027,"position":"RB","stars":null,"rating_247":86.0,"committed_to":"Oklahoma","lat":31.4757,"lng":-99.3312,"hometown_city":"Brenham","hometown_state":"TX"},{"name":"Malachi McFarland","year":2027,"position":"RB","stars":null,"rating_247":86.0,"committed_to":"Boise State","lat":37.1841,"lng":-119.4696,"hometown_city":"La Verne","hometown_state":"CA"},{"name":"Jordan Smith","year":2027,"position":"RB","stars":null,"rating_247":null,"committed_to":"Texas-San Antonio","lat":31.4757,"lng":-99.3312,"hometown_city":"Waxahachie","hometown_state":"TX"},{"name":"CJ Cowley","year":2027,"position":"RB","stars":null,"rating_247":null,"committed_to":null,"lat":32.7794,"lng":-86.8287,"hometown_city":"Alabaster","hometown_state":"AL"},{"name":"Joel Bradford","year":2027,"position":"RB","stars":null,"rating_247":null,"committed_to":null,"lat":32.6415,"lng":-83.4426,"hometown_city":"Suwanee","hometown_state":"GA"},{"name":"Monshun Sales","year":2027,"position":"WR","stars":null,"rating_247":98.0,"committed_to":null,"lat":39.8942,"lng":-86.2816,"hometown_city":"Indianapolis","hometown_state":"IN"},{"name":"Easton Royal","year":2027,"position":"WR","stars":null,"rating_247":98.0,"committed_to":"Texas","lat":31.0689,"lng":-91.9968,"hometown_city":"New Orleans","hometown_state":"LA"},{"name":"Nick Lennear","year":2027,"position":"WR","stars":null,"rating_247":98.0,"committed_to":"Miami","lat":28.6305,"lng":-82.4497,"hometown_city":"Opa Locka","hometown_state":"FL"},{"name":"Dakota Guerrant","year":2027,"position":"WR","stars":null,"rating_247":98.0,"committed_to":null,"lat":44.3467,"lng":-85.4102,"hometown_city":"Harper Woods","hometown_state":"MI"},{"name":"Jamier Brown","year":2027,"position":"WR","stars":null,"rating_247":98.0,"committed_to":"Ohio State","lat":40.2862,"lng":-82.7937,"hometown_city":"Sunbury","hometown_state":"OH"},{"name":"Quentin Hale","year":2027,"position":"WR","stars":null,"rating_247":94.0,"committed_to":"Southern California","lat":37.1841,"lng":-119.4696,"hometown_city":"Corona","hometown_state":"CA"},{"name":"Eric McFarland III","year":2027,"position":"WR","stars":null,"rating_247":94.0,"committed_to":null,"lat":28.6305,"lng":-82.4497,"hometown_city":"Bradenton","hometown_state":"FL"},{"name":"Kesean Bowman","year":2027,"position":"WR","stars":null,"rating_247":93.0,"committed_to":"Tennessee","lat":35.858,"lng":-86.3505,"hometown_city":"Brentwood","hometown_state":"TN"},{"name":"Roye Oliver III","year":2027,"position":"WR","stars":null,"rating_247":93.0,"committed_to":"Southern California","lat":34.2744,"lng":-111.6602,"hometown_city":"Chandler","hometown_state":"AZ"},{"name":"Charles Davis","year":2027,"position":"WR","stars":null,"rating_247":93.0,"committed_to":"California","lat":37.1841,"lng":-119.4696,"hometown_city":"Westlake Village","hometown_state":"CA"},{"name":"Julius Jones","year":2027,"position":"WR","stars":null,"rating_247":92.0,"committed_to":null,"lat":28.6305,"lng":-82.4497,"hometown_city":"Fort Lauderdale","hometown_state":"FL"},{"name":"Khalil Taylor","year":2027,"position":"WR","stars":null,"rating_247":92.0,"committed_to":null,"lat":40.8781,"lng":-77.7996,"hometown_city":"Gibsonia","hometown_state":"PA"},{"name":"Briceson Thrower Jr.","year":2027,"position":"WR","stars":null,"rating_247":91.0,"committed_to":"Texas","lat":31.4757,"lng":-99.3312,"hometown_city":"Forney","hometown_state":"TX"},{"name":"Eli Woodard","year":2027,"position":"WR","stars":null,"rating_247":91.0,"committed_to":null,"lat":37.1841,"lng":-119.4696,"hometown_city":"Temecula","hometown_state":"CA"},{"name":"Tre Moore","year":2027,"position":"WR","stars":null,"rating_247":90.0,"committed_to":"Washington","lat":31.4757,"lng":-99.3312,"hometown_city":"Pflugerville","hometown_state":"TX"},{"name":"Quentin Burrell","year":2027,"position":"WR","stars":null,"rating_247":90.0,"committed_to":"Michigan","lat":40.0417,"lng":-89.1965,"hometown_city":"Chicago","hometown_state":"IL"},{"name":"Trenton Yancey","year":2027,"position":"WR","stars":null,"rating_247":90.0,"committed_to":"Purdue","lat":31.4757,"lng":-99.3312,"hometown_city":"Duncanville","hometown_state":"TX"},{"name":"Blake Wong","year":2027,"position":"WR","stars":null,"rating_247":90.0,"committed_to":null,"lat":37.1841,"lng":-119.4696,"hometown_city":"Norco","hometown_state":"CA"},{"name":"Zion White","year":2027,"position":"WR","stars":null,"rating_247":90.0,"committed_to":null,"lat":20.2927,"lng":-156.3737,"hometown_city":"Mililani","hometown_state":"HI"},{"name":"Julian Caldwell","year":2027,"position":"WR","stars":null,"rating_247":90.0,"committed_to":"Texas Tech","lat":31.4757,"lng":-99.3312,"hometown_city":"Argyle","hometown_state":"TX"},{"name":"Lawrence Britt","year":2027,"position":"WR","stars":null,"rating_247":90.0,"committed_to":null,"lat":35.858,"lng":-86.3505,"hometown_city":"Memphis","hometown_state":"TN"},{"name":"Dontay Tyson","year":2027,"position":"WR","stars":null,"rating_247":90.0,"committed_to":"Washington","lat":34.2744,"lng":-111.6602,"hometown_city":"Peoria","hometown_state":"AZ"},{"name":"Ty Johnson","year":2027,"position":"WR","stars":null,"rating_247":90.0,"committed_to":null,"lat":37.1841,"lng":-119.4696,"hometown_city":"Irvine","hometown_state":"CA"},{"name":"Damani Warren","year":2027,"position":"WR","stars":null,"rating_247":89.0,"committed_to":null,"lat":39.3289,"lng":-116.6312,"hometown_city":"Las Vegas","hometown_state":"NV"},{"name":"Braylon Pope","year":2027,"position":"WR","stars":null,"rating_247":89.0,"committed_to":"Washington","lat":47.3826,"lng":-120.4472,"hometown_city":"Sumner","hometown_state":"WA"},{"name":"Tycen Johnson","year":2027,"position":"WR","stars":null,"rating_247":88.0,"committed_to":"Arizona State","lat":37.1841,"lng":-119.4696,"hometown_city":"Temecula","hometown_state":"CA"},{"name":"Antayvious Ellis","year":2027,"position":"WR","stars":null,"rating_247":87.0,"committed_to":"Nebraska","lat":41.5378,"lng":-99.7951,"hometown_city":"Omaha","hometown_state":"NE"},{"name":"Braylon Kasper","year":2027,"position":"WR","stars":null,"rating_247":87.0,"committed_to":null,"lat":34.2744,"lng":-111.6602,"hometown_city":"Queen Creek","hometown_state":"AZ"},{"name":"Jackson Coleman","year":2027,"position":"WR","stars":null,"rating_247":87.0,"committed_to":"Notre Dame","lat":38.9972,"lng":-105.5478,"hometown_city":"Littleton","hometown_state":"CO"},{"name":"Delontay Williams","year":2027,"position":"WR","stars":null,"rating_247":86.0,"committed_to":"Nevada, Las Vegas","lat":37.1841,"lng":-119.4696,"hometown_city":"San Diego","hometown_state":"CA"},{"name":"Keyon Standifer","year":2027,"position":"WR","stars":null,"rating_247":85.0,"committed_to":null,"lat":32.6415,"lng":-83.4426,"hometown_city":"Covington","hometown_state":"GA"},{"name":"Malachi Garlington","year":2027,"position":"WR","stars":null,"rating_247":85.0,"committed_to":"Oregon","lat":43.9336,"lng":-120.5583,"hometown_city":"Happy Valley","hometown_state":"OR"},{"name":"Derrick Martin","year":2027,"position":"WR","stars":null,"rating_247":null,"committed_to":null,"lat":31.4757,"lng":-99.3312,"hometown_city":"Lewisville","hometown_state":"TX"},{"name":"Ahmad Hudson","year":2027,"position":"TE","stars":null,"rating_247":98.0,"committed_to":"Louisiana State","lat":31.0689,"lng":-91.9968,"hometown_city":"Ruston","hometown_state":"LA"},{"name":"Jaxon Dollar","year":2027,"position":"TE","stars":null,"rating_247":98.0,"committed_to":"Georgia","lat":35.5557,"lng":-79.3877,"hometown_city":"Denver","hometown_state":"NC"},{"name":"Brock Williams","year":2027,"position":"TE","stars":null,"rating_247":93.0,"committed_to":"Texas","lat":40.0417,"lng":-89.1965,"hometown_city":"Libertyville","hometown_state":"IL"},{"name":"Jack Brown","year":2027,"position":"TE","stars":null,"rating_247":92.0,"committed_to":"Missouri","lat":38.3566,"lng":-92.458,"hometown_city":"St. Charles","hometown_state":"MO"},{"name":"Reilly Newman","year":2027,"position":"TE","stars":null,"rating_247":90.0,"committed_to":"Iowa","lat":40.2862,"lng":-82.7937,"hometown_city":"West Chester","hometown_state":"OH"},{"name":"Malik Howard","year":2027,"position":"TE","stars":null,"rating_247":90.0,"committed_to":"Tennessee","lat":35.858,"lng":-86.3505,"hometown_city":"Oak Ridge","hometown_state":"TN"},{"name":"Rahzario Edwards","year":2027,"position":"TE","stars":null,"rating_247":90.0,"committed_to":"California","lat":37.1841,"lng":-119.4696,"hometown_city":"Sacramento","hometown_state":"CA"},{"name":"Colton Johnson","year":2027,"position":"TE","stars":null,"rating_247":88.0,"committed_to":null,"lat":35.858,"lng":-86.3505,"hometown_city":"Baxter","hometown_state":"TN"},{"name":"Christian Hanshaw","year":2027,"position":"TE","stars":null,"rating_247":88.0,"committed_to":null,"lat":39.321,"lng":-111.0937,"hometown_city":"American Fork","hometown_state":"UT"},{"name":"Zac Fares","year":2027,"position":"TE","stars":null,"rating_247":88.0,"committed_to":"UCLA","lat":39.3289,"lng":-116.6312,"hometown_city":"Las Vegas","hometown_state":"NV"},{"name":"Judah Lancaster","year":2027,"position":"TE","stars":null,"rating_247":86.0,"committed_to":"South Carolina","lat":35.858,"lng":-86.3505,"hometown_city":"Brentwood","hometown_state":"TN"},{"name":"George VanSandt","year":2027,"position":"TE","stars":null,"rating_247":86.0,"committed_to":"Oregon","lat":43.9336,"lng":-120.5583,"hometown_city":"Portland","hometown_state":"OR"},{"name":"Maxwell Hiller","year":2027,"position":"OT","stars":null,"rating_247":98.0,"committed_to":"Florida","lat":40.8781,"lng":-77.7996,"hometown_city":"Coatesville","hometown_state":"PA"},{"name":"Mark Matthews","year":2027,"position":"OT","stars":null,"rating_247":98.0,"committed_to":"Texas A&M","lat":28.6305,"lng":-82.4497,"hometown_city":"Fort Lauderdale","hometown_state":"FL"},{"name":"Ismael Camara","year":2027,"position":"OT","stars":null,"rating_247":98.0,"committed_to":null,"lat":31.4757,"lng":-99.3312,"hometown_city":"Gilmer","hometown_state":"TX"},{"name":"Oluwasemilore Olubobola","year":2027,"position":"OT","stars":null,"rating_247":98.0,"committed_to":"Notre Dame","lat":40.1907,"lng":-74.6728,"hometown_city":"Jersey City","hometown_state":"NJ"},{"name":"Terrance Smith","year":2027,"position":"OT","stars":null,"rating_247":95.0,"committed_to":null,"lat":40.8781,"lng":-77.7996,"hometown_city":"Lansdale","hometown_state":"PA"},{"name":"Caden Moss","year":2027,"position":"OT","stars":null,"rating_247":94.0,"committed_to":null,"lat":32.7364,"lng":-89.6678,"hometown_city":"Jackson","hometown_state":"MS"},{"name":"Kennedy Brown","year":2027,"position":"OT","stars":null,"rating_247":94.0,"committed_to":"Texas A&M","lat":31.4757,"lng":-99.3312,"hometown_city":"Kingwood","hometown_state":"TX"},{"name":"Drew Fielder","year":2027,"position":"OT","stars":null,"rating_247":93.0,"committed_to":"Southern California","lat":37.1841,"lng":-119.4696,"hometown_city":"Anaheim","hometown_state":"CA"},{"name":"Jake Hildebrand","year":2027,"position":"OT","stars":null,"rating_247":93.0,"committed_to":"Arizona State","lat":34.2744,"lng":-111.6602,"hometown_city":"Chandler","hometown_state":"AZ"},{"name":"Brian Swanson","year":2027,"position":"OT","stars":null,"rating_247":91.0,"committed_to":null,"lat":31.4757,"lng":-99.3312,"hometown_city":"Dallas","hometown_state":"TX"},{"name":"Nate Carson","year":2027,"position":"OT","stars":null,"rating_247":90.0,"committed_to":null,"lat":33.9169,"lng":-80.8964,"hometown_city":"Columbia","hometown_state":"SC"},{"name":"Jimmy Kalis","year":2027,"position":"OT","stars":null,"rating_247":90.0,"committed_to":"Ohio State","lat":40.8781,"lng":-77.7996,"hometown_city":"Pittsburgh","hometown_state":"PA"},{"name":"Li'Marcus Jones","year":2027,"position":"OT","stars":null,"rating_247":90.0,"committed_to":"Colorado","lat":35.858,"lng":-86.3505,"hometown_city":"Brentwood","hometown_state":"TN"},{"name":"Antonio Keefer","year":2027,"position":"OT","stars":null,"rating_247":90.0,"committed_to":"Mississippi","lat":35.858,"lng":-86.3505,"hometown_city":"Memphis","hometown_state":"TN"},{"name":"Cameron Wagner","year":2027,"position":"OT","stars":null,"rating_247":90.0,"committed_to":"Oregon","lat":40.0417,"lng":-89.1965,"hometown_city":"St. Joseph","hometown_state":"IL"},{"name":"Avery Michael","year":2027,"position":"OT","stars":null,"rating_247":89.0,"committed_to":"Oregon","lat":37.1841,"lng":-119.4696,"hometown_city":"Turlock","hometown_state":"CA"},{"name":"Isaiah Bertola","year":2027,"position":"OT","stars":null,"rating_247":89.0,"committed_to":"California","lat":20.2927,"lng":-156.3737,"hometown_city":"Honolulu","hometown_state":"HI"},{"name":"Gecova Doyal","year":2027,"position":"OT","stars":null,"rating_247":89.0,"committed_to":null,"lat":47.3826,"lng":-120.4472,"hometown_city":"Puyallup","hometown_state":"WA"},{"name":"Lucas Rhoa","year":2027,"position":"OT","stars":null,"rating_247":88.0,"committed_to":null,"lat":37.1841,"lng":-119.4696,"hometown_city":"Orange","hometown_state":"CA"},{"name":"Soren Fifer","year":2027,"position":"OT","stars":null,"rating_247":88.0,"committed_to":"Illinois","lat":40.0417,"lng":-89.1965,"hometown_city":"Morton","hometown_state":"IL"},{"name":"Tyson Ross","year":2027,"position":"OT","stars":null,"rating_247":87.0,"committed_to":"Oklahoma","lat":38.4937,"lng":-98.3804,"hometown_city":"Andover","hometown_state":"KS"},{"name":"Albert Simien","year":2027,"position":"IOL","stars":null,"rating_247":94.0,"committed_to":null,"lat":31.0689,"lng":-91.9968,"hometown_city":"Lake Charles","hometown_state":"LA"},{"name":"Jatori Williams","year":2027,"position":"IOL","stars":null,"rating_247":93.0,"committed_to":"Miami","lat":32.7794,"lng":-86.8287,"hometown_city":"Phenix City","hometown_state":"AL"},{"name":"Kyler Kuhn","year":2027,"position":"IOL","stars":null,"rating_247":90.0,"committed_to":null,"lat":38.3566,"lng":-92.458,"hometown_city":"Kansas City","hometown_state":"MO"},{"name":"Jackson Roper","year":2027,"position":"IOL","stars":null,"rating_247":90.0,"committed_to":"UCLA","lat":38.9972,"lng":-105.5478,"hometown_city":"Englewood","hometown_state":"CO"},{"name":"Reed Ramsier","year":2027,"position":"IOL","stars":null,"rating_247":90.0,"committed_to":"Auburn","lat":28.6305,"lng":-82.4497,"hometown_city":"Orlando","hometown_state":"FL"},{"name":"Antwan Jackson","year":2027,"position":"IOL","stars":null,"rating_247":90.0,"committed_to":null,"lat":35.858,"lng":-86.3505,"hometown_city":"Collierville","hometown_state":"TN"},{"name":"Gus Corsair","year":2027,"position":"IOL","stars":null,"rating_247":90.0,"committed_to":"Oregon","lat":38.4937,"lng":-98.3804,"hometown_city":"Hays","hometown_state":"KS"},{"name":"Ian Walker","year":2027,"position":"IOL","stars":null,"rating_247":89.0,"committed_to":"Kentucky","lat":40.1907,"lng":-74.6728,"hometown_city":"Pennington","hometown_state":"NJ"},{"name":"Caleb Unger","year":2027,"position":"IOL","stars":null,"rating_247":89.0,"committed_to":"Mississippi State","lat":32.7364,"lng":-89.6678,"hometown_city":"Madison","hometown_state":"MS"},{"name":"Ian Aloisio","year":2027,"position":"IOL","stars":null,"rating_247":88.0,"committed_to":null,"lat":39.321,"lng":-111.0937,"hometown_city":"Provo","hometown_state":"UT"},{"name":"Lex Mailangi","year":2027,"position":"IOL","stars":null,"rating_247":87.0,"committed_to":null,"lat":37.1841,"lng":-119.4696,"hometown_city":"Santa Ana","hometown_state":"CA"},{"name":"Reis Russell","year":2027,"position":"IOL","stars":null,"rating_247":87.0,"committed_to":"Washington","lat":38.9972,"lng":-105.5478,"hometown_city":"Littleton","hometown_state":"CO"},{"name":"Jayden Dean","year":2027,"position":"IOL","stars":null,"rating_247":85.0,"committed_to":null,"lat":28.6305,"lng":-82.4497,"hometown_city":"Fort Lauderdale","hometown_state":"FL"},{"name":"Brayden Washington","year":2027,"position":"IOL","stars":null,"rating_247":null,"committed_to":null,"lat":35.858,"lng":-86.3505,"hometown_city":"Collierville","hometown_state":"TN"},{"name":"DJ Jacobs","year":2027,"position":"Edge","stars":null,"rating_247":98.0,"committed_to":"Ohio State","lat":32.6415,"lng":-83.4426,"hometown_city":"Roswell","hometown_state":"GA"},{"name":"KJ Green","year":2027,"position":"Edge","stars":null,"rating_247":98.0,"committed_to":"Louisiana State","lat":32.6415,"lng":-83.4426,"hometown_city":"Stone Mountain","hometown_state":"GA"},{"name":"Anthony Sweeney","year":2027,"position":"Edge","stars":null,"rating_247":98.0,"committed_to":"Texas Tech","lat":39.055,"lng":-76.7909,"hometown_city":"Baltimore","hometown_state":"MD"},{"name":"Abraham Sesay","year":2027,"position":"Edge","stars":null,"rating_247":98.0,"committed_to":null,"lat":40.8781,"lng":-77.7996,"hometown_city":"Exton","hometown_state":"PA"},{"name":"Rashad Streets","year":2027,"position":"Edge","stars":null,"rating_247":98.0,"committed_to":"Oregon","lat":35.5557,"lng":-79.3877,"hometown_city":"Raleigh","hometown_state":"NC"},{"name":"Zyron Forstall","year":2027,"position":"Edge","stars":null,"rating_247":98.0,"committed_to":"Texas A&M","lat":28.6305,"lng":-82.4497,"hometown_city":"Bradenton","hometown_state":"FL"},{"name":"Aidan O'Neil","year":2027,"position":"Edge","stars":null,"rating_247":93.0,"committed_to":"Notre Dame","lat":40.1907,"lng":-74.6728,"hometown_city":"Ramsey","hometown_state":"NJ"},{"name":"Jabarrius Garror","year":2027,"position":"Edge","stars":null,"rating_247":92.0,"committed_to":null,"lat":32.7794,"lng":-86.8287,"hometown_city":"Mobile","hometown_state":"AL"},{"name":"Jackson Vaughn","year":2027,"position":"Edge","stars":null,"rating_247":92.0,"committed_to":"Notre Dame","lat":40.1907,"lng":-74.6728,"hometown_city":"Oradell","hometown_state":"NJ"},{"name":"Prince Goldsby","year":2027,"position":"Edge","stars":null,"rating_247":92.0,"committed_to":"Ohio State","lat":38.3566,"lng":-92.458,"hometown_city":"Blue Springs","hometown_state":"MO"},{"name":"Cameron Pritchett","year":2027,"position":"Edge","stars":null,"rating_247":92.0,"committed_to":"Oregon","lat":32.7794,"lng":-86.8287,"hometown_city":"Alabaster","hometown_state":"AL"},{"name":"James Pace III","year":2027,"position":"Edge","stars":null,"rating_247":91.0,"committed_to":null,"lat":39.055,"lng":-76.7909,"hometown_city":"Hyattsville","hometown_state":"MD"},{"name":"Troy Bowens","year":2027,"position":"Edge","stars":null,"rating_247":90.0,"committed_to":"California","lat":37.1841,"lng":-119.4696,"hometown_city":"Sutter","hometown_state":"CA"},{"name":"Joseph Buchanan","year":2027,"position":"Edge","stars":null,"rating_247":90.0,"committed_to":"Virginia Tech","lat":39.055,"lng":-76.7909,"hometown_city":"Owings Mills","hometown_state":"MD"},{"name":"Manase Brown","year":2027,"position":"Edge","stars":null,"rating_247":89.0,"committed_to":null,"lat":39.321,"lng":-111.0937,"hometown_city":"Draper","hometown_state":"UT"},{"name":"Jaylen Mercer","year":2027,"position":"Edge","stars":null,"rating_247":88.0,"committed_to":null,"lat":40.2862,"lng":-82.7937,"hometown_city":"Cincinnati","hometown_state":"OH"},{"name":"Jayce Brewer","year":2027,"position":"Edge","stars":null,"rating_247":88.0,"committed_to":"Michigan","lat":39.8942,"lng":-86.2816,"hometown_city":"Indianapolis","hometown_state":"IN"},{"name":"Josh Christensen","year":2027,"position":"Edge","stars":null,"rating_247":88.0,"committed_to":null,"lat":43.9336,"lng":-120.5583,"hometown_city":"Lake Oswego","hometown_state":"OR"},{"name":"Ty Tautolo","year":2027,"position":"Edge","stars":null,"rating_247":87.0,"committed_to":null,"lat":47.3826,"lng":-120.4472,"hometown_city":"Lake Stevens","hometown_state":"WA"},{"name":"Kasi Currie","year":2027,"position":"DL","stars":null,"rating_247":95.0,"committed_to":null,"lat":37.1841,"lng":-119.4696,"hometown_city":"Chatsworth","hometown_state":"CA"},{"name":"Marcus Fakatou","year":2027,"position":"DL","stars":null,"rating_247":94.0,"committed_to":null,"lat":37.1841,"lng":-119.4696,"hometown_city":"Chatsworth","hometown_state":"CA"},{"name":"David Folorunsho","year":2027,"position":"DL","stars":null,"rating_247":94.0,"committed_to":"Notre Dame","lat":40.0417,"lng":-89.1965,"hometown_city":"Chicago","hometown_state":"IL"},{"name":"Myels Smith","year":2027,"position":"DL","stars":null,"rating_247":94.0,"committed_to":"Texas A&M","lat":37.1841,"lng":-119.4696,"hometown_city":"Inglewood","hometown_state":"CA"},{"name":"Karlos May","year":2027,"position":"DL","stars":null,"rating_247":92.0,"committed_to":null,"lat":32.7794,"lng":-86.8287,"hometown_city":"Birmingham","hometown_state":"AL"},{"name":"Zane Rowe","year":2027,"position":"DL","stars":null,"rating_247":92.0,"committed_to":"Oregon","lat":31.4757,"lng":-99.3312,"hometown_city":"Denton","hometown_state":"TX"},{"name":"Alifeleti Tuihalamaka","year":2027,"position":"DL","stars":null,"rating_247":91.0,"committed_to":"Southern California","lat":37.1841,"lng":-119.4696,"hometown_city":"Westlake Village","hometown_state":"CA"},{"name":"Sam LeJeune","year":2027,"position":"DL","stars":null,"rating_247":91.0,"committed_to":null,"lat":32.7364,"lng":-89.6678,"hometown_city":"Poplarville","hometown_state":"MS"},{"name":"Brayden Parks","year":2027,"position":"DL","stars":null,"rating_247":91.0,"committed_to":null,"lat":40.0417,"lng":-89.1965,"hometown_city":"Oak Lawn","hometown_state":"IL"},{"name":"Jon Ioane","year":2027,"position":"DL","stars":null,"rating_247":90.0,"committed_to":"Washington","lat":37.1841,"lng":-119.4696,"hometown_city":"Tustin","hometown_state":"CA"},{"name":"Santana Harvey","year":2027,"position":"DL","stars":null,"rating_247":90.0,"committed_to":"Clemson","lat":28.6305,"lng":-82.4497,"hometown_city":"Lakeland","hometown_state":"FL"},{"name":"George Toia","year":2027,"position":"DL","stars":null,"rating_247":90.0,"committed_to":"UCLA","lat":31.4757,"lng":-99.3312,"hometown_city":"Trophy Club","hometown_state":"TX"},{"name":"Tevita Nonu","year":2027,"position":"DL","stars":null,"rating_247":90.0,"committed_to":"Washington","lat":47.3826,"lng":-120.4472,"hometown_city":"Seattle","hometown_state":"WA"},{"name":"Elija Harmon","year":2027,"position":"DL","stars":null,"rating_247":90.0,"committed_to":"Oklahoma","lat":37.1841,"lng":-119.4696,"hometown_city":"Inglewood","hometown_state":"CA"},{"name":"Jamarkus Pittman","year":2027,"position":"DL","stars":null,"rating_247":90.0,"committed_to":"Mississippi","lat":35.858,"lng":-86.3505,"hometown_city":"Memphis","hometown_state":"TN"},{"name":"Justin Weeks","year":2027,"position":"DL","stars":null,"rating_247":89.0,"committed_to":null,"lat":32.6415,"lng":-83.4426,"hometown_city":"Douglasville","hometown_state":"GA"},{"name":"Jamar Thompson","year":2027,"position":"DL","stars":null,"rating_247":88.0,"committed_to":"Georgia Tech","lat":28.6305,"lng":-82.4497,"hometown_city":"Boca Raton","hometown_state":"FL"},{"name":"Montana Toilolo","year":2027,"position":"DL","stars":null,"rating_247":88.0,"committed_to":"UCLA","lat":37.1841,"lng":-119.4696,"hometown_city":"Santa Ana","hometown_state":"CA"},{"name":"Kalib Spivey","year":2027,"position":"DL","stars":null,"rating_247":88.0,"committed_to":"Georgia Tech","lat":32.7794,"lng":-86.8287,"hometown_city":"Alexander City","hometown_state":"AL"},{"name":"Sione Felila","year":2027,"position":"DL","stars":null,"rating_247":88.0,"committed_to":"Oklahoma","lat":37.1841,"lng":-119.4696,"hometown_city":"Hesperia","hometown_state":"CA"},{"name":"Achilles Reyna","year":2027,"position":"DL","stars":null,"rating_247":88.0,"committed_to":"Oregon","lat":47.3826,"lng":-120.4472,"hometown_city":"Seattle","hometown_state":"WA"},{"name":"Owen Reilly","year":2027,"position":"DL","stars":null,"rating_247":88.0,"committed_to":"Penn State","lat":39.055,"lng":-76.7909,"hometown_city":"Bel Air","hometown_state":"MD"},{"name":"Yahzeen Zion","year":2027,"position":"DL","stars":null,"rating_247":87.0,"committed_to":"Wisconsin","lat":34.2744,"lng":-111.6602,"hometown_city":"Goodyear","hometown_state":"AZ"},{"name":"Maa'imoa Havili","year":2027,"position":"DL","stars":null,"rating_247":87.0,"committed_to":"BYU","lat":39.321,"lng":-111.0937,"hometown_city":"Salt Lake City","hometown_state":"UT"},{"name":"Khyren Haywood","year":2027,"position":"DL","stars":null,"rating_247":86.0,"committed_to":"Texas Tech","lat":31.4757,"lng":-99.3312,"hometown_city":"Denton","hometown_state":"TX"},{"name":"Isaia Vandermade","year":2027,"position":"DL","stars":null,"rating_247":86.0,"committed_to":"Southern California","lat":37.1841,"lng":-119.4696,"hometown_city":"Rancho Santa Margarita","hometown_state":"CA"},{"name":"Krystian Walcott","year":2027,"position":"DL","stars":null,"rating_247":null,"committed_to":null,"lat":32.6415,"lng":-83.4426,"hometown_city":"Buford","hometown_state":"GA"},{"name":"Aroson Randle Jr.","year":2027,"position":"LB","stars":null,"rating_247":94.0,"committed_to":"Miami","lat":35.5557,"lng":-79.3877,"hometown_city":"Garner","hometown_state":"NC"},{"name":"Kaden Henderson","year":2027,"position":"LB","stars":null,"rating_247":94.0,"committed_to":null,"lat":28.6305,"lng":-82.4497,"hometown_city":"Tampa","hometown_state":"FL"},{"name":"Toa Satele","year":2027,"position":"LB","stars":null,"rating_247":93.0,"committed_to":"Oregon","lat":20.2927,"lng":-156.3737,"hometown_city":"Mililani","hometown_state":"HI"},{"name":"Roman Igwebuike","year":2027,"position":"LB","stars":null,"rating_247":91.0,"committed_to":null,"lat":40.0417,"lng":-89.1965,"hometown_city":"Chicago","hometown_state":"IL"},{"name":"Quinton Cypher","year":2027,"position":"LB","stars":null,"rating_247":90.0,"committed_to":"Ohio State","lat":35.5557,"lng":-79.3877,"hometown_city":"Raleigh","hometown_state":"NC"},{"name":"Noah Glover","year":2027,"position":"LB","stars":null,"rating_247":90.0,"committed_to":"Miami","lat":37.5215,"lng":-78.8537,"hometown_city":"Haymarket","hometown_state":"VA"},{"name":"Mikahi Allen","year":2027,"position":"LB","stars":null,"rating_247":90.0,"committed_to":null,"lat":40.1907,"lng":-74.6728,"hometown_city":"Ramsey","hometown_state":"NJ"},{"name":"Kobe Rhymes","year":2027,"position":"LB","stars":null,"rating_247":90.0,"committed_to":"Missouri","lat":38.3566,"lng":-92.458,"hometown_city":"Kansas City","hometown_state":"MO"},{"name":"Brandon Lockley","year":2027,"position":"LB","stars":null,"rating_247":89.0,"committed_to":"Oregon","lat":40.8781,"lng":-77.7996,"hometown_city":"Philadelphia","hometown_state":"PA"},{"name":"Antwoine Higgins","year":2027,"position":"LB","stars":null,"rating_247":88.0,"committed_to":"Kentucky","lat":40.2862,"lng":-82.7937,"hometown_city":"Cincinnati","hometown_state":"OH"},{"name":"Jalaythan Mayfield","year":2027,"position":"LB","stars":null,"rating_247":88.0,"committed_to":null,"lat":35.5557,"lng":-79.3877,"hometown_city":"Lincolnton","hometown_state":"NC"},{"name":"Isaiah Phelps","year":2027,"position":"LB","stars":null,"rating_247":88.0,"committed_to":"San Diego State","lat":37.1841,"lng":-119.4696,"hometown_city":"Oxnard","hometown_state":"CA"},{"name":"Ellis McGaskin","year":2027,"position":"LB","stars":null,"rating_247":88.0,"committed_to":"Florida","lat":32.7794,"lng":-86.8287,"hometown_city":"Mobile","hometown_state":"AL"},{"name":"Drew Williams","year":2027,"position":"LB","stars":null,"rating_247":88.0,"committed_to":"Kentucky","lat":32.6415,"lng":-83.4426,"hometown_city":"Canton","hometown_state":"GA"},{"name":"Braylon Williams","year":2027,"position":"LB","stars":null,"rating_247":88.0,"committed_to":"SMU","lat":31.4757,"lng":-99.3312,"hometown_city":"Arlington","hometown_state":"TX"},{"name":"Isaiah Leilua","year":2027,"position":"LB","stars":null,"rating_247":88.0,"committed_to":"Washington","lat":37.1841,"lng":-119.4696,"hometown_city":"Anaheim","hometown_state":"CA"},{"name":"Zykee Scott","year":2027,"position":"LB","stars":null,"rating_247":88.0,"committed_to":"North Carolina","lat":40.8781,"lng":-77.7996,"hometown_city":"Wyndmoor","hometown_state":"PA"},{"name":"Ethan Hauser","year":2027,"position":"LB","stars":null,"rating_247":88.0,"committed_to":"Vanderbilt","lat":32.6415,"lng":-83.4426,"hometown_city":"Buford","hometown_state":"GA"},{"name":"Brayden Watson","year":2027,"position":"LB","stars":null,"rating_247":88.0,"committed_to":"Michigan","lat":32.6415,"lng":-83.4426,"hometown_city":"Buford","hometown_state":"GA"},{"name":"Jake Godfree","year":2027,"position":"LB","stars":null,"rating_247":87.0,"committed_to":"North Carolina State","lat":32.6415,"lng":-83.4426,"hometown_city":"Suwanee","hometown_state":"GA"},{"name":"Sam Ngata","year":2027,"position":"LB","stars":null,"rating_247":87.0,"committed_to":"Oregon","lat":39.321,"lng":-111.0937,"hometown_city":"Salt Lake City","hometown_state":"UT"},{"name":"Liufau Loumoli","year":2027,"position":"LB","stars":null,"rating_247":86.0,"committed_to":null,"lat":28.6305,"lng":-82.4497,"hometown_city":"Bradenton","hometown_state":"FL"},{"name":"Shelvy Clark","year":2027,"position":"LB","stars":null,"rating_247":null,"committed_to":"Maryland","lat":35.858,"lng":-86.3505,"hometown_city":"Germantown","hometown_state":"TN"},{"name":"John Meredith III","year":2027,"position":"CB","stars":null,"rating_247":98.0,"committed_to":null,"lat":31.4757,"lng":-99.3312,"hometown_city":"Fort Worth","hometown_state":"TX"},{"name":"Donte Wright","year":2027,"position":"CB","stars":null,"rating_247":98.0,"committed_to":"Miami","lat":37.1841,"lng":-119.4696,"hometown_city":"Long Beach","hometown_state":"CA"},{"name":"Danny Lang","year":2027,"position":"CB","stars":null,"rating_247":95.0,"committed_to":"Southern California","lat":37.1841,"lng":-119.4696,"hometown_city":"Santa Ana","hometown_state":"CA"},{"name":"Raylaun Henry","year":2027,"position":"CB","stars":null,"rating_247":95.0,"committed_to":"Texas A&M","lat":39.055,"lng":-76.7909,"hometown_city":"Baltimore","hometown_state":"MD"},{"name":"Hayden Stepp","year":2027,"position":"CB","stars":null,"rating_247":94.0,"committed_to":null,"lat":39.3289,"lng":-116.6312,"hometown_city":"Las Vegas","hometown_state":"NV"},{"name":"Xavier Hasan","year":2027,"position":"CB","stars":null,"rating_247":94.0,"committed_to":"Notre Dame","lat":35.5557,"lng":-79.3877,"hometown_city":"Raleigh","hometown_state":"NC"},{"name":"Ace Alston","year":2027,"position":"CB","stars":null,"rating_247":93.0,"committed_to":"Notre Dame","lat":40.2862,"lng":-82.7937,"hometown_city":"Cincinnati","hometown_state":"OH"},{"name":"Censere Gaylord","year":2027,"position":"CB","stars":null,"rating_247":92.0,"committed_to":null,"lat":28.6305,"lng":-82.4497,"hometown_city":"Bradenton","hometown_state":"FL"},{"name":"Jerry Outhouse Jr.","year":2027,"position":"CB","stars":null,"rating_247":91.0,"committed_to":"UCLA","lat":31.4757,"lng":-99.3312,"hometown_city":"Fort Worth","hometown_state":"TX"},{"name":"Tavares Harrington","year":2027,"position":"CB","stars":null,"rating_247":90.0,"committed_to":"Michigan","lat":40.0417,"lng":-89.1965,"hometown_city":"Chicago","hometown_state":"IL"},{"name":"Ai'King Hall","year":2027,"position":"CB","stars":null,"rating_247":90.0,"committed_to":"Miami","lat":32.7794,"lng":-86.8287,"hometown_city":"Dothan","hometown_state":"AL"},{"name":"Brandon Sherrard","year":2027,"position":"CB","stars":null,"rating_247":90.0,"committed_to":null,"lat":31.4757,"lng":-99.3312,"hometown_city":"Pearland","hometown_state":"TX"},{"name":"Josiah Molden","year":2027,"position":"CB","stars":null,"rating_247":90.0,"committed_to":"Oregon","lat":43.9336,"lng":-120.5583,"hometown_city":"West Linn","hometown_state":"OR"},{"name":"Bryce Williams","year":2027,"position":"CB","stars":null,"rating_247":90.0,"committed_to":"Nebraska","lat":28.6305,"lng":-82.4497,"hometown_city":"Fort Lauderdale","hometown_state":"FL"},{"name":"Bryce Williams","year":2027,"position":"CB","stars":null,"rating_247":90.0,"committed_to":"Nebraska","lat":28.6305,"lng":-82.4497,"hometown_city":"Fort Lauderdale","hometown_state":"FL"},{"name":"Chase Johnson","year":2027,"position":"CB","stars":null,"rating_247":89.0,"committed_to":"Virginia Tech","lat":32.6415,"lng":-83.4426,"hometown_city":"Twin City","hometown_state":"GA"},{"name":"MJ Burnett","year":2027,"position":"CB","stars":null,"rating_247":89.0,"committed_to":"Georgia Tech","lat":32.6415,"lng":-83.4426,"hometown_city":"Marietta","hometown_state":"GA"},{"name":"Jailen Hill","year":2027,"position":"CB","stars":null,"rating_247":88.0,"committed_to":null,"lat":37.1841,"lng":-119.4696,"hometown_city":"Bellflower","hometown_state":"CA"},{"name":"Jaden Carey","year":2027,"position":"CB","stars":null,"rating_247":88.0,"committed_to":null,"lat":28.6305,"lng":-82.4497,"hometown_city":"Fort Lauderdale","hometown_state":"FL"},{"name":"Kamauri Whitfield","year":2027,"position":"CB","stars":null,"rating_247":88.0,"committed_to":null,"lat":28.6305,"lng":-82.4497,"hometown_city":"Orlando","hometown_state":"FL"},{"name":"Larry Moon III","year":2027,"position":"CB","stars":null,"rating_247":88.0,"committed_to":null,"lat":28.6305,"lng":-82.4497,"hometown_city":"Bradenton","hometown_state":"FL"},{"name":"Mikyal Davis","year":2027,"position":"CB","stars":null,"rating_247":88.0,"committed_to":"Oklahoma","lat":34.2744,"lng":-111.6602,"hometown_city":"Goodyear","hometown_state":"AZ"},{"name":"Trenton Blaylock","year":2027,"position":"CB","stars":null,"rating_247":88.0,"committed_to":null,"lat":31.4757,"lng":-99.3312,"hometown_city":"Humble","hometown_state":"TX"},{"name":"Jacob Whitehead","year":2027,"position":"CB","stars":null,"rating_247":88.0,"committed_to":null,"lat":37.1841,"lng":-119.4696,"hometown_city":"Irvine","hometown_state":"CA"},{"name":"Darius Johnson","year":2027,"position":"CB","stars":null,"rating_247":88.0,"committed_to":"Michigan","lat":37.1841,"lng":-119.4696,"hometown_city":"Riverside","hometown_state":"CA"},