{"2026":[{"name":"Jared Curtis","year":2026,"position":"QB","stars":5,"rating_247":99.0,"committed_to":"Vanderbilt","lat":36.1622296,"lng":-86.7743531,"hometown_city":"Nashville","hometown_state":"TN"},{"name":"Landon Duckworth","year":2026,"position":"QB","stars":4,"rating_247":93.0,"committed_to":"South Carolina","lat":31.5090521,"lng":-87.8944435,"hometown_city":"Jackson","hometown_state":"AL"},{"name":"Will Griffin","year":2026,"position":"QB","stars":4,"rating_247":90.0,"committed_to":"Florida","lat":27.9477595,"lng":-82.458444,"hometown_city":"Tampa","hometown_state":"FL"},{"name":"Dereon Coleman","year":2026,"position":"QB","stars":4,"rating_247":89.0,"committed_to":"Miami","lat":28.5421109,"lng":-81.3790304,"hometown_city":"Orlando","hometown_state":"FL"},{"name":"Noah Grubbs","year":2026,"position":"QB","stars":4,"rating_247":88.0,"committed_to":"Notre Dame","lat":28.756618000000003,"lng":-81.33888382214167,"hometown_city":"Lake Mary","hometown_state":"FL"},{"name":"Hank Hendrix","year":2026,"position":"QB","stars":null,"rating_247":88.0,"committed_to":"Arkansas","lat":34.8938,"lng":-92.4426,"hometown_city":"Fayetteville","hometown_state":"AR"},{"name":"Brady Smigiel","year":2026,"position":"QB","stars":4,"rating_247":88.0,"committed_to":"Michigan","lat":34.183671,"lng":-118.9118302,"hometown_city":"Newbury Park","hometown_state":"CA"},{"name":"Michael Clayton II","year":2026,"position":"QB","stars":null,"rating_247":86.0,"committed_to":"Illinois","lat":28.6305,"lng":-82.4497,"hometown_city":"Miami","hometown_state":"FL"},{"name":"Mason Holtzclaw","year":2026,"position":"QB","stars":3,"rating_247":84.0,"committed_to":"Sam Houston","lat":33.5801103,"lng":-85.0766113,"hometown_city":"Carrollton","hometown_state":"GA"},{"name":"EJ Crowell","year":2026,"position":"RB","stars":null,"rating_247":98.0,"committed_to":"Alabama","lat":32.7794,"lng":-86.8287,"hometown_city":"Jackson","hometown_state":"AL"},{"name":"Savion Hiter","year":2026,"position":"RB","stars":5,"rating_247":98.0,"committed_to":"Michigan","lat":38.010695,"lng":-77.9086068,"hometown_city":"Mineral","hometown_state":"VA"},{"name":"Jonaz Walton","year":2026,"position":"RB","stars":4,"rating_247":93.0,"committed_to":"Notre Dame","lat":33.5801103,"lng":-85.0766113,"hometown_city":"Carrollton","hometown_state":"GA"},{"name":"Javian Osborne","year":2026,"position":"RB","stars":4,"rating_247":92.0,"committed_to":"Notre Dame","lat":32.747893,"lng":-96.4719289,"hometown_city":"Forney","hometown_state":"TX"},{"name":"Jae Lamar","year":2026,"position":"RB","stars":4,"rating_247":91.0,"committed_to":"Georgia","lat":31.179998,"lng":-83.7887928,"hometown_city":"Moultrie","hometown_state":"GA"},{"name":"Messiah Mickens","year":2026,"position":"RB","stars":4,"rating_247":90.0,"committed_to":"Virginia Tech","lat":40.2663107,"lng":-76.8861122,"hometown_city":"Harrisburg","hometown_state":"PA"},{"name":"Carsyn Baker","year":2026,"position":"RB","stars":4,"rating_247":90.0,"committed_to":"Texas A&M","lat":33.5670562,"lng":-84.5810418,"hometown_city":"Fairburn","hometown_state":"GA"},{"name":"Cardae Mack","year":2026,"position":"RB","stars":4,"rating_247":90.0,"committed_to":"Arizona State","lat":29.9988312,"lng":-95.2621553,"hometown_city":"Humble","hometown_state":"TX"},{"name":"Javari Barnett","year":2026,"position":"RB","stars":3,"rating_247":88.0,"committed_to":"Illinois","lat":27.9477595,"lng":-82.458444,"hometown_city":"Tampa","hometown_state":"FL"},{"name":"Javian Mallory","year":2026,"position":"RB","stars":4,"rating_247":88.0,"committed_to":"Miami","lat":26.3586885,"lng":-80.0830984,"hometown_city":"Boca Raton","hometown_state":"FL"},{"name":"Amari Thomas","year":2026,"position":"RB","stars":4,"rating_247":88.0,"committed_to":"Florida State","lat":30.4435293,"lng":-85.0451953,"hometown_city":"Blountstown","hometown_state":"FL"},{"name":"Ja'Michael Jones","year":2026,"position":"RB","stars":3,"rating_247":88.0,"committed_to":"Mississippi","lat":32.3669656,"lng":-86.3006485,"hometown_city":"Montgomery","hometown_state":"AL"},{"name":"Jaeden Hill","year":2026,"position":"RB","stars":3,"rating_247":87.0,"committed_to":"Mississippi State","lat":34.2576067,"lng":-88.7033859,"hometown_city":"Tupelo","hometown_state":"MS"},{"name":"Jayreon Campbell","year":2026,"position":"RB","stars":3,"rating_247":86.0,"committed_to":"Indiana","lat":33.8595492,"lng":-84.683824,"hometown_city":"Powder Springs","hometown_state":"GA"},{"name":"Jayson Franklin","year":2026,"position":"RB","stars":3,"rating_247":86.0,"committed_to":"South Florida","lat":35.0525759,"lng":-78.878292,"hometown_city":"Fayetteville","hometown_state":"NC"},{"name":"Sy'eer Coleman","year":2026,"position":"RB","stars":3,"rating_247":84.0,"committed_to":"Albany","lat":39.9527237,"lng":-75.1635262,"hometown_city":"Philadelphia","hometown_state":"PA"},{"name":"Somourian Wingo","year":2026,"position":"WR","stars":4,"rating_247":97.0,"committed_to":"Miami","lat":29.8946952,"lng":-81.3145395,"hometown_city":"St. Augustine","hometown_state":"FL"},{"name":"Joel Wyatt","year":2026,"position":"WR","stars":4,"rating_247":96.0,"committed_to":"Tennessee","lat":35.845999,"lng":-86.3920452,"hometown_city":"Murfreesboro","hometown_state":"TN"},{"name":"Naeem Burroughs","year":2026,"position":"WR","stars":4,"rating_247":95.0,"committed_to":"Clemson","lat":30.3321838,"lng":-81.655651,"hometown_city":"Jacksonville","hometown_state":"FL"},{"name":"Aaron Gregory","year":2026,"position":"WR","stars":4,"rating_247":94.0,"committed_to":"Texas A&M","lat":33.7514966,"lng":-84.7477136,"hometown_city":"Douglasville","hometown_state":"GA"},{"name":"Travis Johnson","year":2026,"position":"WR","stars":4,"rating_247":94.0,"committed_to":"Michigan","lat":36.7183708,"lng":-76.2466798,"hometown_city":"Chesapeake","hometown_state":"VA"},{"name":"Connor Salmin","year":2026,"position":"WR","stars":4,"rating_247":92.0,"committed_to":"Clemson","lat":39.017936,"lng":-77.2094542,"hometown_city":"Potomac","hometown_state":"MD"},{"name":"Gordon Sellars III","year":2026,"position":"WR","stars":null,"rating_247":92.0,"committed_to":"Clemson","lat":35.5557,"lng":-79.3877,"hometown_city":"Charlotte","hometown_state":"NC"},{"name":"Ryan Mosley","year":2026,"position":"WR","stars":4,"rating_247":90.0,"committed_to":"Georgia","lat":33.5801103,"lng":-85.0766113,"hometown_city":"Carrollton","hometown_state":"GA"},{"name":"Dyzier Carter","year":2026,"position":"WR","stars":4,"rating_247":90.0,"committed_to":"Rutgers","lat":38.010695,"lng":-77.9086068,"hometown_city":"Mineral","hometown_state":"VA"},{"name":"Keeyun Chapman","year":2026,"position":"WR","stars":4,"rating_247":90.0,"committed_to":"North Carolina","lat":31.5090521,"lng":-87.8944435,"hometown_city":"Jackson","hometown_state":"AL"},{"name":"Brayden Robinson","year":2026,"position":"WR","stars":4,"rating_247":90.0,"committed_to":"Notre Dame","lat":32.5117104,"lng":-96.80836332870047,"hometown_city":"Red Oak","hometown_state":"TX"},{"name":"Davion Brown","year":2026,"position":"WR","stars":4,"rating_247":89.0,"committed_to":"Virginia Tech","lat":37.5385087,"lng":-77.43428,"hometown_city":"Richmond","hometown_state":"VA"},{"name":"Amiri Acker","year":2026,"position":"WR","stars":null,"rating_247":89.0,"committed_to":"North Carolina State","lat":33.9169,"lng":-80.8964,"hometown_city":"Iva","hometown_state":"SC"},{"name":"Alex Ward","year":2026,"position":"WR","stars":null,"rating_247":88.0,"committed_to":"Colorado","lat":28.6305,"lng":-82.4497,"hometown_city":"Bradenton","hometown_state":"FL"},{"name":"O'Mari Johnson","year":2026,"position":"WR","stars":3,"rating_247":88.0,"committed_to":null,"lat":32.2990384,"lng":-90.1847691,"hometown_city":"Jackson","hometown_state":"MS"},{"name":"Brady Marchese","year":2026,"position":"WR","stars":4,"rating_247":88.0,"committed_to":"Auburn","lat":34.1650972,"lng":-84.7999383,"hometown_city":"Cartersville","hometown_state":"GA"},{"name":"Tyran Evans","year":2026,"position":"WR","stars":3,"rating_247":87.0,"committed_to":"Miami","lat":35.4817982,"lng":-80.8589501,"hometown_city":"Cornelius","hometown_state":"NC"},{"name":"Nalin Scott","year":2026,"position":"WR","stars":3,"rating_247":87.0,"committed_to":"Nebraska","lat":33.8595492,"lng":-84.683824,"hometown_city":"Powder Springs","hometown_state":"GA"},{"name":"Brody Keefe","year":2026,"position":"WR","stars":3,"rating_247":86.0,"committed_to":"Duke","lat":35.2272,"lng":-80.843083,"hometown_city":"Charlotte","hometown_state":"NC"},{"name":"Christian Ward","year":2026,"position":"WR","stars":3,"rating_247":86.0,"committed_to":"Colorado","lat":27.4989278,"lng":-82.5748194,"hometown_city":"Bradenton","hometown_state":"FL"},{"name":"Jaire Richburg","year":2026,"position":"WR","stars":3,"rating_247":86.0,"committed_to":"North Carolina State","lat":36.1198589,"lng":-80.0736533,"hometown_city":"Kernersville","hometown_state":"NC"},{"name":"Brandon Brown Jr.","year":2026,"position":"WR","stars":3,"rating_247":85.0,"committed_to":"Colorado State","lat":31.1171441,"lng":-97.727796,"hometown_city":"Killeen","hometown_state":"TX"},{"name":"Caden Ramsey","year":2026,"position":"WR","stars":3,"rating_247":85.0,"committed_to":"South Carolina","lat":30.8101924,"lng":-96.1030122,"hometown_city":"Cross","hometown_state":"SC"},{"name":"Stone Furrey","year":2026,"position":"WR","stars":null,"rating_247":83.0,"committed_to":"South Carolina","lat":33.9169,"lng":-80.8964,"hometown_city":"Irmo","hometown_state":"SC"},{"name":"Ty'Jae Clark","year":2026,"position":"WR","stars":null,"rating_247":null,"committed_to":null,"lat":32.6415,"lng":-83.4426,"hometown_city":"Loganville","hometown_state":"GA"},{"name":"Keyon Rice","year":2026,"position":"WR","stars":null,"rating_247":null,"committed_to":null,"lat":39.055,"lng":-76.7909,"hometown_city":"Baltimore","hometown_state":"MD"},{"name":"Kendre Harrison","year":2026,"position":"TE","stars":5,"rating_247":97.0,"committed_to":"Oregon","lat":36.3548586,"lng":-79.6644748,"hometown_city":"Reidsville","hometown_state":"NC"},{"name":"Tilden Riley","year":2026,"position":"TE","stars":3,"rating_247":90.0,"committed_to":"Vanderbilt","lat":33.4918203,"lng":-80.8556476,"hometown_city":"Orangeburg","hometown_state":"SC"},{"name":"Brayden Fogle","year":2026,"position":"TE","stars":4,"rating_247":90.0,"committed_to":"Georgia","lat":40.75839,"lng":-82.5154471,"hometown_city":"Mansfield","hometown_state":"OH"},{"name":"Xavier Tiller","year":2026,"position":"TE","stars":4,"rating_247":90.0,"committed_to":"Florida State","lat":33.5670562,"lng":-84.5810418,"hometown_city":"Fairburn","hometown_state":"GA"},{"name":"Heze Kent","year":2026,"position":"TE","stars":4,"rating_247":90.0,"committed_to":"Florida","lat":31.1499528,"lng":-81.4914894,"hometown_city":"Brunswick","hometown_state":"GA"},{"name":"Corbyn Fordham","year":2026,"position":"TE","stars":3,"rating_247":88.0,"committed_to":"Florida State","lat":30.3321838,"lng":-81.655651,"hometown_city":"Jacksonville","hometown_state":"FL"},{"name":"Damon Hall","year":2026,"position":"TE","stars":null,"rating_247":88.0,"committed_to":"Maryland","lat":39.055,"lng":-76.7909,"hometown_city":"Baltimore","hometown_state":"MD"},{"name":"Jamel Howse","year":2026,"position":"TE","stars":4,"rating_247":88.0,"committed_to":"Appalachian State","lat":34.2753247,"lng":-81.6188633,"hometown_city":"Newberry","hometown_state":"SC"},{"name":"Tex Vaughn","year":2026,"position":"TE","stars":null,"rating_247":88.0,"committed_to":"North Carolina State","lat":35.5557,"lng":-79.3877,"hometown_city":"Kings Mountain","hometown_state":"NC"},{"name":"DJ Howerton","year":2026,"position":"TE","stars":3,"rating_247":87.0,"committed_to":"Rutgers","lat":36.0726355,"lng":-79.7919754,"hometown_city":"Greensboro","hometown_state":"NC"},{"name":"Carter Bashir","year":2026,"position":"TE","stars":3,"rating_247":86.0,"committed_to":"Syracuse","lat":39.9527237,"lng":-75.1635262,"hometown_city":"Philadelphia","hometown_state":"PA"},{"name":"Jude Cascone","year":2026,"position":"TE","stars":3,"rating_247":85.0,"committed_to":"Alabama","lat":33.9528472,"lng":-84.5496148,"hometown_city":"Marietta","hometown_state":"GA"},{"name":"Gabriel Osenda","year":2026,"position":"OT","stars":4,"rating_247":98.0,"committed_to":"Tennessee","lat":35.0457219,"lng":-85.3094883,"hometown_city":"Chattanooga","hometown_state":"TN"},{"name":"Immanuel Iheanacho","year":2026,"position":"OT","stars":5,"rating_247":98.0,"committed_to":"Oregon","lat":39.0461292,"lng":-77.1130097,"hometown_city":"North Bethesda","hometown_state":"MD"},{"name":"PJ Dean","year":2026,"position":"OT","stars":null,"rating_247":95.0,"committed_to":"Georgia","lat":35.5557,"lng":-79.3877,"hometown_city":"Clemmons","hometown_state":"NC"},{"name":"Kamari Blair","year":2026,"position":"OT","stars":4,"rating_247":95.0,"committed_to":"Tennessee","lat":36.5277607,"lng":-87.3588703,"hometown_city":"Clarksville","hometown_state":"TN"},{"name":"Marky Walbridge","year":2026,"position":"OT","stars":4,"rating_247":93.0,"committed_to":"Michigan","lat":42.283431,"lng":-71.2328329,"hometown_city":"Needham","hometown_state":"MA"},{"name":"Zyon Guiles","year":2026,"position":"OT","stars":4,"rating_247":93.0,"committed_to":"South Carolina","lat":33.7537774,"lng":-79.4475566,"hometown_city":"Hemingway","hometown_state":"SC"},{"name":"Joel Ervin","year":2026,"position":"OT","stars":4,"rating_247":92.0,"committed_to":"Miami","lat":26.640628,"lng":-81.8723084,"hometown_city":"Fort Myers","hometown_state":"FL"},{"name":"Grant Wise","year":2026,"position":"OT","stars":4,"rating_247":91.0,"committed_to":"Clemson","lat":30.6324149,"lng":-87.0396881,"hometown_city":"Milton","hometown_state":"FL"},{"name":"Evan Goodwin","year":2026,"position":"OT","stars":4,"rating_247":90.0,"committed_to":"SMU","lat":34.5556489,"lng":-92.5212702,"hometown_city":"Bauxite","hometown_state":"AR"},{"name":"Thomas Wilder","year":2026,"position":"OT","stars":4,"rating_247":90.0,"committed_to":"Virginia Tech","lat":36.8529841,"lng":-75.9774183,"hometown_city":"Virginia Beach","hometown_state":"VA"},{"name":"Graham Houston","year":2026,"position":"OT","stars":4,"rating_247":89.0,"committed_to":"Georgia","lat":34.1206564,"lng":-84.0043513,"hometown_city":"Buford","hometown_state":"GA"},{"name":"Wilson Zierer","year":2026,"position":"OT","stars":4,"rating_247":89.0,"committed_to":"Auburn","lat":34.97479,"lng":-83.30549,"hometown_city":"Rabun Gap","hometown_state":"GA"},{"name":"Chancellor Campbell","year":2026,"position":"OT","stars":3,"rating_247":88.0,"committed_to":"Florida","lat":27.7703796,"lng":-82.6695085,"hometown_city":"St. Petersburg","hometown_state":"FL"},{"name":"Jack Fuchs","year":2026,"position":"OT","stars":3,"rating_247":88.0,"committed_to":"Northwestern","lat":36.3049177,"lng":-86.621443,"hometown_city":"Hendersonville","hometown_state":"TN"},{"name":"J.B. Shabazz","year":2026,"position":"OT","stars":4,"rating_247":88.0,"committed_to":"North Carolina","lat":36.1198589,"lng":-80.0736533,"hometown_city":"Kernersville","hometown_state":"NC"},{"name":"Dominic Harris","year":2026,"position":"OT","stars":3,"rating_247":88.0,"committed_to":"Washington","lat":36.1672559,"lng":-115.1485163,"hometown_city":"Las Vegas","hometown_state":"NV"},{"name":"Jesse Moody","year":2026,"position":"OT","stars":3,"rating_247":86.0,"committed_to":"Maryland","lat":39.9527237,"lng":-75.1635262,"hometown_city":"Philadelphia","hometown_state":"PA"},{"name":"Brody Smith","year":2026,"position":"OT","stars":3,"rating_247":86.0,"committed_to":"North Carolina State","lat":35.7564719,"lng":-83.9704593,"hometown_city":"Maryville","hometown_state":"TN"},{"name":"Dylan Steen","year":2026,"position":"OT","stars":3,"rating_247":85.0,"committed_to":"Mississippi State","lat":26.1223084,"lng":-80.1433786,"hometown_city":"Fort Lauderdale","hometown_state":"FL"},{"name":"Bear McWhorter","year":2026,"position":"OT","stars":null,"rating_247":85.0,"committed_to":"Auburn","lat":32.6415,"lng":-83.4426,"hometown_city":"White","hometown_state":"GA"},{"name":"Tre Aiken","year":2026,"position":"OT","stars":3,"rating_247":85.0,"committed_to":"North Carolina State","lat":34.4726277,"lng":-81.8806562,"hometown_city":"Clinton","hometown_state":"SC"},{"name":"Ashton Mozone","year":2026,"position":"OT","stars":null,"rating_247":85.0,"committed_to":"South Carolina","lat":42.0751,"lng":-93.496,"hometown_city":"Council Bluffs","hometown_state":"IA"},{"name":"Adrian Lamb","year":2026,"position":"OT","stars":null,"rating_247":80.0,"committed_to":"Louisiana State","lat":32.6415,"lng":-83.4426,"hometown_city":"Milledgeville","hometown_state":"GA"},{"name":"Darius Gray","year":2026,"position":"IOL","stars":4,"rating_247":98.0,"committed_to":"South Carolina","lat":37.5385087,"lng":-77.43428,"hometown_city":"Richmond","hometown_state":"VA"},{"name":"Ekene Ogboko","year":2026,"position":"IOL","stars":5,"rating_247":96.0,"committed_to":"Georgia","lat":35.996653,"lng":-78.9018053,"hometown_city":"Durham","hometown_state":"NC"},{"name":"Breck Kolojay","year":2026,"position":"IOL","stars":4,"rating_247":93.0,"committed_to":"Southern California","lat":27.4989278,"lng":-82.5748194,"hometown_city":"Bradenton","hometown_state":"FL"},{"name":"Tyler Merrill","year":2026,"position":"IOL","stars":4,"rating_247":91.0,"committed_to":"Notre Dame","lat":40.2101972,"lng":-77.0047276,"hometown_city":"Mechanicsburg","hometown_state":"PA"},{"name":"Carter Scruggs","year":2026,"position":"IOL","stars":4,"rating_247":90.0,"committed_to":"Clemson","lat":39.1154496,"lng":-77.5645446,"hometown_city":"Leesburg","hometown_state":"VA"},{"name":"Zykie Helton","year":2026,"position":"IOL","stars":3,"rating_247":90.0,"committed_to":"Georgia","lat":33.5801103,"lng":-85.0766113,"hometown_city":"Carrollton","hometown_state":"GA"},{"name":"Champ Smith","year":2026,"position":"IOL","stars":3,"rating_247":89.0,"committed_to":"Illinois","lat":25.7742658,"lng":-80.1936589,"hometown_city":"Miami","hometown_state":"FL"},{"name":"Sam Roseborough","year":2026,"position":"IOL","stars":null,"rating_247":89.0,"committed_to":"Texas A&M","lat":28.6305,"lng":-82.4497,"hometown_city":"Clearwater","hometown_state":"FL"},{"name":"Leo Delaney","year":2026,"position":"IOL","stars":4,"rating_247":89.0,"committed_to":"Clemson","lat":35.2272,"lng":-80.843083,"hometown_city":"Charlotte","hometown_state":"NC"},{"name":"Jarvis Strickland","year":2026,"position":"IOL","stars":4,"rating_247":88.0,"committed_to":"Louisville","lat":37.0833893,"lng":-88.6000478,"hometown_city":"Paducah","hometown_state":"KY"},{"name":"Da'Ron Parks","year":2026,"position":"IOL","stars":4,"rating_247":88.0,"committed_to":"North Carolina","lat":38.417919499999996,"lng":-81.84361448523134,"hometown_city":"Nitro","hometown_state":"WV"},{"name":"Zach Lewis","year":2026,"position":"IOL","stars":null,"rating_247":88.0,"committed_to":"Georgia","lat":32.6415,"lng":-83.4426,"hometown_city":"Suwanee","hometown_state":"GA"},{"name":"Katrell Webb","year":2026,"position":"IOL","stars":3,"rating_247":87.0,"committed_to":"Purdue","lat":34.0514898,"lng":-84.0712997,"hometown_city":"Suwanee","hometown_state":"GA"},{"name":"Desmond Green","year":2026,"position":"IOL","stars":3,"rating_247":87.0,"committed_to":"Florida","lat":33.406361000000004,"lng":-79.92930142942461,"hometown_city":"St. Stephen","hometown_state":"SC"},{"name":"Anthony Baxter","year":2026,"position":"IOL","stars":3,"rating_247":86.0,"committed_to":"South Carolina","lat":34.9248667,"lng":-81.0250784,"hometown_city":"Rock Hill","hometown_state":"SC"},{"name":"David Conner","year":2026,"position":"IOL","stars":null,"rating_247":85.0,"committed_to":null,"lat":32.6415,"lng":-83.4426,"hometown_city":"Cuthbert","hometown_state":"GA"},{"name":"Luke Wafle","year":2026,"position":"Edge","stars":4,"rating_247":99.0,"committed_to":"Southern California","lat":40.3492744,"lng":-74.6592958,"hometown_city":"Princeton","hometown_state":"NJ"},{"name":"Rodney Dunham","year":2026,"position":"Edge","stars":5,"rating_247":98.0,"committed_to":"Notre Dame","lat":35.2272,"lng":-80.843083,"hometown_city":"Charlotte","hometown_state":"NC"},{"name":"Zion Elee","year":2026,"position":"Edge","stars":5,"rating_247":98.0,"committed_to":"Maryland","lat":39.2908816,"lng":-76.610759,"hometown_city":"Baltimore","hometown_state":"MD"},{"name":"Julian Walker","year":2026,"position":"Edge","stars":4,"rating_247":97.0,"committed_to":"South Carolina","lat":34.08846885,"lng":-81.18021121302588,"hometown_city":"Irmo","hometown_state":"SC"},{"name":"LaDamion Guyton","year":2026,"position":"Edge","stars":5,"rating_247":97.0,"committed_to":"Texas Tech","lat":32.0809263,"lng":-81.0911768,"hometown_city":"Savannah","hometown_state":"GA"},{"name":"Tristian Givens","year":2026,"position":"Edge","stars":4,"rating_247":97.0,"committed_to":"Texas A&M","lat":32.4609764,"lng":-84.9877094,"hometown_city":"Columbus","hometown_state":"GA"},{"name":"Jake Kreul","year":2026,"position":"Edge","stars":4,"rating_247":96.0,"committed_to":"Oklahoma","lat":27.4989278,"lng":-82.5748194,"hometown_city":"Bradenton","hometown_state":"FL"},{"name":"Jaquez Wilkes","year":2026,"position":"Edge","stars":4,"rating_247":96.0,"committed_to":"Auburn","lat":33.1215089,"lng":-85.5663432,"hometown_city":"Wadley","hometown_state":"AL"},{"name":"Trenton Henderson","year":2026,"position":"Edge","stars":4,"rating_247":95.0,"committed_to":"Louisiana State","lat":30.421309,"lng":-87.2169149,"hometown_city":"Pensacola","hometown_state":"FL"},{"name":"Ebenezer Ewetade","year":2026,"position":"Edge","stars":4,"rating_247":93.0,"committed_to":"Notre Dame","lat":35.7112642,"lng":-78.6141709,"hometown_city":"Garner","hometown_state":"NC"},{"name":"Khamari Brooks","year":2026,"position":"Edge","stars":4,"rating_247":91.0,"committed_to":"Georgia","lat":33.949281,"lng":-83.534608,"hometown_city":"Bogart","hometown_state":"GA"},{"name":"Dre Quinn","year":2026,"position":"Edge","stars":4,"rating_247":91.0,"committed_to":"Ohio State","lat":34.1206564,"lng":-84.0043513,"hometown_city":"Buford","hometown_state":"GA"},{"name":"Breeze Carter","year":2026,"position":"Edge","stars":null,"rating_247":91.0,"committed_to":"Tennessee","lat":32.6415,"lng":-83.4426,"hometown_city":"Douglasville","hometown_state":"GA"},{"name":"Elijah Littlejohn","year":2026,"position":"Edge","stars":4,"rating_247":90.0,"committed_to":"Georgia","lat":35.2272,"lng":-80.843083,"hometown_city":"Charlotte","hometown_state":"NC"},{"name":"Zavion Griffin-Haynes","year":2026,"position":"Edge","stars":3,"rating_247":89.0,"committed_to":"North Carolina","lat":35.9232862,"lng":-78.4573914,"hometown_city":"Rolesville","hometown_state":"NC"},{"name":"Hezekiah Harris","year":2026,"position":"Edge","stars":4,"rating_247":89.0,"committed_to":"Tennessee","lat":34.729847,"lng":-86.5859011,"hometown_city":"Huntsville","hometown_state":"AL"},{"name":"Keenan Britt","year":2026,"position":"Edge","stars":3,"rating_247":89.0,"committed_to":"South Carolina","lat":33.5853695,"lng":-85.91428175037092,"hometown_city":"Oxford","hometown_state":"AL"},{"name":"Cam Brooks","year":2026,"position":"Edge","stars":3,"rating_247":88.0,"committed_to":"Florida State","lat":30.8365815,"lng":-83.9787808,"hometown_city":"Thomasville","hometown_state":"GA"},{"name":"Keysaun Eleazer","year":2026,"position":"Edge","stars":3,"rating_247":88.0,"committed_to":"Stanford","lat":35.7803977,"lng":-78.6390989,"hometown_city":"Raleigh","hometown_state":"NC"},{"name":"Valdin Sone","year":2026,"position":"DL","stars":4,"rating_247":98.0,"committed_to":"Georgia","lat":38.2537414,"lng":-78.5397363,"hometown_city":"Dyke","hometown_state":"VA"},{"name":"Deuce Geralds","year":2026,"position":"DL","stars":4,"rating_247":96.0,"committed_to":"Louisiana State","lat":34.0514898,"lng":-84.0712997,"hometown_city":"Suwanee","hometown_state":"GA"},{"name":"Bryce Perry-Wright","year":2026,"position":"DL","stars":4,"rating_247":96.0,"committed_to":"Texas A&M","lat":34.1206564,"lng":-84.0043513,"hometown_city":"Buford","hometown_state":"GA"},{"name":"Aiden Harris","year":2026,"position":"DL","stars":4,"rating_247":95.0,"committed_to":"South Carolina","lat":35.1170873,"lng":-80.723718,"hometown_city":"Matthews","hometown_state":"NC"},{"name":"Keshawn Stancil","year":2026,"position":"DL","stars":4,"rating_247":95.0,"committed_to":"Miami","lat":35.650711,"lng":-78.4563914,"hometown_city":"Clayton","hometown_state":"NC"},{"name":"Noah Clark","year":2026,"position":"DL","stars":4,"rating_247":94.0,"committed_to":"South Carolina","lat":35.996653,"lng":-78.9018053,"hometown_city":"Durham","hometown_state":"NC"},{"name":"Emanuel Ruffin","year":2026,"position":"DL","stars":4,"rating_247":93.0,"committed_to":"Ohio State","lat":33.3823635,"lng":-86.91720475,"hometown_city":"Bessemer","hometown_state":"AL"},{"name":"James Johnson","year":2026,"position":"DL","stars":4,"rating_247":93.0,"committed_to":"Texas","lat":25.7742658,"lng":-80.1936589,"hometown_city":"Miami","hometown_state":"FL"},{"name":"Vodney Cleveland","year":2026,"position":"DL","stars":4,"rating_247":92.0,"committed_to":"North Carolina","lat":33.5206824,"lng":-86.8024326,"hometown_city":"Birmingham","hometown_state":"AL"},{"name":"Elijah Golden","year":2026,"position":"DL","stars":4,"rating_247":92.0,"committed_to":"Notre Dame","lat":27.3364347,"lng":-82.5306527,"hometown_city":"Sarasota","hometown_state":"FL"},{"name":"Franklin Whitley","year":2026,"position":"DL","stars":4,"rating_247":91.0,"committed_to":"Florida State","lat":34.851354,"lng":-82.3984882,"hometown_city":"Greenville","hometown_state":"SC"},{"name":"Kendall Guervil","year":2026,"position":"DL","stars":4,"rating_247":91.0,"committed_to":"Florida","lat":26.640628,"lng":-81.8723084,"hometown_city":"Fort Myers","hometown_state":"FL"},{"name":"Earnest Rankins","year":2026,"position":"DL","stars":4,"rating_247":91.0,"committed_to":"Florida State","lat":33.7737582,"lng":-84.296069,"hometown_city":"Decatur","hometown_state":"GA"},{"name":"Trashawn Ruffin","year":2026,"position":"DL","stars":null,"rating_247":90.0,"committed_to":"North Carolina","lat":35.5557,"lng":-79.3877,"hometown_city":"Mt. Olive","hometown_state":"NC"},{"name":"Cameron Brickle II","year":2026,"position":"DL","stars":null,"rating_247":89.0,"committed_to":"Maryland","lat":28.6305,"lng":-82.4497,"hometown_city":"Bradenton","hometown_state":"FL"},{"name":"Jermaine Kinsler","year":2026,"position":"DL","stars":4,"rating_247":89.0,"committed_to":"Texas A&M","lat":40.9543943,"lng":-74.0308504,"hometown_city":"Oradell","hometown_state":"NJ"},{"name":"JaReylan McCoy","year":2026,"position":"DL","stars":4,"rating_247":89.0,"committed_to":"Florida","lat":34.2576067,"lng":-88.7033859,"hometown_city":"Tupelo","hometown_state":"MS"},{"name":"Ben Boulware","year":2026,"position":"DL","stars":3,"rating_247":89.0,"committed_to":"North Carolina A&T","lat":36.0998131,"lng":-80.2440518,"hometown_city":"Winston Salem","hometown_state":"NC"},{"name":"Tico Crittendon Jr.","year":2026,"position":"DL","stars":null,"rating_247":89.0,"committed_to":"Mississippi State","lat":32.6415,"lng":-83.4426,"hometown_city":"Lithonia","hometown_state":"GA"},{"name":"Tavian Branch","year":2026,"position":"DL","stars":3,"rating_247":89.0,"committed_to":"Auburn","lat":31.163771,"lng":-85.46863795754717,"hometown_city":"Taylor","hometown_state":"PA"},{"name":"G'Nivre Carr","year":2026,"position":"DL","stars":3,"rating_247":88.0,"committed_to":"Florida","lat":27.4989278,"lng":-82.5748194,"hometown_city":"Bradenton","hometown_state":"FL"},{"name":"Preston Carey","year":2026,"position":"DL","stars":3,"rating_247":88.0,"committed_to":"Georgia","lat":27.4989278,"lng":-82.5748194,"hometown_city":"Bradenton","hometown_state":"FL"},{"name":"Wihtlley Cadeau","year":2026,"position":"DL","stars":3,"rating_247":88.0,"committed_to":"Florida State","lat":33.7490987,"lng":-84.3901849,"hometown_city":"Atlanta","hometown_state":"GA"},{"name":"James Carrington","year":2026,"position":"DL","stars":3,"rating_247":87.0,"committed_to":"Oklahoma","lat":33.6856969,"lng":-117.8259819,"hometown_city":"Irvine","hometown_state":"CA"},{"name":"Brian Harris","year":2026,"position":"DL","stars":3,"rating_247":87.0,"committed_to":"Oklahoma","lat":27.3027501,"lng":-80.4026589,"hometown_city":"St. Johns","hometown_state":"FL"},{"name":"T-Ron Richardson Jr.","year":2026,"position":"DL","stars":null,"rating_247":87.0,"committed_to":"Virginia Tech","lat":37.5215,"lng":-78.8537,"hometown_city":"Hopewell","hometown_state":"VA"},{"name":"Garrett Witherington","year":2026,"position":"DL","stars":3,"rating_247":87.0,"committed_to":"Virginia Tech","lat":33.5206824,"lng":-86.8024326,"hometown_city":"Birmingham","hometown_state":"AL"},{"name":"Tyson Bacon","year":2026,"position":"DL","stars":3,"rating_247":86.0,"committed_to":"Miami","lat":33.3848933,"lng":-86.8070484,"hometown_city":"Hoover","hometown_state":"AL"},{"name":"Seven Cloud","year":2026,"position":"DL","stars":null,"rating_247":86.0,"committed_to":null,"lat":38.4937,"lng":-98.3804,"hometown_city":"El Dorado","hometown_state":"KS"},{"name":"Darrius Simmons","year":2026,"position":"DL","stars":3,"rating_247":85.0,"committed_to":"Cincinnati","lat":30.6255617,"lng":-84.4153769,"hometown_city":"Havana","hometown_state":"FL"},{"name":"Cameron McGee","year":2026,"position":"DL","stars":3,"rating_247":85.0,"committed_to":"Boston College","lat":33.8389977,"lng":-83.9007382,"hometown_city":"Loganville","hometown_state":"GA"},{"name":"Rodney White","year":2026,"position":"DL","stars":3,"rating_247":85.0,"committed_to":"Indiana","lat":39.4018552,"lng":-76.602388,"hometown_city":"Towson","hometown_state":"MD"},{"name":"Zakir Abdul-Salaam","year":2026,"position":"DL","stars":3,"rating_247":85.0,"committed_to":"Kennesaw State","lat":33.8595492,"lng":-84.683824,"hometown_city":"Powder Springs","hometown_state":"GA"},{"name":"James Morrow","year":2026,"position":"DL","stars":null,"rating_247":84.0,"committed_to":"Murray State","lat":28.6305,"lng":-82.4497,"hometown_city":"Bradenton","hometown_state":"FL"},{"name":"Xavier Griffin","year":2026,"position":"LB","stars":5,"rating_247":98.0,"committed_to":"Alabama","lat":34.2978794,"lng":-83.8240663,"hometown_city":"Gainesville","hometown_state":"GA"},{"name":"Tyler Atkinson","year":2026,"position":"LB","stars":5,"rating_247":97.0,"committed_to":"Texas","lat":33.8389977,"lng":-83.9007382,"hometown_city":"Loganville","hometown_state":"GA"},{"name":"Jordan Campbell","year":2026,"position":"LB","stars":4,"rating_247":93.0,"committed_to":"Miami","lat":25.896733849999997,"lng":-80.25949640850294,"hometown_city":"Opa Locka","hometown_state":"FL"},{"name":"Thomas Davis Jr.","year":2026,"position":"LB","stars":4,"rating_247":90.0,"committed_to":"Notre Dame","lat":35.1170873,"lng":-80.723718,"hometown_city":"Matthews","hometown_state":"NC"},{"name":"Nick Abrams II","year":2026,"position":"LB","stars":4,"rating_247":90.0,"committed_to":"Georgia","lat":39.4010753,"lng":-76.796299,"hometown_city":"Owings Mills","hometown_state":"MD"},{"name":"Shadarius Toodle","year":2026,"position":"LB","stars":4,"rating_247":90.0,"committed_to":"Auburn","lat":30.6943566,"lng":-88.0430541,"hometown_city":"Mobile","hometown_state":"AL"},{"name":"Andrew Harris","year":2026,"position":"LB","stars":4,"rating_247":89.0,"committed_to":"South Carolina","lat":35.1170873,"lng":-80.723718,"hometown_city":"Matthews","hometown_state":"NC"},{"name":"Kedric Golston II","year":2026,"position":"LB","stars":4,"rating_247":89.0,"committed_to":"Tennessee","lat":39.0437192,"lng":-77.4874899,"hometown_city":"Ashburn","hometown_state":"VA"},{"name":"Tyson Harley","year":2026,"position":"LB","stars":4,"rating_247":89.0,"committed_to":"Virginia Tech","lat":38.8949855,"lng":-77.0365708,"hometown_city":"Washington","hometown_state":"DC"},{"name":"Ant Davis","year":2026,"position":"LB","stars":null,"rating_247":88.0,"committed_to":"Mississippi","lat":32.6415,"lng":-83.4426,"hometown_city":"Loganville","hometown_state":"GA"},{"name":"Ja'Michael Garrett","year":2026,"position":"LB","stars":null,"rating_247":88.0,"committed_to":"Mississippi","lat":31.0689,"lng":-91.9968,"hometown_city":"Baton Rouge","hometown_state":"LA"},{"name":"Rodney Colton Jr.","year":2026,"position":"LB","stars":null,"rating_247":87.0,"committed_to":"Colorado","lat":32.6415,"lng":-83.4426,"hometown_city":"Newnan","hometown_state":"GA"},{"name":"Adam Balogoun-Ali","year":2026,"position":"LB","stars":4,"rating_247":87.0,"committed_to":"Auburn","lat":26.715364,"lng":-80.0532942,"hometown_city":"West Palm Beach","hometown_state":"FL"},{"name":"Mathieu Lamah","year":2026,"position":"LB","stars":3,"rating_247":87.0,"committed_to":"Virginia Tech","lat":38.6984987,"lng":-77.5800445,"hometown_city":"Nokesville","hometown_state":"VA"},{"name":"Chad Fairchild","year":2026,"position":"LB","stars":3,"rating_247":86.0,"committed_to":"East Carolina","lat":33.3870578,"lng":-84.2829784,"hometown_city":"Hampton","hometown_state":"GA"},{"name":"Bryce Robinson","year":2026,"position":"LB","stars":3,"rating_247":86.0,"committed_to":"Nevada, Las Vegas","lat":33.9528472,"lng":-84.5496148,"hometown_city":"Marietta","hometown_state":"GA"},{"name":"Jorden Edmonds","year":2026,"position":"CB","stars":5,"rating_247":98.0,"committed_to":"Alabama","lat":33.9528472,"lng":-84.5496148,"hometown_city":"Marietta","hometown_state":"GA"},{"name":"Khary Adams","year":2026,"position":"CB","stars":5,"rating_247":97.0,"committed_to":"Notre Dame","lat":39.4018552,"lng":-76.602388,"hometown_city":"Towson","hometown_state":"MD"},{"name":"Zyan Gibson","year":2026,"position":"CB","stars":4,"rating_247":96.0,"committed_to":"Alabama","lat":34.010929,"lng":-85.9989596,"hometown_city":"Gadsden","hometown_state":"AL"},{"name":"Ayden Pouncey","year":2026,"position":"CB","stars":4,"rating_247":96.0,"committed_to":"Notre Dame","lat":26.13784445,"lng":-81.75399813758739,"hometown_city":"Winter Park","hometown_state":"FL"},{"name":"J'Zavien Currence","year":2026,"position":"CB","stars":4,"rating_247":96.0,"committed_to":"South Carolina","lat":34.9248667,"lng":-81.0250784,"hometown_city":"Rock Hill","hometown_state":"SC"},{"name":"Jaelen Waters","year":2026,"position":"CB","stars":4,"rating_247":94.0,"committed_to":"Miami","lat":27.998541000000003,"lng":-82.27488400114905,"hometown_city":"Seffner","hometown_state":"FL"},{"name":"Kosci Barnes","year":2026,"position":"CB","stars":4,"rating_247":94.0,"committed_to":"South Carolina","lat":36.0726355,"lng":-79.7919754,"hometown_city":"Greensboro","hometown_state":"NC"},{"name":"Justice Fitzpatrick","year":2026,"position":"CB","stars":4,"rating_247":92.0,"committed_to":"Georgia","lat":26.1223084,"lng":-80.1433786,"hometown_city":"Fort Lauderdale","hometown_state":"FL"},{"name":"Jaydin Broadnax","year":2026,"position":"CB","stars":4,"rating_247":92.0,"committed_to":"Louisville","lat":26.3586885,"lng":-80.0830984,"hometown_city":"Boca Raton","hometown_state":"FL"},{"name":"Dylan Purter","year":2026,"position":"CB","stars":4,"rating_247":92.0,"committed_to":"Florida","lat":32.4240286,"lng":-85.6916195,"hometown_city":"Tuskegee","hometown_state":"AL"},{"name":"Peyton Dyer","year":2026,"position":"CB","stars":4,"rating_247":91.0,"committed_to":"Southern California","lat":35.0457219,"lng":-85.3094883,"hometown_city":"Chattanooga","hometown_state":"TN"},{"name":"Chaz Smith","year":2026,"position":"CB","stars":null,"rating_247":91.0,"committed_to":"Notre Dame","lat":35.858,"lng":-86.3505,"hometown_city":"Knoxville","hometown_state":"TN"},{"name":"Dorian Barney","year":2026,"position":"CB","stars":4,"rating_247":90.0,"committed_to":"Mississippi","lat":33.5801103,"lng":-85.0766113,"hometown_city":"Carrollton","hometown_state":"GA"},{"name":"Kenton Dopson III","year":2026,"position":"CB","stars":null,"rating_247":90.0,"committed_to":"North Carolina","lat":28.6305,"lng":-82.4497,"hometown_city":"Miami","hometown_state":"FL"},{"name":"Andre Clarke Jr.","year":2026,"position":"CB","stars":4,"rating_247":90.0,"committed_to":"Kentucky","lat":37.5385087,"lng":-77.43428,"hometown_city":"Richmond","hometown_state":"VA"},{"name":"Sean Johnson","year":2026,"position":"CB","stars":3,"rating_247":89.0,"committed_to":"Maryland","lat":39.1278864,"lng":-76.6869128,"hometown_city":"Severn","hometown_state":"MD"},{"name":"Jordan Crutchfield","year":2026,"position":"CB","stars":3,"rating_247":88.0,"committed_to":"Florida State","lat":27.6387163,"lng":-80.3975399,"hometown_city":"Vero Beach","hometown_state":"FL"},{"name":"Nascar McCoy","year":2026,"position":"CB","stars":3,"rating_247":88.0,"committed_to":"Mississippi","lat":34.1206564,"lng":-84.0043513,"hometown_city":"Buford","hometown_state":"GA"},{"name":"Hakim Satterwhite","year":2026,"position":"CB","stars":3,"rating_247":88.0,"committed_to":"Maryland","lat":39.2908816,"lng":-76.610759,"hometown_city":"Baltimore","hometown_state":"MD"},{"name":"KJ Johnson","year":2026,"position":"CB","stars":3,"rating_247":88.0,"committed_to":"South Carolina","lat":33.5206824,"lng":-86.8024326,"hometown_city":"Birmingham","hometown_state":"AL"},{"name":"Jaziel Hart","year":2026,"position":"CB","stars":3,"rating_247":87.0,"committed_to":"North Carolina","lat":37.270973,"lng":-79.9414313,"hometown_city":"Roanoke","hometown_state":"VA"},{"name":"Amauri Polydor","year":2026,"position":"CB","stars":3,"rating_247":87.0,"committed_to":"Virginia Tech","lat":39.2908816,"lng":-76.610759,"hometown_city":"Baltimore","hometown_state":"MD"},{"name":"Elijah Keys","year":2026,"position":"CB","stars":3,"rating_247":86.0,"committed_to":"UCF","lat":30.311908,"lng":-81.3964734,"hometown_city":"Neptune Beach","hometown_state":"FL"},{"name":"Amari Jones","year":2026,"position":"CB","stars":3,"rating_247":86.0,"committed_to":"South Florida","lat":27.4989278,"lng":-82.5748194,"hometown_city":"Bradenton","hometown_state":"FL"},{"name":"Jase Rhodes","year":2026,"position":"CB","stars":3,"rating_247":85.0,"committed_to":"James Madison","lat":37.270973,"lng":-79.9414313,"hometown_city":"Roanoke","hometown_state":"VA"},{"name":"Leonzay Merzius","year":2026,"position":"CB","stars":3,"rating_247":84.0,"committed_to":"Western Kentucky","lat":26.0112014,"lng":-80.1494901,"hometown_city":"Hollywood","hometown_state":"FL"},{"name":"Kevin White","year":2026,"position":"CB","stars":3,"rating_247":84.0,"committed_to":"Wofford","lat":25.7742658,"lng":-80.1936589,"hometown_city":"Miami","hometown_state":"FL"},{"name":"Jaemarree Parker","year":2026,"position":"CB","stars":null,"rating_247":null,"committed_to":null,"lat":37.5215,"lng":-78.8537,"hometown_city":"Chesapeake","hometown_state":"VA"},{"name":"Jireh Edwards","year":2026,"position":"S","stars":5,"rating_247":97.0,"committed_to":"Alabama","lat":38.8165274,"lng":-76.7519753,"hometown_city":"Upper Marlboro","hometown_state":"MD"},{"name":"Polo Anderson","year":2026,"position":"S","stars":null,"rating_247":93.0,"committed_to":"Clemson","lat":33.9169,"lng":-80.8964,"hometown_city":"Roebuck","hometown_state":"SC"},{"name":"Darrell Carey","year":2026,"position":"S","stars":3,"rating_247":92.0,"committed_to":"Maryland","lat":38.9529442,"lng":-76.9408647,"hometown_city":"Hyattsville","hometown_state":"MD"},{"name":"Xavier Lherisse","year":2026,"position":"S","stars":4,"rating_247":91.0,"committed_to":"Oregon","lat":28.0836269,"lng":-80.6081089,"hometown_city":"Melbourne","hometown_state":"FL"},{"name":"Tamarion Watkins","year":2026,"position":"S","stars":4,"rating_247":90.0,"committed_to":"Texas A&M","lat":34.9248667,"lng":-81.0250784,"hometown_city":"Rock Hill","hometown_state":"SC"},{"name":"Chris Hewitt Jr.","year":2026,"position":"S","stars":3,"rating_247":89.0,"committed_to":"Georgia Tech","lat":39.4018552,"lng":-76.602388,"hometown_city":"Towson","hometown_state":"MD"},{"name":"Triston Lewis","year":2026,"position":"S","stars":3,"rating_247":89.0,"committed_to":"South Carolina","lat":34.1954001,"lng":-82.1617883,"hometown_city":"Greenwood","hometown_state":"SC"},{"name":"Jowell Combay","year":2026,"position":"S","stars":3,"rating_247":89.0,"committed_to":"Tennessee","lat":33.9528472,"lng":-84.5496148,"hometown_city":"Marietta","hometown_state":"GA"},{"name":"Cortez Redding","year":2026,"position":"S","stars":4,"rating_247":88.0,"committed_to":"Miami","lat":33.5215013,"lng":-84.3538128,"hometown_city":"Jonesboro","hometown_state":"GA"},{"name":"Jamar Owens","year":2026,"position":"S","stars":3,"rating_247":87.0,"committed_to":"Indiana","lat":33.7514966,"lng":-84.7477136,"hometown_city":"Douglasville","hometown_state":"GA"},{"name":"Carter Meadows","year":2026,"position":"ATH","stars":5,"rating_247":98.0,"committed_to":"Michigan","lat":38.8949855,"lng":-77.0365708,"hometown_city":"Washington","hometown_state":"DC"},{"name":"Kaiden Prothro","year":2026,"position":"ATH","stars":4,"rating_247":97.0,"committed_to":"Georgia","lat":33.5378885,"lng":-85.2532818,"hometown_city":"Bowdon","hometown_state":"GA"},{"name":"Mack Sutter","year":2026,"position":"ATH","stars":4,"rating_247":96.0,"committed_to":"Alabama","lat":40.8616513,"lng":-89.6777665,"hometown_city":"Dunlap","hometown_state":"IL"},{"name":"Brayden Rouse","year":2026,"position":"ATH","stars":4,"rating_247":96.0,"committed_to":"Tennessee","lat":33.9528472,"lng":-84.5496148,"hometown_city":"Marietta","hometown_state":"GA"},{"name":"Samari Matthews","year":2026,"position":"ATH","stars":4,"rating_247":94.0,"committed_to":"Texas","lat":35.4817982,"lng":-80.8589501,"hometown_city":"Cornelius","hometown_state":"NC"},{"name":"Derrek Cooper","year":2026,"position":"ATH","stars":4,"rating_247":93.0,"committed_to":"Texas","lat":26.0112014,"lng":-80.1494901,"hometown_city":"Hollywood","hometown_state":"FL"},{"name":"Jordan Thomas","year":2026,"position":"ATH","stars":4,"rating_247":93.0,"committed_to":"Ohio State","lat":40.9543943,"lng":-74.0308504,"hometown_city":"Oradell","hometown_state":"NJ"},{"name":"Tyriq Green","year":2026,"position":"ATH","stars":4,"rating_247":93.0,"committed_to":"Georgia","lat":34.1206564,"lng":-84.0043513,"hometown_city":"Buford","hometown_state":"GA"},{"name":"Sequel Patterson","year":2026,"position":"ATH","stars":4,"rating_247":91.0,"committed_to":"South Carolina","lat":35.0073697,"lng":-80.9450759,"hometown_city":"Fort Mill","hometown_state":"SC"},{"name":"Jackson Ford","year":2026,"position":"ATH","stars":4,"rating_247":91.0,"committed_to":"Penn State","lat":40.034444,"lng":-75.514444,"hometown_city":"Malvern","hometown_state":"PA"},{"name":"Marquez Daniel","year":2026,"position":"ATH","stars":4,"rating_247":91.0,"committed_to":"Florida","lat":32.4240286,"lng":-85.6916195,"hometown_city":"Tuskegee","hometown_state":"AL"},{"name":"Amari Latimer","year":2026,"position":"ATH","stars":4,"rating_247":90.0,"committed_to":"West Virginia","lat":33.4713249,"lng":-84.5972005,"hometown_city":"Tyrone","hometown_state":"GA"},{"name":"Devin Carter","year":2026,"position":"ATH","stars":4,"rating_247":89.0,"committed_to":"Florida State","lat":33.7514966,"lng":-84.7477136,"hometown_city":"Douglasville","hometown_state":"GA"},{"name":"Shavar Young Jr.","year":2026,"position":"ATH","stars":3,"rating_247":88.0,"committed_to":"Clemson","lat":35.9603948,"lng":-83.9210261,"hometown_city":"Knoxville","hometown_state":"TN"},{"name":"Jontavius Wyman","year":2026,"position":"ATH","stars":4,"rating_247":88.0,"committed_to":"Miami","lat":33.5215013,"lng":-84.3538128,"hometown_city":"Jonesboro","hometown_state":"GA"},{"name":"Jamarrion Gordon","year":2026,"position":"ATH","stars":3,"rating_247":88.0,"committed_to":"North Carolina","lat":31.5090521,"lng":-87.8944435,"hometown_city":"Jackson","hometown_state":"AL"},{"name":"Zahir Cobb","year":2026,"position":"ATH","stars":3,"rating_247":88.0,"committed_to":"Maryland","lat":38.8949855,"lng":-77.0365708,"hometown_city":"Washington","hometown_state":"DC"},{"name":"Jaylen Burrell","year":2026,"position":"ATH","stars":3,"rating_247":88.0,"committed_to":"Central State","lat":39.2908816,"lng":-76.610759,"hometown_city":"Baltimore","hometown_state":"MD"},{"name":"Cam Hairston-Taylor","year":2026,"position":"ATH","stars":null,"rating_247":87.0,"committed_to":"Syracuse","lat":37.5215,"lng":-78.8537,"hometown_city":"Roanoke","hometown_state":"VA"},{"name":"DJ Williams","year":2026,"position":"ATH","stars":3,"rating_247":86.0,"committed_to":"Louisville","lat":27.9477595,"lng":-82.458444,"hometown_city":"Tampa","hometown_state":"FL"},{"name":"Braylon Outlaw","year":2026,"position":"ATH","stars":3,"rating_247":86.0,"committed_to":"Georgia Tech","lat":32.272931,"lng":-86.15018999518217,"hometown_city":"Pike Road","hometown_state":"AL"},{"name":"Dallas Brannon","year":2026,"position":"ATH","stars":3,"rating_247":85.0,"committed_to":"Virginia","lat":35.2272,"lng":-80.843083,"hometown_city":"Charlotte","hometown_state":"NC"},{"name":"Ayden Williams","year":2026,"position":"ATH","stars":null,"rating_247":null,"committed_to":null,"lat":32.6415,"lng":-83.4426,"hometown_city":"Alpharetta","hometown_state":"GA"},{"name":"Matthew Oh","year":2026,"position":"LS","stars":null,"rating_247":80.0,"committed_to":"South Carolina","lat":32.6415,"lng":-83.4426,"hometown_city":"Buford","hometown_state":"GA"}],"2027":[{"name":"Trae Taylor","year":2027,"position":"QB","stars":null,"rating_247":98.0,"committed_to":"Nebraska","lat":41.5378,"lng":-99.7951,"hometown_city":"Omaha","hometown_state":"NE"},{"name":"Gunner Rivers","year":2027,"position":"QB","stars":null,"rating_247":94.0,"committed_to":"North Carolina State","lat":32.7794,"lng":-86.8287,"hometown_city":"Fairhope","hometown_state":"AL"},{"name":"Jayce Johnson","year":2027,"position":"QB","stars":null,"rating_247":90.0,"committed_to":"Texas A&M","lat":32.6415,"lng":-83.4426,"hometown_city":"Valdosta","hometown_state":"GA"},{"name":"Trent Seaborn","year":2027,"position":"QB","stars":null,"rating_247":90.0,"committed_to":"Alabama","lat":32.7794,"lng":-86.8287,"hometown_city":"Alabaster","hometown_state":"AL"},{"name":"Jamison Roberts","year":2027,"position":"QB","stars":null,"rating_247":89.0,"committed_to":"Oklahoma","lat":32.7794,"lng":-86.8287,"hometown_city":"Saraland","hometown_state":"AL"},{"name":"Kharim Hughley","year":2027,"position":"QB","stars":null,"rating_247":89.0,"committed_to":"Clemson","lat":32.6415,"lng":-83.4426,"hometown_city":"Gainesville","hometown_state":"GA"},{"name":"Weston Nielsen","year":2027,"position":"QB","stars":null,"rating_247":89.0,"committed_to":"Arizona State","lat":31.4757,"lng":-99.3312,"hometown_city":"Bastrop","hometown_state":"TX"},{"name":"Wonderful Monds IV","year":2027,"position":"QB","stars":null,"rating_247":88.0,"committed_to":"Notre Dame","lat":28.6305,"lng":-82.4497,"hometown_city":"Vero Beach","hometown_state":"FL"},{"name":"Kevin Verpaele","year":2027,"position":"QB","stars":null,"rating_247":87.0,"committed_to":"South Florida","lat":28.6305,"lng":-82.4497,"hometown_city":"Merritt Island","hometown_state":"FL"},{"name":"Ty Knutson","year":2027,"position":"QB","stars":null,"rating_247":87.0,"committed_to":"Texas","lat":31.4757,"lng":-99.3312,"hometown_city":"Spring Branch","hometown_state":"TX"},{"name":"DJ Hunter","year":2027,"position":"QB","stars":null,"rating_247":87.0,"committed_to":null,"lat":32.6415,"lng":-83.4426,"hometown_city":"Buford","hometown_state":"GA"},{"name":"Logan Flaherty","year":2027,"position":"QB","stars":null,"rating_247":86.0,"committed_to":"Florida State","lat":28.6305,"lng":-82.4497,"hometown_city":"Port Charlotte","hometown_state":"FL"},{"name":"William Jackson","year":2027,"position":"QB","stars":null,"rating_247":86.0,"committed_to":"Maryland","lat":28.6305,"lng":-82.4497,"hometown_city":"Orlando","hometown_state":"FL"},{"name":"Derrick Baker","year":2027,"position":"QB","stars":null,"rating_247":86.0,"committed_to":"Tennessee","lat":32.6415,"lng":-83.4426,"hometown_city":"Alpharetta","hometown_state":"GA"},{"name":"Jerry Meyer III","year":2027,"position":"QB","stars":null,"rating_247":85.0,"committed_to":"South Carolina","lat":31.4757,"lng":-99.3312,"hometown_city":"Waxahachie","hometown_state":"TX"},{"name":"Champ Smith","year":2027,"position":"QB","stars":null,"rating_247":84.0,"committed_to":"Harvard","lat":28.6305,"lng":-82.4497,"hometown_city":"Cocoa","hometown_state":"FL"},{"name":"Franklin Richardson","year":2027,"position":"QB","stars":null,"rating_247":null,"committed_to":null,"lat":33.9169,"lng":-80.8964,"hometown_city":"Sumter","hometown_state":"SC"},{"name":"David Gabriel Georges","year":2027,"position":"RB","stars":null,"rating_247":98.0,"committed_to":null,"lat":35.858,"lng":-86.3505,"hometown_city":"Chattanooga","hometown_state":"TN"},{"name":"Landen Williams-Callis","year":2027,"position":"RB","stars":null,"rating_247":95.0,"committed_to":null,"lat":31.4757,"lng":-99.3312,"hometown_city":"Richmond","hometown_state":"TX"},{"name":"SaRod Baker","year":2027,"position":"RB","stars":null,"rating_247":94.0,"committed_to":"Texas Tech","lat":31.4757,"lng":-99.3312,"hometown_city":"DeSoto","hometown_state":"TX"},{"name":"Aiden Gibson","year":2027,"position":"RB","stars":null,"rating_247":93.0,"committed_to":"Penn State","lat":33.9169,"lng":-80.8964,"hometown_city":"Woodruff","hometown_state":"SC"},{"name":"David Segarra","year":2027,"position":"RB","stars":null,"rating_247":91.0,"committed_to":null,"lat":33.9169,"lng":-80.8964,"hometown_city":"Duncan","hometown_state":"SC"},{"name":"Andrew Beard","year":2027,"position":"RB","stars":null,"rating_247":90.0,"committed_to":"Florida","lat":32.6415,"lng":-83.4426,"hometown_city":"Bogart","hometown_state":"GA"},{"name":"Brayden Tyson","year":2027,"position":"RB","stars":null,"rating_247":90.0,"committed_to":"South Carolina","lat":32.6415,"lng":-83.4426,"hometown_city":"Snellville","hometown_state":"GA"},{"name":"Nigel Newkirk","year":2027,"position":"RB","stars":null,"rating_247":89.0,"committed_to":"Alabama","lat":32.6415,"lng":-83.4426,"hometown_city":"Gainesville","hometown_state":"GA"},{"name":"Caden Waye","year":2027,"position":"RB","stars":null,"rating_247":89.0,"committed_to":null,"lat":32.6415,"lng":-83.4426,"hometown_city":"McDonough","hometown_state":"GA"},{"name":"Elijah Kimble","year":2027,"position":"RB","stars":null,"rating_247":89.0,"committed_to":null,"lat":42.9538,"lng":-75.5268,"hometown_city":"Buffalo","hometown_state":"NY"},{"name":"Javarris Warner","year":2027,"position":"RB","stars":null,"rating_247":86.0,"committed_to":"Duke","lat":32.6415,"lng":-83.4426,"hometown_city":"LaGrange","hometown_state":"GA"},{"name":"Trey Stewart","year":2027,"position":"RB","stars":null,"rating_247":86.0,"committed_to":"Kansas","lat":34.8938,"lng":-92.4426,"hometown_city":"Little Rock","hometown_state":"AR"},{"name":"Caleb Mattison","year":2027,"position":"RB","stars":null,"rating_247":86.0,"committed_to":null,"lat":28.6305,"lng":-82.4497,"hometown_city":"Jacksonville","hometown_state":"FL"},{"name":"Joel Bradford","year":2027,"position":"RB","stars":null,"rating_247":null,"committed_to":null,"lat":32.6415,"lng":-83.4426,"hometown_city":"Suwanee","hometown_state":"GA"},{"name":"Monshun Sales","year":2027,"position":"WR","stars":null,"rating_247":98.0,"committed_to":null,"lat":39.8942,"lng":-86.2816,"hometown_city":"Indianapolis","hometown_state":"IN"},{"name":"Jaden Upshaw","year":2027,"position":"WR","stars":null,"rating_247":94.0,"committed_to":"Texas A&M","lat":32.6415,"lng":-83.4426,"hometown_city":"Leesburg","hometown_state":"GA"},{"name":"Kesean Bowman","year":2027,"position":"WR","stars":null,"rating_247":93.0,"committed_to":"Tennessee","lat":35.858,"lng":-86.3505,"hometown_city":"Brentwood","hometown_state":"TN"},{"name":"Deshawn Hall","year":2027,"position":"WR","stars":null,"rating_247":91.0,"committed_to":null,"lat":32.7794,"lng":-86.8287,"hometown_city":"Prattville","hometown_state":"AL"},{"name":"Tre Moore","year":2027,"position":"WR","stars":null,"rating_247":90.0,"committed_to":"Washington","lat":31.4757,"lng":-99.3312,"hometown_city":"Pflugerville","hometown_state":"TX"},{"name":"Amare Patterson","year":2027,"position":"WR","stars":null,"rating_247":90.0,"committed_to":null,"lat":33.9169,"lng":-80.8964,"hometown_city":"Bluffton","hometown_state":"SC"},{"name":"Quentin Burrell","year":2027,"position":"WR","stars":null,"rating_247":90.0,"committed_to":"Michigan","lat":40.0417,"lng":-89.1965,"hometown_city":"Chicago","hometown_state":"IL"},{"name":"Julian Caldwell","year":2027,"position":"WR","stars":null,"rating_247":90.0,"committed_to":"Texas Tech","lat":31.4757,"lng":-99.3312,"hometown_city":"Argyle","hometown_state":"TX"},{"name":"Javien Robinson","year":2027,"position":"WR","stars":null,"rating_247":90.0,"committed_to":"South Carolina","lat":40.8781,"lng":-77.7996,"hometown_city":"McKeesport","hometown_state":"PA"},{"name":"Jabari Watkins","year":2027,"position":"WR","stars":null,"rating_247":90.0,"committed_to":"Arkansas","lat":32.6415,"lng":-83.4426,"hometown_city":"Thomasville","hometown_state":"GA"},{"name":"Trey Haralson","year":2027,"position":"WR","stars":null,"rating_247":89.0,"committed_to":"SMU","lat":31.4757,"lng":-99.3312,"hometown_city":"Tyler","hometown_state":"TX"},{"name":"Chuck Alexander","year":2027,"position":"WR","stars":null,"rating_247":89.0,"committed_to":"Louisville","lat":40.2862,"lng":-82.7937,"hometown_city":"Cincinnati","hometown_state":"OH"},{"name":"Demarcus Brown","year":2027,"position":"WR","stars":null,"rating_247":89.0,"committed_to":"Virginia Tech","lat":37.5215,"lng":-78.8537,"hometown_city":"Roanoke","hometown_state":"VA"},{"name":"Iveon Lewis","year":2027,"position":"WR","stars":null,"rating_247":89.0,"committed_to":"Kentucky","lat":37.5215,"lng":-78.8537,"hometown_city":"Richmond","hometown_state":"VA"},{"name":"Jaiden Kelly-Murray","year":2027,"position":"WR","stars":null,"rating_247":89.0,"committed_to":"Colorado","lat":33.9169,"lng":-80.8964,"hometown_city":"Mount Pleasant","hometown_state":"SC"},{"name":"Taurean Rawlins","year":2027,"position":"WR","stars":null,"rating_247":89.0,"committed_to":"Georgia","lat":32.6415,"lng":-83.4426,"hometown_city":"Atlanta","hometown_state":"GA"},{"name":"Kyren Caldwell","year":2027,"position":"WR","stars":null,"rating_247":88.0,"committed_to":null,"lat":28.6305,"lng":-82.4497,"hometown_city":"Lake City","hometown_state":"FL"},{"name":"Anthony Roberts","year":2027,"position":"WR","stars":null,"rating_247":88.0,"committed_to":"Virginia Tech","lat":35.5557,"lng":-79.3877,"hometown_city":"Rolesville","hometown_state":"NC"},{"name":"Cam Wade","year":2027,"position":"WR","stars":null,"rating_247":88.0,"committed_to":"Virginia Tech","lat":37.5215,"lng":-78.8537,"hometown_city":"Leesburg","hometown_state":"VA"},{"name":"DJ Huggins","year":2027,"position":"WR","stars":null,"rating_247":88.0,"committed_to":"South Carolina","lat":32.6415,"lng":-83.4426,"hometown_city":"Kennesaw","hometown_state":"GA"},{"name":"Joshua Douthard","year":2027,"position":"WR","stars":null,"rating_247":87.0,"committed_to":null,"lat":32.7794,"lng":-86.8287,"hometown_city":"Odenville","hometown_state":"AL"},{"name":"Brody Knowles","year":2027,"position":"WR","stars":null,"rating_247":87.0,"committed_to":null,"lat":31.4757,"lng":-99.3312,"hometown_city":"Southlake","hometown_state":"TX"},{"name":"Donte Dent Jr.","year":2027,"position":"WR","stars":null,"rating_247":87.0,"committed_to":"James Madison","lat":37.5215,"lng":-78.8537,"hometown_city":"Chesapeake","hometown_state":"VA"},{"name":"Khristian Jackson","year":2027,"position":"WR","stars":null,"rating_247":86.0,"committed_to":null,"lat":33.9169,"lng":-80.8964,"hometown_city":"Columbia","hometown_state":"SC"},{"name":"Aden Starling","year":2027,"position":"WR","stars":null,"rating_247":86.0,"committed_to":null,"lat":31.4757,"lng":-99.3312,"hometown_city":"Pearland","hometown_state":"TX"},{"name":"James Bethea","year":2027,"position":"WR","stars":null,"rating_247":86.0,"committed_to":null,"lat":28.6305,"lng":-82.4497,"hometown_city":"Ocala","hometown_state":"FL"},{"name":"Walter Maestre Jr.","year":2027,"position":"WR","stars":null,"rating_247":86.0,"committed_to":null,"lat":32.6415,"lng":-83.4426,"hometown_city":"Sharpsburg","hometown_state":"GA"},{"name":"Keyon Standifer","year":2027,"position":"WR","stars":null,"rating_247":85.0,"committed_to":null,"lat":32.6415,"lng":-83.4426,"hometown_city":"Covington","hometown_state":"GA"},{"name":"Vermont Carmack","year":2027,"position":"WR","stars":null,"rating_247":85.0,"committed_to":null,"lat":35.5557,"lng":-79.3877,"hometown_city":"Greensboro","hometown_state":"NC"},{"name":"Kasir Patterson","year":2027,"position":"WR","stars":null,"rating_247":null,"committed_to":null,"lat":37.5215,"lng":-78.8537,"hometown_city":"Virginia Beach","hometown_state":"VA"},{"name":"Jaxon Dollar","year":2027,"position":"TE","stars":null,"rating_247":98.0,"committed_to":"Georgia","lat":35.5557,"lng":-79.3877,"hometown_city":"Denver","hometown_state":"NC"},{"name":"Seneca Driver","year":2027,"position":"TE","stars":null,"rating_247":94.0,"committed_to":"Oklahoma","lat":37.5347,"lng":-85.3021,"hometown_city":"Danville","hometown_state":"KY"},{"name":"Brock Williams","year":2027,"position":"TE","stars":null,"rating_247":93.0,"committed_to":"Texas","lat":40.0417,"lng":-89.1965,"hometown_city":"Libertyville","hometown_state":"IL"},{"name":"Jack Brown","year":2027,"position":"TE","stars":null,"rating_247":92.0,"committed_to":"Missouri","lat":38.3566,"lng":-92.458,"hometown_city":"St. Charles","hometown_state":"MO"},{"name":"Malik Howard","year":2027,"position":"TE","stars":null,"rating_247":90.0,"committed_to":"Tennessee","lat":35.858,"lng":-86.3505,"hometown_city":"Oak Ridge","hometown_state":"TN"},{"name":"Tommy Douglas","year":2027,"position":"TE","stars":null,"rating_247":89.0,"committed_to":"Florida","lat":40.1907,"lng":-74.6728,"hometown_city":"Princeton","hometown_state":"NJ"},{"name":"Grant Haviland","year":2027,"position":"TE","stars":null,"rating_247":88.0,"committed_to":"Vanderbilt","lat":32.6415,"lng":-83.4426,"hometown_city":"Alpharetta","hometown_state":"GA"},{"name":"Carter Blackwell","year":2027,"position":"TE","stars":null,"rating_247":87.0,"committed_to":"Clemson","lat":32.6415,"lng":-83.4426,"hometown_city":"Leesburg","hometown_state":"GA"},{"name":"Michael Nnabuife","year":2027,"position":"TE","stars":null,"rating_247":86.0,"committed_to":"Alabama","lat":39.055,"lng":-76.7909,"hometown_city":"Baltimore","hometown_state":"MD"},{"name":"Judah Lancaster","year":2027,"position":"TE","stars":null,"rating_247":86.0,"committed_to":"South Carolina","lat":35.858,"lng":-86.3505,"hometown_city":"Brentwood","hometown_state":"TN"},{"name":"Maxwell Hiller","year":2027,"position":"OT","stars":null,"rating_247":98.0,"committed_to":"Florida","lat":40.8781,"lng":-77.7996,"hometown_city":"Coatesville","hometown_state":"PA"},{"name":"Mark Matthews","year":2027,"position":"OT","stars":null,"rating_247":98.0,"committed_to":"Texas A&M","lat":28.6305,"lng":-82.4497,"hometown_city":"Fort Lauderdale","hometown_state":"FL"},{"name":"Oluwasemilore Olubobola","year":2027,"position":"OT","stars":null,"rating_247":98.0,"committed_to":"Notre Dame","lat":40.1907,"lng":-74.6728,"hometown_city":"Jersey City","hometown_state":"NJ"},{"name":"Joshua Sam-Epelle","year":2027,"position":"OT","stars":null,"rating_247":92.0,"committed_to":null,"lat":32.6415,"lng":-83.4426,"hometown_city":"Douglasville","hometown_state":"GA"},{"name":"John Archer","year":2027,"position":"OT","stars":null,"rating_247":91.0,"committed_to":"South Carolina","lat":35.5557,"lng":-79.3877,"hometown_city":"Fayetteville","hometown_state":"NC"},{"name":"Sean Tatum","year":2027,"position":"OT","stars":null,"rating_247":90.0,"committed_to":"Miami","lat":28.6305,"lng":-82.4497,"hometown_city":"Fort Pierce","hometown_state":"FL"},{"name":"Kelsey Adams","year":2027,"position":"OT","stars":null,"rating_247":90.0,"committed_to":"Georgia","lat":32.6415,"lng":-83.4426,"hometown_city":"Fairburn","hometown_state":"GA"},{"name":"Nate Carson","year":2027,"position":"OT","stars":null,"rating_247":90.0,"committed_to":null,"lat":33.9169,"lng":-80.8964,"hometown_city":"Columbia","hometown_state":"SC"},{"name":"Dewey Young","year":2027,"position":"OT","stars":null,"rating_247":90.0,"committed_to":null,"lat":44.3467,"lng":-85.4102,"hometown_city":"Kalamazoo","hometown_state":"MI"},{"name":"Antonio Keefer","year":2027,"position":"OT","stars":null,"rating_247":90.0,"committed_to":"Mississippi","lat":35.858,"lng":-86.3505,"hometown_city":"Memphis","hometown_state":"TN"},{"name":"Princeton Uwaifo","year":2027,"position":"OT","stars":null,"rating_247":90.0,"committed_to":"Tennessee","lat":35.858,"lng":-86.3505,"hometown_city":"Murfreesboro","hometown_state":"TN"},{"name":"Carter Jones","year":2027,"position":"OT","stars":null,"rating_247":90.0,"committed_to":"Clemson","lat":37.5215,"lng":-78.8537,"hometown_city":"Poquoson","hometown_state":"VA"},{"name":"Timi Aliu","year":2027,"position":"OT","stars":null,"rating_247":90.0,"committed_to":"Nebraska","lat":32.6415,"lng":-83.4426,"hometown_city":"Locust Grove","hometown_state":"GA"},{"name":"Junior Saunders","year":2027,"position":"OT","stars":null,"rating_247":90.0,"committed_to":"Virginia Tech","lat":37.5215,"lng":-78.8537,"hometown_city":"Woodberry Forest","hometown_state":"VA"},{"name":"JJ Brown","year":2027,"position":"OT","stars":null,"rating_247":90.0,"committed_to":"Clemson","lat":32.6415,"lng":-83.4426,"hometown_city":"Lilburn","hometown_state":"GA"},{"name":"Miller Westerfield","year":2027,"position":"OT","stars":null,"rating_247":89.0,"committed_to":null,"lat":32.6415,"lng":-83.4426,"hometown_city":"Roswell","hometown_state":"GA"},{"name":"Abram Eisenhower","year":2027,"position":"OT","stars":null,"rating_247":88.0,"committed_to":"Georgia","lat":32.6415,"lng":-83.4426,"hometown_city":"Valdosta","hometown_state":"GA"},{"name":"Hudson Ingalsbe","year":2027,"position":"OT","stars":null,"rating_247":88.0,"committed_to":null,"lat":32.7794,"lng":-86.8287,"hometown_city":"Anniston","hometown_state":"AL"},{"name":"Ty Johnson","year":2027,"position":"OT","stars":null,"rating_247":88.0,"committed_to":"Georgia","lat":33.9169,"lng":-80.8964,"hometown_city":"Mount Pleasant","hometown_state":"SC"},{"name":"Caleb Siler","year":2027,"position":"OT","stars":null,"rating_247":87.0,"committed_to":null,"lat":31.4757,"lng":-99.3312,"hometown_city":"Gunter","hometown_state":"TX"},{"name":"Clayton Lee","year":2027,"position":"OT","stars":null,"rating_247":86.0,"committed_to":null,"lat":28.6305,"lng":-82.4497,"hometown_city":"Callahan","hometown_state":"FL"},{"name":"Stafford Willis","year":2027,"position":"OT","stars":null,"rating_247":86.0,"committed_to":null,"lat":32.7794,"lng":-86.8287,"hometown_city":"Arab","hometown_state":"AL"},{"name":"Jaylen Hill","year":2027,"position":"OT","stars":null,"rating_247":86.0,"committed_to":null,"lat":32.7794,"lng":-86.8287,"hometown_city":"Lanett","hometown_state":"AL"},{"name":"Sebastian Waddell","year":2027,"position":"OT","stars":null,"rating_247":86.0,"committed_to":null,"lat":40.8781,"lng":-77.7996,"hometown_city":"Philadelphia","hometown_state":"PA"},{"name":"Mahlek Marsh","year":2027,"position":"OT","stars":null,"rating_247":null,"committed_to":null,"lat":37.5215,"lng":-78.8537,"hometown_city":"Virginia Beach","hometown_state":"VA"},{"name":"Ismael Camara","year":2027,"position":"IOL","stars":null,"rating_247":98.0,"committed_to":null,"lat":31.4757,"lng":-99.3312,"hometown_city":"Gilmer","hometown_state":"TX"},{"name":"Terrance Smith","year":2027,"position":"IOL","stars":null,"rating_247":95.0,"committed_to":null,"lat":40.8781,"lng":-77.7996,"hometown_city":"Lansdale","hometown_state":"PA"},{"name":"Jordan Agbanoma","year":2027,"position":"IOL","stars":null,"rating_247":91.0,"committed_to":"Nebraska","lat":32.6415,"lng":-83.4426,"hometown_city":"Loganville","hometown_state":"GA"},{"name":"Elijah Hutcheson","year":2027,"position":"IOL","stars":null,"rating_247":91.0,"committed_to":"Florida","lat":37.5215,"lng":-78.8537,"hometown_city":"Roanoke","hometown_state":"VA"},{"name":"Mason Halliman","year":2027,"position":"IOL","stars":null,"rating_247":89.0,"committed_to":"Illinois","lat":40.0417,"lng":-89.1965,"hometown_city":"Frankfort","hometown_state":"IL"},{"name":"Jordan Dillon","year":2027,"position":"IOL","stars":null,"rating_247":88.0,"committed_to":"Georgia Tech","lat":32.6415,"lng":-83.4426,"hometown_city":"Springfield","hometown_state":"GA"},{"name":"Ronald Moore","year":2027,"position":"IOL","stars":null,"rating_247":88.0,"committed_to":"Pittsburgh","lat":32.6415,"lng":-83.4426,"hometown_city":"Suwanee","hometown_state":"GA"},{"name":"KD Jones","year":2027,"position":"IOL","stars":null,"rating_247":88.0,"committed_to":"Nebraska","lat":32.6415,"lng":-83.4426,"hometown_city":"Loganville","hometown_state":"GA"},{"name":"Kyson Mallard","year":2027,"position":"IOL","stars":null,"rating_247":87.0,"committed_to":"Louisville","lat":32.6415,"lng":-83.4426,"hometown_city":"Albany","hometown_state":"GA"},{"name":"Bryson Hurt","year":2027,"position":"IOL","stars":null,"rating_247":87.0,"committed_to":null,"lat":32.6415,"lng":-83.4426,"hometown_city":"Gainesville","hometown_state":"GA"},{"name":"Brady Hull","year":2027,"position":"IOL","stars":null,"rating_247":86.0,"committed_to":"Kentucky","lat":37.5347,"lng":-85.3021,"hometown_city":"Somerset","hometown_state":"KY"},{"name":"Ryan Moore","year":2027,"position":"IOL","stars":null,"rating_247":86.0,"committed_to":null,"lat":32.6415,"lng":-83.4426,"hometown_city":"Tyrone","hometown_state":"GA"},{"name":"Jaxon Elston","year":2027,"position":"IOL","stars":null,"rating_247":86.0,"committed_to":"South Carolina","lat":32.7794,"lng":-86.8287,"hometown_city":"Oxford","hometown_state":"AL"},{"name":"Jackson Cook","year":2027,"position":"IOL","stars":null,"rating_247":86.0,"committed_to":"Texas","lat":31.4757,"lng":-99.3312,"hometown_city":"Austin","hometown_state":"TX"},{"name":"Will Endicott","year":2027,"position":"IOL","stars":null,"rating_247":86.0,"committed_to":"South Carolina","lat":31.4757,"lng":-99.3312,"hometown_city":"Prosper","hometown_state":"TX"},{"name":"Adrian Williams","year":2027,"position":"IOL","stars":null,"rating_247":85.0,"committed_to":"Georgia Tech","lat":28.6305,"lng":-82.4497,"hometown_city":"Jacksonville","hometown_state":"FL"},{"name":"Alijah Jones","year":2027,"position":"IOL","stars":null,"rating_247":85.0,"committed_to":"Rutgers","lat":42.9538,"lng":-75.5268,"hometown_city":"Rochester","hometown_state":"NY"},{"name":"Jordan Carraway","year":2027,"position":"IOL","stars":null,"rating_247":84.0,"committed_to":null,"lat":31.4757,"lng":-99.3312,"hometown_city":"Forney","hometown_state":"TX"},{"name":"DJ Jacobs","year":2027,"position":"Edge","stars":null,"rating_247":98.0,"committed_to":"Ohio State","lat":32.6415,"lng":-83.4426,"hometown_city":"Roswell","hometown_state":"GA"},{"name":"KJ Green","year":2027,"position":"Edge","stars":null,"rating_247":98.0,"committed_to":"Louisiana State","lat":32.6415,"lng":-83.4426,"hometown_city":"Stone Mountain","hometown_state":"GA"},{"name":"Jaiden Bryant","year":2027,"position":"Edge","stars":null,"rating_247":98.0,"committed_to":"Miami","lat":33.9169,"lng":-80.8964,"hometown_city":"Columbia","hometown_state":"SC"},{"name":"Anthony Sweeney","year":2027,"position":"Edge","stars":null,"rating_247":98.0,"committed_to":"Texas Tech","lat":39.055,"lng":-76.7909,"hometown_city":"Baltimore","hometown_state":"MD"},{"name":"Abraham Sesay","year":2027,"position":"Edge","stars":null,"rating_247":98.0,"committed_to":null,"lat":40.8781,"lng":-77.7996,"hometown_city":"Exton","hometown_state":"PA"},{"name":"Mekai Brown","year":2027,"position":"Edge","stars":null,"rating_247":98.0,"committed_to":"Southern California","lat":41.6219,"lng":-72.7273,"hometown_city":"Greenwich","hometown_state":"CT"},{"name":"Rashad Streets","year":2027,"position":"Edge","stars":null,"rating_247":98.0,"committed_to":"Oregon","lat":35.5557,"lng":-79.3877,"hometown_city":"Raleigh","hometown_state":"NC"},{"name":"Chris Whitehead","year":2027,"position":"Edge","stars":null,"rating_247":94.0,"committed_to":null,"lat":37.5215,"lng":-78.8537,"hometown_city":"Chesterfield","hometown_state":"VA"},{"name":"Frederick Ards","year":2027,"position":"Edge","stars":null,"rating_247":94.0,"committed_to":"Texas A&M","lat":28.6305,"lng":-82.4497,"hometown_city":"Orlando","hometown_state":"FL"},{"name":"Aidan O'Neil","year":2027,"position":"Edge","stars":null,"rating_247":93.0,"committed_to":"Notre Dame","lat":40.1907,"lng":-74.6728,"hometown_city":"Ramsey","hometown_state":"NJ"},{"name":"Jabarrius Garror","year":2027,"position":"Edge","stars":null,"rating_247":92.0,"committed_to":null,"lat":32.7794,"lng":-86.8287,"hometown_city":"Mobile","hometown_state":"AL"},{"name":"Jackson Vaughn","year":2027,"position":"Edge","stars":null,"rating_247":92.0,"committed_to":"Notre Dame","lat":40.1907,"lng":-74.6728,"hometown_city":"Oradell","hometown_state":"NJ"},{"name":"Cameron Pritchett","year":2027,"position":"Edge","stars":null,"rating_247":92.0,"committed_to":"Oregon","lat":32.7794,"lng":-86.8287,"hometown_city":"Alabaster","hometown_state":"AL"},{"name":"James Pace III","year":2027,"position":"Edge","stars":null,"rating_247":91.0,"committed_to":null,"lat":39.055,"lng":-76.7909,"hometown_city":"Hyattsville","hometown_state":"MD"},{"name":"Marquis Evans","year":2027,"position":"Edge","stars":null,"rating_247":90.0,"committed_to":null,"lat":32.7794,"lng":-86.8287,"hometown_city":"Hoover","hometown_state":"AL"},{"name":"Marvin Nguetsop","year":2027,"position":"Edge","stars":null,"rating_247":90.0,"committed_to":"Mississippi","lat":41.6219,"lng":-72.7273,"hometown_city":"Oakdale","hometown_state":"CT"},{"name":"Desmond Malpress","year":2027,"position":"Edge","stars":null,"rating_247":90.0,"committed_to":"Clemson","lat":28.6305,"lng":-82.4497,"hometown_city":"Jacksonville","hometown_state":"FL"},{"name":"Success Nwabude","year":2027,"position":"Edge","stars":null,"rating_247":90.0,"committed_to":"Georgia Tech","lat":32.6415,"lng":-83.4426,"hometown_city":"Athens","hometown_state":"GA"},{"name":"Justin Weeks","year":2027,"position":"Edge","stars":null,"rating_247":89.0,"committed_to":null,"lat":32.6415,"lng":-83.4426,"hometown_city":"Douglasville","hometown_state":"GA"},{"name":"T.K. Cunningham","year":2027,"position":"Edge","stars":null,"rating_247":89.0,"committed_to":null,"lat":34.2744,"lng":-111.6602,"hometown_city":"Chandler","hometown_state":"AZ"},{"name":"Chaz Gray","year":2027,"position":"Edge","stars":null,"rating_247":89.0,"committed_to":"Washington","lat":40.1907,"lng":-74.6728,"hometown_city":"Montvale","hometown_state":"NJ"},{"name":"Andrew Rogers","year":2027,"position":"Edge","stars":null,"rating_247":89.0,"committed_to":null,"lat":35.5557,"lng":-79.3877,"hometown_city":"Greensboro","hometown_state":"NC"},{"name":"Rion Jackson","year":2027,"position":"Edge","stars":null,"rating_247":88.0,"committed_to":"Auburn","lat":39.055,"lng":-76.7909,"hometown_city":"Annapolis","hometown_state":"MD"},{"name":"Jaden Wuerth","year":2027,"position":"Edge","stars":null,"rating_247":88.0,"committed_to":"Clemson","lat":33.9169,"lng":-80.8964,"hometown_city":"Irmo","hometown_state":"SC"},{"name":"Alexander Taylor","year":2027,"position":"Edge","stars":null,"rating_247":87.0,"committed_to":"Virginia Tech","lat":39.055,"lng":-76.7909,"hometown_city":"Baltimore","hometown_state":"MD"},{"name":"D'ante Seals","year":2027,"position":"Edge","stars":null,"rating_247":null,"committed_to":"Georgia Southern","lat":32.7794,"lng":-86.8287,"hometown_city":"Trussville","hometown_state":"AL"},{"name":"Maddox Fackel","year":2027,"position":"Edge","stars":null,"rating_247":null,"committed_to":null,"lat":38.9101,"lng":-77.0147,"hometown_city":"Washington","hometown_state":"DC"},{"name":"Karlos May","year":2027,"position":"DL","stars":null,"rating_247":92.0,"committed_to":null,"lat":32.7794,"lng":-86.8287,"hometown_city":"Birmingham","hometown_state":"AL"},{"name":"Cahron Wheeler","year":2027,"position":"DL","stars":null,"rating_247":91.0,"committed_to":"Florida","lat":39.055,"lng":-76.7909,"hometown_city":"Baltimore","hometown_state":"MD"},{"name":"Seth Tillman","year":2027,"position":"DL","stars":null,"rating_247":91.0,"committed_to":null,"lat":33.9169,"lng":-80.8964,"hometown_city":"Rock Hill","hometown_state":"SC"},{"name":"Santana Harvey","year":2027,"position":"DL","stars":null,"rating_247":90.0,"committed_to":"Clemson","lat":28.6305,"lng":-82.4497,"hometown_city":"Lakeland","hometown_state":"FL"},{"name":"Donivan Moore","year":2027,"position":"DL","stars":null,"rating_247":90.0,"committed_to":"Auburn","lat":32.7794,"lng":-86.8287,"hometown_city":"Bessemer","hometown_state":"AL"},{"name":"Joseph Buchanan","year":2027,"position":"DL","stars":null,"rating_247":90.0,"committed_to":"Virginia Tech","lat":39.055,"lng":-76.7909,"hometown_city":"Owings Mills","hometown_state":"MD"},{"name":"Nate Kamba","year":2027,"position":"DL","stars":null,"rating_247":90.0,"committed_to":null,"lat":35.5557,"lng":-79.3877,"hometown_city":"Charlotte","hometown_state":"NC"},{"name":"Elijah Brown","year":2027,"position":"DL","stars":null,"rating_247":89.0,"committed_to":"Kentucky","lat":32.7794,"lng":-86.8287,"hometown_city":"Prattville","hometown_state":"AL"},{"name":"Antwan McKoy","year":2027,"position":"DL","stars":null,"rating_247":89.0,"committed_to":null,"lat":35.5557,"lng":-79.3877,"hometown_city":"St. Pauls","hometown_state":"NC"},{"name":"Griff Galloway","year":2027,"position":"DL","stars":null,"rating_247":88.0,"committed_to":"Kentucky","lat":35.5557,"lng":-79.3877,"hometown_city":"Charlotte","hometown_state":"NC"},{"name":"Jayden Travers","year":2027,"position":"DL","stars":null,"rating_247":88.0,"committed_to":"Nebraska","lat":39.055,"lng":-76.7909,"hometown_city":"Baltimore","hometown_state":"MD"},{"name":"Owen Reilly","year":2027,"position":"DL","stars":null,"rating_247":88.0,"committed_to":"Penn State","lat":39.055,"lng":-76.7909,"hometown_city":"Bel Air","hometown_state":"MD"},{"name":"Waylon Wooten","year":2027,"position":"DL","stars":null,"rating_247":87.0,"committed_to":"Georgia","lat":32.6415,"lng":-83.4426,"hometown_city":"Loganville","hometown_state":"GA"},{"name":"Jesiah Fields","year":2027,"position":"DL","stars":null,"rating_247":87.0,"committed_to":"Louisville","lat":35.5557,"lng":-79.3877,"hometown_city":"Charlotte","hometown_state":"NC"},{"name":"Amir Moore","year":2027,"position":"DL","stars":null,"rating_247":86.0,"committed_to":"North Carolina State","lat":35.5557,"lng":-79.3877,"hometown_city":"Harrells","hometown_state":"NC"},{"name":"Julius LaRosa III","year":2027,"position":"DL","stars":null,"rating_247":86.0,"committed_to":"North Carolina State","lat":28.6305,"lng":-82.4497,"hometown_city":"Jacksonville","hometown_state":"FL"},{"name":"Charles Nance","year":2027,"position":"DL","stars":null,"rating_247":86.0,"committed_to":null,"lat":32.6415,"lng":-83.4426,"hometown_city":"Vienna","hometown_state":"GA"},{"name":"Omarii Sanders","year":2027,"position":"LB","stars":null,"rating_247":94.0,"committed_to":"Vanderbilt","lat":35.858,"lng":-86.3505,"hometown_city":"Nashville","hometown_state":"TN"},{"name":"Kaden Henderson","year":2027,"position":"LB","stars":null,"rating_247":94.0,"committed_to":null,"lat":28.6305,"lng":-82.4497,"hometown_city":"Tampa","hometown_state":"FL"},{"name":"Quinton Cypher","year":2027,"position":"LB","stars":null,"rating_247":90.0,"committed_to":"Ohio State","lat":35.5557,"lng":-79.3877,"hometown_city":"Raleigh","hometown_state":"NC"},{"name":"Noah Glover","year":2027,"position":"LB","stars":null,"rating_247":90.0,"committed_to":"Miami","lat":37.5215,"lng":-78.8537,"hometown_city":"Haymarket","hometown_state":"VA"},{"name":"Ja'Bios Smith","year":2027,"position":"LB","stars":null,"rating_247":90.0,"committed_to":"Florida","lat":32.6415,"lng":-83.4426,"hometown_city":"Swainsboro","hometown_state":"GA"},{"name":"Mikahi Allen","year":2027,"position":"LB","stars":null,"rating_247":90.0,"committed_to":null,"lat":40.1907,"lng":-74.6728,"hometown_city":"Ramsey","hometown_state":"NJ"},{"name":"Jeremiah Culpepper","year":2027,"position":"LB","stars":null,"rating_247":89.0,"committed_to":"Mississippi","lat":32.6415,"lng":-83.4426,"hometown_city":"LaGrange","hometown_state":"GA"},{"name":"Brandon Lockley","year":2027,"position":"LB","stars":null,"rating_247":89.0,"committed_to":"Oregon","lat":40.8781,"lng":-77.7996,"hometown_city":"Philadelphia","hometown_state":"PA"},{"name":"Jackson Ross","year":2027,"position":"LB","stars":null,"rating_247":89.0,"committed_to":null,"lat":33.9169,"lng":-80.8964,"hometown_city":"Columbia","hometown_state":"SC"},{"name":"Jalaythan Mayfield","year":2027,"position":"LB","stars":null,"rating_247":88.0,"committed_to":null,"lat":35.5557,"lng":-79.3877,"hometown_city":"Lincolnton","hometown_state":"NC"},{"name":"Ellis McGaskin","year":2027,"position":"LB","stars":null,"rating_247":88.0,"committed_to":"Florida","lat":32.7794,"lng":-86.8287,"hometown_city":"Mobile","hometown_state":"AL"},{"name":"Braylon Williams","year":2027,"position":"LB","stars":null,"rating_247":88.0,"committed_to":"SMU","lat":31.4757,"lng":-99.3312,"hometown_city":"Arlington","hometown_state":"TX"},{"name":"Kaden Woodie","year":2027,"position":"LB","stars":null,"rating_247":86.0,"committed_to":null,"lat":28.6305,"lng":-82.4497,"hometown_city":"Port Orange","hometown_state":"FL"},{"name":"Xavier Hasan","year":2027,"position":"CB","stars":null,"rating_247":94.0,"committed_to":"Notre Dame","lat":35.5557,"lng":-79.3877,"hometown_city":"Raleigh","hometown_state":"NC"},{"name":"Joshua Dobson","year":2027,"position":"CB","stars":null,"rating_247":94.0,"committed_to":null,"lat":35.5557,"lng":-79.3877,"hometown_city":"Cornelius","hometown_state":"NC"},{"name":"Monsanna Torbert Jr.","year":2027,"position":"CB","stars":null,"rating_247":93.0,"committed_to":null,"lat":40.2862,"lng":-82.7937,"hometown_city":"Cincinnati","hometown_state":"OH"},{"name":"Jerry Outhouse Jr.","year":2027,"position":"CB","stars":null,"rating_247":91.0,"committed_to":"UCLA","lat":31.4757,"lng":-99.3312,"hometown_city":"Fort Worth","hometown_state":"TX"},{"name":"Junior Tu'upo","year":2027,"position":"CB","stars":null,"rating_247":89.0,"committed_to":null,"lat":32.7794,"lng":-86.8287,"hometown_city":"Alabaster","hometown_state":"AL"},{"name":"Kelvin Millington","year":2027,"position":"CB","stars":null,"rating_247":89.0,"committed_to":null,"lat":32.6415,"lng":-83.4426,"hometown_city":"Bogart","hometown_state":"GA"},{"name":"MJ Burnett","year":2027,"position":"CB","stars":null,"rating_247":89.0,"committed_to":"Georgia Tech","lat":32.6415,"lng":-83.4426,"hometown_city":"Marietta","hometown_state":"GA"},{"name":"Aamaury Fountain","year":2027,"position":"CB","stars":null,"rating_247":89.0,"committed_to":"Florida","lat":32.6415,"lng":-83.4426,"hometown_city":"Warner Robins","hometown_state":"GA"},{"name":"Larry Moon III","year":2027,"position":"CB","stars":null,"rating_247":88.0,"committed_to":null,"lat":28.6305,"lng":-82.4497,"hometown_city":"Bradenton","hometown_state":"FL"},{"name":"Emerson Lewis","year":2027,"position":"CB","stars":null,"rating_247":88.0,"committed_to":null,"lat":32.6415,"lng":-83.4426,"hometown_city":"Savannah","hometown_state":"GA"},{"name":"Akedran Crumel","year":2027,"position":"CB","stars":null,"rating_247":88.0,"committed_to":null,"lat":35.5557,"lng":-79.3877,"hometown_city":"Clayton","hometown_state":"NC"},{"name":"Brandon Allen Jr.","year":2027,"position":"CB","stars":null,"rating_247":88.0,"committed_to":"Mississippi State","lat":32.6415,"lng":-83.4426,"hometown_city":"Atlanta","hometown_state":"GA"},{"name":"Khalid Rainer","year":2027,"position":"CB","stars":null,"rating_247":86.0,"committed_to":null,"lat":37.5215,"lng":-78.8537,"hometown_city":"Richmond","hometown_state":"VA"},{"name":"Bryson Brown","year":2027,"position":"CB","stars":null,"rating_247":84.0,"committed_to":"Oklahoma State","lat":35.5889,"lng":-97.4943,"hometown_city":"Broken Arrow","hometown_state":"OK"},{"name":"Davion Jones","year":2027,"position":"S","stars":null,"rating_247":91.0,"committed_to":null,"lat":35.5557,"lng":-79.3877,"hometown_city":"Cornelius","hometown_state":"NC"},{"name":"Kenaz Sullivan","year":2027,"position":"S","stars":null,"rating_247":90.0,"committed_to":null,"lat":37.5215,"lng":-78.8537,"hometown_city":"Springfield","hometown_state":"VA"},{"name":"Jayden Aparicio-Bailey","year":2027,"position":"S","stars":null,"rating_247":90.0,"committed_to":null,"lat":32.7794,"lng":-86.8287,"hometown_city":"Prattville","hometown_state":"AL"},{"name":"Adryan Cole","year":2027,"position":"S","stars":null,"rating_247":90.0,"committed_to":null,"lat":32.6415,"lng":-83.4426,"hometown_city":"Douglasville","hometown_state":"GA"},{"name":"Jernard Albright","year":2027,"position":"S","stars":null,"rating_247":89.0,"committed_to":"Florida State","lat":32.6415,"lng":-83.4426,"hometown_city":"Springfield","hometown_state":"GA"},{"name":"Kennedy Green","year":2027,"position":"S","stars":null,"rating_247":88.0,"committed_to":null,"lat":32.6415,"lng":-83.4426,"hometown_city":"Douglasville","hometown_state":"GA"},{"name":"Marquis Bryant","year":2027,"position":"S","stars":null,"rating_247":88.0,"committed_to":"Kentucky","lat":35.5557,"lng":-79.3877,"hometown_city":"Rolesville","hometown_state":"NC"},{"name":"Robert Geathers III","year":2027,"position":"S","stars":null,"rating_247":88.0,"committed_to":null,"lat":35.5557,"lng":-79.3877,"hometown_city":"Charlotte","hometown_state":"NC"},{"name":"Zayvon Miller","year":2027,"position":"S","stars":null,"rating_247":87.0,"committed_to":"Virginia","lat":37.5215,"lng":-78.8537,"hometown_city":"Richmond","hometown_state":"VA"},{"name":"Aroson Randle Jr.","year":2027,"position":"ATH","stars":null,"rating_247":94.0,"committed_to":"Miami","lat":35.5557,"lng":-79.3877,"hometown_city":"Garner","hometown_state":"NC"},{"name":"Justin Murphy","year":2027,"position":"ATH","stars":null,"rating_247":89.0,"committed_to":null,"lat":32.6415,"lng":-83.4426,"hometown_city":"Atlanta","hometown_state":"GA"},{"name":"Chase Johnson","year":2027,"position":"ATH","stars":null,"rating_247":89.0,"committed_to":"Virginia Tech","lat":32.6415,"lng":-83.4426,"hometown_city":"Twin City","hometown_state":"GA"},{"name":"George Lamons Jr.","year":2027,"position":"ATH","stars":null,"rating_247":89.0,"committed_to":"Auburn","lat":32.6415,"lng":-83.4426,"hometown_city":"Quitman","hometown_state":"GA"},{"name":"Larron Westmoreland","year":2027,"position":"ATH","stars":null,"rating_247":88.0,"committed_to":"Kentucky","lat":37.5347,"lng":-85.3021,"hometown_city":"Louisville","hometown_state":"KY"},{"name":"Trenton McCorvey","year":2027,"position":"ATH","stars":null,"rating_247":87.0,"committed_to":null,"lat":32.7794,"lng":-86.8287,"hometown_city":"Alabaster","hometown_state":"AL"},{"name":"Eltonino Hicks","year":2027,"position":"ATH","stars":null,"rating_247":86.0,"committed_to":"Connecticut","lat":37.5215,"lng":-78.8537,"hometown_city":"Springfield","hometown_state":"VA"},{"name":"Brawley Tuitupou","year":2027,"position":"ATH","stars":null,"rating_247":83.0,"committed_to":null,"lat":39.321,"lng":-111.0937,"hometown_city":"Orem","hometown_state":"UT"}],"2028":[{"name":"Carter Zingelmann","year":2028,"position":"QB","stars":null,"rating_247":90.0,"committed_to":null,"lat":31.4757,"lng":-99.3312,"hometown_city":"Coppell","hometown_state":"TX"},{"name":"Kingston Preyear","year":2028,"position":"QB","stars":null,"rating_247":90.0,"committed_to":null,"lat":32.7794,"lng":-86.8287,"hometown_city":"Alexander City","hometown_state":"AL"},{"name":"Neimann Lawrence","year":2028,"position":"QB","stars":null,"rating_247":90.0,"committed_to":null,"lat":28.6305,"lng":-82.4497,"hometown_city":"Plantation","hometown_state":"FL"},{"name":"Lukas Prock","year":2028,"position":"QB","stars":null,"rating_247":90.0,"committed_to":null,"lat":40.1907,"lng":-74.6728,"hometown_city":"Princeton","hometown_state":"NJ"},{"name":"Kaden Craft","year":2028,"position":"QB","stars":null,"rating_247":90.0,"committed_to":null,"lat":35.5557,"lng":-79.3877,"hometown_city":"Mooresville","hometown_state":"NC"},{"name":"Anthony Turner","year":2028,"position":"QB","stars":null,"rating_247":90.0,"committed_to":null,"lat":37.5215,"lng":-78.8537,"hometown_city":"Virginia Beach","hometown_state":"VA"},{"name":"Graham Simpson","year":2028,"position":"QB","stars":null,"rating_247":89.0,"committed_to":null,"lat":35.858,"lng":-86.3505,"hometown_city":"Martin","hometown_state":"TN"},{"name":"Trey Tagliaferri","year":2028,"position":"QB","stars":null,"rating_247":89.0,"committed_to":null,"lat":40.1907,"lng":-74.6728,"hometown_city":"Oradell","hometown_state":"NJ"},{"name":"Trey Wright","year":2028,"position":"QB","stars":null,"rating_247":88.0,"committed_to":null,"lat":31.4757,"lng":-99.3312,"hometown_city":"Frisco","hometown_state":"TX"},{"name":"Brady Quinn","year":2028,"position":"QB","stars":null,"rating_247":87.0,"committed_to":null,"lat":28.6305,"lng":-82.4497,"hometown_city":"Hollywood","hometown_state":"FL"},{"name":"Dominick Everette","year":2028,"position":"QB","stars":null,"rating_247":null,"committed_to":null,"lat":37.5215,"lng":-78.8537,"hometown_city":"Norfolk","hometown_state":"VA"},{"name":"Carter Morgan","year":2028,"position":"QB","stars":null,"rating_247":null,"committed_to":null,"lat":31.4757,"lng":-99.3312,"hometown_city":"Denton","hometown_state":"TX"},{"name":"Zaiden Jernigan","year":2028,"position":"RB","stars":null,"rating_247":90.0,"committed_to":null,"lat":32.7364,"lng":-89.6678,"hometown_city":"Louisville","hometown_state":"MS"},{"name":"Micah Rhodes","year":2028,"position":"RB","stars":null,"rating_247":90.0,"committed_to":null,"lat":31.4757,"lng":-99.3312,"hometown_city":"Spring","hometown_state":"TX"},{"name":"Zion Coger","year":2028,"position":"RB","stars":null,"rating_247":90.0,"committed_to":null,"lat":32.7794,"lng":-86.8287,"hometown_city":"Jasper","hometown_state":"AL"},{"name":"Zachary Belyeu","year":2028,"position":"RB","stars":null,"rating_247":88.0,"committed_to":null,"lat":32.6415,"lng":-83.4426,"hometown_city":"Kennesaw","hometown_state":"GA"},{"name":"Caiden Bellard","year":2028,"position":"RB","stars":null,"rating_247":null,"committed_to":null,"lat":31.0689,"lng":-91.9968,"hometown_city":"Lafayette","hometown_state":"LA"},{"name":"Brysen Wright","year":2028,"position":"WR","stars":null,"rating_247":95.0,"committed_to":null,"lat":28.6305,"lng":-82.4497,"hometown_city":"Jacksonville","hometown_state":"FL"},{"name":"Jermaine Smith Jr.","year":2028,"position":"WR","stars":null,"rating_247":91.0,"committed_to":null,"lat":39.055,"lng":-76.7909,"hometown_city":"Baltimore","hometown_state":"MD"},{"name":"Braylon Clark","year":2028,"position":"WR","stars":null,"rating_247":91.0,"committed_to":null,"lat":35.5557,"lng":-79.3877,"hometown_city":"Charlotte","hometown_state":"NC"},{"name":"Malachi Lee","year":2028,"position":"WR","stars":null,"rating_247":90.0,"committed_to":null,"lat":37.5215,"lng":-78.8537,"hometown_city":"Chantilly","hometown_state":"VA"},{"name":"Brandon Jefferson","year":2028,"position":"WR","stars":null,"rating_247":90.0,"committed_to":null,"lat":39.055,"lng":-76.7909,"hometown_city":"Baltimore","hometown_state":"MD"},{"name":"Bubba Brown","year":2028,"position":"WR","stars":null,"rating_247":90.0,"committed_to":null,"lat":32.6415,"lng":-83.4426,"hometown_city":"Valdosta","hometown_state":"GA"},{"name":"Tromon Isaac Jr.","year":2028,"position":"WR","stars":null,"rating_247":90.0,"committed_to":null,"lat":28.6305,"lng":-82.4497,"hometown_city":"Hollywood","hometown_state":"FL"},{"name":"Samir Edwards","year":2028,"position":"WR","stars":null,"rating_247":90.0,"committed_to":null,"lat":39.055,"lng":-76.7909,"hometown_city":"Baltimore","hometown_state":"MD"},{"name":"Zyon Robinson","year":2028,"position":"WR","stars":null,"rating_247":90.0,"committed_to":null,"lat":32.6415,"lng":-83.4426,"hometown_city":"Powder Springs","hometown_state":"GA"},{"name":"Jordan Gorham","year":2028,"position":"WR","stars":null,"rating_247":90.0,"committed_to":null,"lat":28.6305,"lng":-82.4497,"hometown_city":"Bradenton","hometown_state":"FL"},{"name":"Jaden Jones","year":2028,"position":"WR","stars":null,"rating_247":90.0,"committed_to":null,"lat":40.8781,"lng":-77.7996,"hometown_city":"Pittsburgh","hometown_state":"PA"},{"name":"Aiden Opore","year":2028,"position":"WR","stars":null,"rating_247":88.0,"committed_to":null,"lat":32.6415,"lng":-83.4426,"hometown_city":"Marietta","hometown_state":"GA"},{"name":"John Matthews","year":2028,"position":"WR","stars":null,"rating_247":88.0,"committed_to":null,"lat":32.6415,"lng":-83.4426,"hometown_city":"Newnan","hometown_state":"GA"},{"name":"Pierce Washington","year":2028,"position":"WR","stars":null,"rating_247":88.0,"committed_to":null,"lat":35.858,"lng":-86.3505,"hometown_city":"Bartlett","hometown_state":"TN"},{"name":"Seven Rashad","year":2028,"position":"WR","stars":null,"rating_247":87.0,"committed_to":null,"lat":32.6415,"lng":-83.4426,"hometown_city":"Buford","hometown_state":"GA"},{"name":"Jhamari Cain","year":2028,"position":"WR","stars":null,"rating_247":null,"committed_to":null,"lat":37.5215,"lng":-78.8537,"hometown_city":"Richmond","hometown_state":"VA"},{"name":"Cameron Hurst","year":2028,"position":"WR","stars":null,"rating_247":null,"committed_to":null,"lat":32.6415,"lng":-83.4426,"hometown_city":"Buford","hometown_state":"GA"},{"name":"Tylan Grimes","year":2028,"position":"WR","stars":null,"rating_247":null,"committed_to":null,"lat":35.5557,"lng":-79.3877,"hometown_city":"Clemmons","hometown_state":"NC"},{"name":"Joseph Gibbs","year":2028,"position":"WR","stars":null,"rating_247":null,"committed_to":null,"lat":35.5557,"lng":-79.3877,"hometown_city":"Haw River","hometown_state":"NC"},{"name":"Jaytn Briles","year":2028,"position":"WR","stars":null,"rating_247":null,"committed_to":null,"lat":31.4757,"lng":-99.3312,"hometown_city":"Fort Worth","hometown_state":"TX"},{"name":"Xevien Brinson","year":2028,"position":"TE","stars":null,"rating_247":90.0,"committed_to":null,"lat":32.6415,"lng":-83.4426,"hometown_city":"Stone Mountain","hometown_state":"GA"},{"name":"Tre Oiler","year":2028,"position":"TE","stars":null,"rating_247":87.0,"committed_to":null,"lat":44.6243,"lng":-89.9941,"hometown_city":"Hartland","hometown_state":"WI"},{"name":"Bennett Conyers","year":2028,"position":"TE","stars":null,"rating_247":null,"committed_to":null,"lat":35.858,"lng":-86.3505,"hometown_city":"Nashville","hometown_state":"TN"},{"name":"Riggs Savage","year":2028,"position":"TE","stars":null,"rating_247":null,"committed_to":null,"lat":33.9169,"lng":-80.8964,"hometown_city":"Greenville","hometown_state":"SC"},{"name":"Gregory Kirwan","year":2028,"position":"TE","stars":null,"rating_247":null,"committed_to":null,"lat":41.6762,"lng":-71.5562,"hometown_city":"North Kingstown","hometown_state":"RI"},{"name":"Grayson Williams","year":2028,"position":"OT","stars":null,"rating_247":90.0,"committed_to":null,"lat":35.5557,"lng":-79.3877,"hometown_city":"Raleigh","hometown_state":"NC"},{"name":"Samuel Bailey","year":2028,"position":"OT","stars":null,"rating_247":90.0,"committed_to":null,"lat":32.7794,"lng":-86.8287,"hometown_city":"Huntsville","hometown_state":"AL"},{"name":"Kweli Fielder","year":2028,"position":"OT","stars":null,"rating_247":90.0,"committed_to":null,"lat":32.6415,"lng":-83.4426,"hometown_city":"Carrollton","hometown_state":"GA"},{"name":"Omari Lawson","year":2028,"position":"OT","stars":null,"rating_247":90.0,"committed_to":"Syracuse","lat":28.6305,"lng":-82.4497,"hometown_city":"Jacksonville","hometown_state":"FL"},{"name":"Tyrie Davis-Winn","year":2028,"position":"OT","stars":null,"rating_247":90.0,"committed_to":null,"lat":40.8781,"lng":-77.7996,"hometown_city":"Drexel Hill","hometown_state":"PA"},{"name":"Keenon Verkerk","year":2028,"position":"OT","stars":null,"rating_247":89.0,"committed_to":null,"lat":32.6415,"lng":-83.4426,"hometown_city":"Powder Springs","hometown_state":"GA"},{"name":"Isaiah Whitehead","year":2028,"position":"OT","stars":null,"rating_247":87.0,"committed_to":null,"lat":37.5215,"lng":-78.8537,"hometown_city":"Chesterfield","hometown_state":"VA"},{"name":"Ty McCurry","year":2028,"position":"OT","stars":null,"rating_247":85.0,"committed_to":null,"lat":31.4757,"lng":-99.3312,"hometown_city":"Southlake","hometown_state":"TX"},{"name":"William Crawford","year":2028,"position":"OT","stars":null,"rating_247":null,"committed_to":null,"lat":38.9101,"lng":-77.0147,"hometown_city":"Washington","hometown_state":"DC"},{"name":"Alvin Holland","year":2028,"position":"OT","stars":null,"rating_247":null,"committed_to":null,"lat":37.5215,"lng":-78.8537,"hometown_city":"Suffolk","hometown_state":"VA"},{"name":"Mac Horton","year":2028,"position":"OT","stars":null,"rating_247":null,"committed_to":null,"lat":31.4757,"lng":-99.3312,"hometown_city":"Lucas","hometown_state":"TX"},{"name":"Jamell Powell Jr.","year":2028,"position":"OT","stars":null,"rating_247":null,"committed_to":null,"lat":37.5215,"lng":-78.8537,"hometown_city":"Richmond","hometown_state":"VA"},{"name":"Major Green","year":2028,"position":"IOL","stars":null,"rating_247":90.0,"committed_to":null,"lat":28.6305,"lng":-82.4497,"hometown_city":"Bradenton","hometown_state":"FL"},{"name":"Bryce Smalls","year":2028,"position":"IOL","stars":null,"rating_247":90.0,"committed_to":null,"lat":39.055,"lng":-76.7909,"hometown_city":"Severn","hometown_state":"MD"},{"name":"Sam Walker","year":2028,"position":"IOL","stars":null,"rating_247":90.0,"committed_to":null,"lat":32.6415,"lng":-83.4426,"hometown_city":"Carrollton","hometown_state":"GA"},{"name":"Jayden Thompson","year":2028,"position":"IOL","stars":null,"rating_247":87.0,"committed_to":null,"lat":31.4757,"lng":-99.3312,"hometown_city":"Lucas","hometown_state":"TX"},{"name":"Joshua Evans","year":2028,"position":"IOL","stars":null,"rating_247":86.0,"committed_to":null,"lat":32.6415,"lng":-83.4426,"hometown_city":"Alpharetta","hometown_state":"GA"},{"name":"Brendan Hall","year":2028,"position":"IOL","stars":null,"rating_247":null,"committed_to":null,"lat":35.5557,"lng":-79.3877,"hometown_city":"Charlotte","hometown_state":"NC"},{"name":"Tyzon Swann","year":2028,"position":"Edge","stars":null,"rating_247":94.0,"committed_to":null,"lat":39.055,"lng":-76.7909,"hometown_city":"Indian Head","hometown_state":"MD"},{"name":"Cassell Cruickshank","year":2028,"position":"Edge","stars":null,"rating_247":92.0,"committed_to":null,"lat":35.5557,"lng":-79.3877,"hometown_city":"Fayetteville","hometown_state":"NC"},{"name":"Keoni Snipes","year":2028,"position":"Edge","stars":null,"rating_247":90.0,"committed_to":null,"lat":32.7794,"lng":-86.8287,"hometown_city":"Saraland","hometown_state":"AL"},{"name":"George Parkinson IV","year":2028,"position":"Edge","stars":null,"rating_247":90.0,"committed_to":null,"lat":40.8781,"lng":-77.7996,"hometown_city":"Malvern","hometown_state":"PA"},{"name":"Luke Nabors","year":2028,"position":"Edge","stars":null,"rating_247":90.0,"committed_to":null,"lat":32.6415,"lng":-83.4426,"hometown_city":"Buford","hometown_state":"GA"},{"name":"Steven McClendon","year":2028,"position":"Edge","stars":null,"rating_247":90.0,"committed_to":null,"lat":32.6415,"lng":-83.4426,"hometown_city":"Douglasville","hometown_state":"GA"},{"name":"Elijah Tillman","year":2028,"position":"Edge","stars":null,"rating_247":90.0,"committed_to":null,"lat":32.6415,"lng":-83.4426,"hometown_city":"Loganville","hometown_state":"GA"},{"name":"Christian Webb-Scott","year":2028,"position":"Edge","stars":null,"rating_247":89.0,"committed_to":null,"lat":33.9169,"lng":-80.8964,"hometown_city":"Anderson","hometown_state":"SC"},{"name":"Tyson Williams","year":2028,"position":"Edge","stars":null,"rating_247":89.0,"committed_to":null,"lat":35.5557,"lng":-79.3877,"hometown_city":"Shelby","hometown_state":"NC"},{"name":"Ismael Schiefer","year":2028,"position":"Edge","stars":null,"rating_247":88.0,"committed_to":null,"lat":28.6305,"lng":-82.4497,"hometown_city":"Bradenton","hometown_state":"FL"},{"name":"Victor Ezeukwu","year":2028,"position":"Edge","stars":null,"rating_247":87.0,"committed_to":null,"lat":40.8781,"lng":-77.7996,"hometown_city":"Philadelphia","hometown_state":"PA"},{"name":"Kylen Pope","year":2028,"position":"Edge","stars":null,"rating_247":85.0,"committed_to":null,"lat":32.6415,"lng":-83.4426,"hometown_city":"Cartersville","hometown_state":"GA"},{"name":"Junious Clay","year":2028,"position":"Edge","stars":null,"rating_247":null,"committed_to":null,"lat":37.5215,"lng":-78.8537,"hometown_city":"Virginia Beach","hometown_state":"VA"},{"name":"Asher Ghioto","year":2028,"position":"DL","stars":null,"rating_247":94.0,"committed_to":null,"lat":28.6305,"lng":-82.4497,"hometown_city":"Jacksonville","hometown_state":"FL"},{"name":"Prince Che","year":2028,"position":"DL","stars":null,"rating_247":93.0,"committed_to":null,"lat":32.6415,"lng":-83.4426,"hometown_city":"Thomasville","hometown_state":"GA"},{"name":"Myles Tate","year":2028,"position":"DL","stars":null,"rating_247":90.0,"committed_to":null,"lat":32.6415,"lng":-83.4426,"hometown_city":"College Park","hometown_state":"GA"},{"name":"Dawson Jacobs","year":2028,"position":"DL","stars":null,"rating_247":90.0,"committed_to":null,"lat":32.6415,"lng":-83.4426,"hometown_city":"Roswell","hometown_state":"GA"},{"name":"Tyrone Elee","year":2028,"position":"DL","stars":null,"rating_247":90.0,"committed_to":null,"lat":39.055,"lng":-76.7909,"hometown_city":"Joppa","hometown_state":"MD"},{"name":"Cory Cunningham","year":2028,"position":"DL","stars":null,"rating_247":90.0,"committed_to":null,"lat":35.5557,"lng":-79.3877,"hometown_city":"Charlotte","hometown_state":"NC"},{"name":"Azhir Waddell","year":2028,"position":"DL","stars":null,"rating_247":90.0,"committed_to":null,"lat":28.6305,"lng":-82.4497,"hometown_city":"Bradenton","hometown_state":"FL"},{"name":"Tory Clark","year":2028,"position":"DL","stars":null,"rating_247":89.0,"committed_to":null,"lat":32.6415,"lng":-83.4426,"hometown_city":"College Park","hometown_state":"GA"},{"name":"Kingston Brown","year":2028,"position":"DL","stars":null,"rating_247":87.0,"committed_to":null,"lat":32.6415,"lng":-83.4426,"hometown_city":"Columbus","hometown_state":"GA"},{"name":"Jamonei Edwards","year":2028,"position":"DL","stars":null,"rating_247":87.0,"committed_to":null,"lat":32.6415,"lng":-83.4426,"hometown_city":"Lithonia","hometown_state":"GA"},{"name":"Bajani Jones","year":2028,"position":"DL","stars":null,"rating_247":86.0,"committed_to":null,"lat":32.6415,"lng":-83.4426,"hometown_city":"Buford","hometown_state":"GA"},{"name":"Antonio Flowers","year":2028,"position":"DL","stars":null,"rating_247":null,"committed_to":null,"lat":35.5557,"lng":-79.3877,"hometown_city":"Charlotte","hometown_state":"NC"},{"name":"Dallas Richardson","year":2028,"position":"DL","stars":null,"rating_247":null,"committed_to":null,"lat":35.5557,"lng":-79.3877,"hometown_city":"St. Pauls","hometown_state":"NC"},{"name":"Braylon Smith","year":2028,"position":"DL","stars":null,"rating_247":null,"committed_to":null,"lat":28.6305,"lng":-82.4497,"hometown_city":"Bradenton","hometown_state":"FL"},{"name":"Darryl Woodson","year":2028,"position":"DL","stars":null,"rating_247":null,"committed_to":null,"lat":37.5215,"lng":-78.8537,"hometown_city":"Richmond","hometown_state":"VA"},{"name":"Flourish Odin","year":2028,"position":"DL","stars":null,"rating_247":null,"committed_to":null,"lat":32.6415,"lng":-83.4426,"hometown_city":"Rabun Gap","hometown_state":"GA"},{"name":"Tahj Gray","year":2028,"position":"LB","stars":null,"rating_247":90.0,"committed_to":null,"lat":40.1907,"lng":-74.6728,"hometown_city":"Montvale","hometown_state":"NJ"},{"name":"Tysir Young","year":2028,"position":"LB","stars":null,"rating_247":90.0,"committed_to":null,"lat":38.9896,"lng":-75.505,"hometown_city":"Middletown","hometown_state":"DE"},