{"2026":[{"name":"Gavin Sidwar","year":2026,"position":"QB","stars":3,"rating_247":89.0,"committed_to":"Missouri","lat":40.0853435,"lng":-75.19402070907555,"hometown_city":"Wyndmoor","hometown_state":"PA"},{"name":"Semaj Beals","year":2026,"position":"QB","stars":3,"rating_247":86.0,"committed_to":"Akron","lat":39.9527237,"lng":-75.1635262,"hometown_city":"Philadelphia","hometown_state":"PA"},{"name":"Brody Norman","year":2026,"position":"QB","stars":3,"rating_247":85.0,"committed_to":"Temple","lat":35.5848596,"lng":-80.8100724,"hometown_city":"Mooresville","hometown_state":"NC"},{"name":"Anthony Coellner","year":2026,"position":"QB","stars":3,"rating_247":84.0,"committed_to":"Boston College","lat":39.9788017,"lng":-86.1189257,"hometown_city":"Carmel","hometown_state":"IN"},{"name":"Kelvin Perkins","year":2026,"position":"QB","stars":3,"rating_247":84.0,"committed_to":"Austin Peay","lat":35.1490215,"lng":-90.0516285,"hometown_city":"Memphis","hometown_state":"TN"},{"name":"Lamar Best","year":2026,"position":"QB","stars":3,"rating_247":84.0,"committed_to":"Temple","lat":41.0467635,"lng":-74.0229173,"hometown_city":"Montvale","hometown_state":"NJ"},{"name":"Brady Palmer","year":2026,"position":"QB","stars":3,"rating_247":83.0,"committed_to":"Temple","lat":26.1223084,"lng":-80.1433786,"hometown_city":"Fort Lauderdale","hometown_state":"FL"},{"name":"Reeve Slone","year":2026,"position":"QB","stars":3,"rating_247":82.0,"committed_to":"Nevada","lat":38.7907339,"lng":-121.2357828,"hometown_city":"Rocklin","hometown_state":"CA"},{"name":"Tanner Vibabul","year":2026,"position":"QB","stars":3,"rating_247":82.0,"committed_to":"James Madison","lat":36.1672559,"lng":-115.1485163,"hometown_city":"Las Vegas","hometown_state":"NV"},{"name":"Jackson Debe","year":2026,"position":"QB","stars":3,"rating_247":null,"committed_to":null,"lat":35.2272,"lng":-80.843083,"hometown_city":"Charlotte","hometown_state":"NC"},{"name":"Savion Hiter","year":2026,"position":"RB","stars":5,"rating_247":98.0,"committed_to":"Michigan","lat":38.010695,"lng":-77.9086068,"hometown_city":"Mineral","hometown_state":"VA"},{"name":"Carsyn Baker","year":2026,"position":"RB","stars":4,"rating_247":90.0,"committed_to":"Texas A&M","lat":33.5670562,"lng":-84.5810418,"hometown_city":"Fairburn","hometown_state":"GA"},{"name":"SirPaul Cheeks","year":2026,"position":"RB","stars":3,"rating_247":89.0,"committed_to":"West Virginia","lat":37.5385087,"lng":-77.43428,"hometown_city":"Richmond","hometown_state":"VA"},{"name":"Braydon Johnson","year":2026,"position":"RB","stars":3,"rating_247":87.0,"committed_to":null,"lat":39.3303357,"lng":-84.408275,"hometown_city":"West Chester","hometown_state":"OH"},{"name":"Chase Enlow","year":2026,"position":"RB","stars":3,"rating_247":87.0,"committed_to":"Buffalo","lat":40.3492744,"lng":-74.6592958,"hometown_city":"Princeton","hometown_state":"NJ"},{"name":"Jayreon Campbell","year":2026,"position":"RB","stars":3,"rating_247":86.0,"committed_to":"Indiana","lat":33.8595492,"lng":-84.683824,"hometown_city":"Powder Springs","hometown_state":"GA"},{"name":"D'Antae Sheffey","year":2026,"position":"RB","stars":3,"rating_247":86.0,"committed_to":"Penn State","lat":40.2663107,"lng":-76.8861122,"hometown_city":"Harrisburg","hometown_state":"PA"},{"name":"Jayden Ford","year":2026,"position":"RB","stars":3,"rating_247":86.0,"committed_to":"Florida International","lat":25.7742658,"lng":-80.1936589,"hometown_city":"Miami","hometown_state":"FL"},{"name":"Najee Calhoun","year":2026,"position":"RB","stars":3,"rating_247":85.0,"committed_to":"Harvard","lat":40.9543943,"lng":-74.0308504,"hometown_city":"Oradell","hometown_state":"NJ"},{"name":"R.J. Blount","year":2026,"position":"RB","stars":null,"rating_247":85.0,"committed_to":"Temple","lat":40.1907,"lng":-74.6728,"hometown_city":"Pennsauken","hometown_state":"NJ"},{"name":"Cam Newton","year":2026,"position":"RB","stars":null,"rating_247":85.0,"committed_to":"Colorado","lat":31.4757,"lng":-99.3312,"hometown_city":"Prosper","hometown_state":"TX"},{"name":"Ameir Morrow","year":2026,"position":"RB","stars":3,"rating_247":84.0,"committed_to":"Temple","lat":40.6501038,"lng":-73.9495823,"hometown_city":"Brooklyn","hometown_state":"NY"},{"name":"Marquez Wimberly","year":2026,"position":"RB","stars":3,"rating_247":85.0,"committed_to":"Washington State","lat":40.7423309,"lng":-75.3112095,"hometown_city":"Nazareth","hometown_state":"PA"},{"name":"Farad Green","year":2026,"position":"RB","stars":null,"rating_247":null,"committed_to":"Army","lat":40.1907,"lng":-74.6728,"hometown_city":"West Orange","hometown_state":"NJ"},{"name":"Calvin Russell III","year":2026,"position":"WR","stars":null,"rating_247":98.0,"committed_to":"Syracuse","lat":28.6305,"lng":-82.4497,"hometown_city":"Miami","hometown_state":"FL"},{"name":"Devin Fitzgerald","year":2026,"position":"WR","stars":4,"rating_247":92.0,"committed_to":"Notre Dame","lat":33.4484367,"lng":-112.0741417,"hometown_city":"Phoenix","hometown_state":"AZ"},{"name":"Jahsiear Rogers","year":2026,"position":"WR","stars":4,"rating_247":90.0,"committed_to":"Oklahoma","lat":39.4496857,"lng":-75.7166811,"hometown_city":"Middletown","hometown_state":"DE"},{"name":"Davion Brown","year":2026,"position":"WR","stars":4,"rating_247":89.0,"committed_to":"Virginia Tech","lat":37.5385087,"lng":-77.43428,"hometown_city":"Richmond","hometown_state":"VA"},{"name":"Quayd Hendryx","year":2026,"position":"WR","stars":3,"rating_247":89.0,"committed_to":"Minnesota","lat":39.769838,"lng":-74.8873855,"hometown_city":"Atco","hometown_state":"NJ"},{"name":"Gary Hadley Jr.","year":2026,"position":"WR","stars":3,"rating_247":88.0,"committed_to":"Tulane","lat":26.1223084,"lng":-80.1433786,"hometown_city":"Fort Lauderdale","hometown_state":"FL"},{"name":"Derrick Salley Jr.","year":2026,"position":"WR","stars":null,"rating_247":88.0,"committed_to":"Kansas State","lat":38.4937,"lng":-98.3804,"hometown_city":"Hutchinson","hometown_state":"KS"},{"name":"Zach Washington","year":2026,"position":"WR","stars":null,"rating_247":87.0,"committed_to":"Michigan State","lat":40.0417,"lng":-89.1965,"hometown_city":"Wheaton","hometown_state":"IL"},{"name":"Tyran Evans","year":2026,"position":"WR","stars":3,"rating_247":87.0,"committed_to":"Miami","lat":35.4817982,"lng":-80.8589501,"hometown_city":"Cornelius","hometown_state":"NC"},{"name":"Dawson Quarterman","year":2026,"position":"WR","stars":3,"rating_247":87.0,"committed_to":"East Carolina","lat":33.8389977,"lng":-83.9007382,"hometown_city":"Loganville","hometown_state":"GA"},{"name":"Zikhere Leaks","year":2026,"position":"WR","stars":3,"rating_247":87.0,"committed_to":"Connecticut","lat":40.2663107,"lng":-76.8861122,"hometown_city":"Harrisburg","hometown_state":"PA"},{"name":"Coen Logan","year":2026,"position":"WR","stars":3,"rating_247":87.0,"committed_to":"Temple","lat":39.2908816,"lng":-76.610759,"hometown_city":"Baltimore","hometown_state":"MD"},{"name":"BJ Garrett","year":2026,"position":"WR","stars":3,"rating_247":87.0,"committed_to":"Syracuse","lat":39.4496857,"lng":-75.7166811,"hometown_city":"Middletown","hometown_state":"DE"},{"name":"Nyqir Helton","year":2026,"position":"WR","stars":3,"rating_247":87.0,"committed_to":"North Carolina","lat":39.769838,"lng":-74.8873855,"hometown_city":"Atco","hometown_state":"NJ"},{"name":"Lavar Keys","year":2026,"position":"WR","stars":3,"rating_247":87.0,"committed_to":"Indiana","lat":38.9529442,"lng":-76.9408647,"hometown_city":"Hyattsville","hometown_state":"MD"},{"name":"Tre'von McGory","year":2026,"position":"WR","stars":3,"rating_247":86.0,"committed_to":"Western Kentucky","lat":35.0867577,"lng":-89.8100858,"hometown_city":"Germantown","hometown_state":"TN"},{"name":"Kortez Rupert","year":2026,"position":"WR","stars":3,"rating_247":86.0,"committed_to":"Indiana","lat":38.6244952,"lng":-90.1509429,"hometown_city":"East St. Louis","hometown_state":"IL"},{"name":"Hunter Watson","year":2026,"position":"WR","stars":3,"rating_247":86.0,"committed_to":"Temple","lat":40.7281575,"lng":-74.0776417,"hometown_city":"Jersey City","hometown_state":"NJ"},{"name":"Deion Thomas","year":2026,"position":"WR","stars":3,"rating_247":86.0,"committed_to":"Missouri State","lat":33.7490987,"lng":-84.3901849,"hometown_city":"Atlanta","hometown_state":"GA"},{"name":"Jaire Richburg","year":2026,"position":"WR","stars":3,"rating_247":86.0,"committed_to":"North Carolina State","lat":36.1198589,"lng":-80.0736533,"hometown_city":"Kernersville","hometown_state":"NC"},{"name":"Elijah Baesa","year":2026,"position":"WR","stars":null,"rating_247":86.0,"committed_to":null,"lat":31.4757,"lng":-99.3312,"hometown_city":"Tyler","hometown_state":"TX"},{"name":"JJ Harrell","year":2026,"position":"WR","stars":null,"rating_247":86.0,"committed_to":"Old Dominion","lat":32.7364,"lng":-89.6678,"hometown_city":"Goodman","hometown_state":"MS"},{"name":"Carmelo Taylor","year":2026,"position":"WR","stars":null,"rating_247":86.0,"committed_to":null,"lat":40.8781,"lng":-77.7996,"hometown_city":"Scranton","hometown_state":"PA"},{"name":"Jani Weir","year":2026,"position":"WR","stars":null,"rating_247":86.0,"committed_to":"Oklahoma State","lat":37.1841,"lng":-119.4696,"hometown_city":"Fullerton","hometown_state":"CA"},{"name":"Brandon Kinsey","year":2026,"position":"WR","stars":3,"rating_247":85.0,"committed_to":"Purdue","lat":25.7742658,"lng":-80.1936589,"hometown_city":"Miami","hometown_state":"FL"},{"name":"Lennox Lemon","year":2026,"position":"WR","stars":3,"rating_247":85.0,"committed_to":"Kent State","lat":40.7967244,"lng":-81.5215093,"hometown_city":"Massillon","hometown_state":"OH"},{"name":"Ash Roberts","year":2026,"position":"WR","stars":3,"rating_247":85.0,"committed_to":"Temple","lat":39.9527237,"lng":-75.1635262,"hometown_city":"Philadelphia","hometown_state":"PA"},{"name":"Logan Barnes","year":2026,"position":"WR","stars":3,"rating_247":85.0,"committed_to":"Connecticut","lat":40.5583739,"lng":-85.6591442,"hometown_city":"Marion","hometown_state":"IN"},{"name":"Aaron Clark","year":2026,"position":"WR","stars":3,"rating_247":85.0,"committed_to":"Buffalo","lat":39.9527237,"lng":-75.1635262,"hometown_city":"Philadelphia","hometown_state":"PA"},{"name":"Santana Carlos","year":2026,"position":"WR","stars":3,"rating_247":84.0,"committed_to":"Western Carolina","lat":26.0112014,"lng":-80.1494901,"hometown_city":"Hollywood","hometown_state":"FL"},{"name":"Malachi Thompson","year":2026,"position":"WR","stars":3,"rating_247":84.0,"committed_to":"West Virginia","lat":38.417919499999996,"lng":-81.84361448523134,"hometown_city":"Nitro","hometown_state":"WV"},{"name":"Scoop Smith","year":2026,"position":"WR","stars":3,"rating_247":83.0,"committed_to":"Miami (OH)","lat":40.4416941,"lng":-79.9900861,"hometown_city":"Pittsburgh","hometown_state":"PA"},{"name":"Devonte Taylor","year":2026,"position":"WR","stars":3,"rating_247":83.0,"committed_to":null,"lat":41.1035786,"lng":-80.6520161,"hometown_city":"Youngstown","hometown_state":"OH"},{"name":"Darius Pope","year":2026,"position":"WR","stars":3,"rating_247":83.0,"committed_to":"Temple","lat":39.4496857,"lng":-75.7166811,"hometown_city":"Middletown","hometown_state":"DE"},{"name":"Eelijah Singleton","year":2026,"position":"WR","stars":null,"rating_247":83.0,"committed_to":"Southern Mississippi","lat":32.7364,"lng":-89.6678,"hometown_city":"Decatur","hometown_state":"MS"},{"name":"Nate Branch","year":2026,"position":"WR","stars":null,"rating_247":82.0,"committed_to":"Appalachian State","lat":32.7364,"lng":-89.6678,"hometown_city":"Fulton","hometown_state":"MS"},{"name":"TaySean Jones","year":2026,"position":"WR","stars":3,"rating_247":81.0,"committed_to":"Old Dominion","lat":38.4222681,"lng":-77.4084067,"hometown_city":"Stafford","hometown_state":"VA"},{"name":"Allex Hill","year":2026,"position":"WR","stars":null,"rating_247":null,"committed_to":"Youngstown State","lat":40.2862,"lng":-82.7937,"hometown_city":"Youngstown","hometown_state":"OH"},{"name":"Jordan Roache","year":2026,"position":"WR","stars":null,"rating_247":null,"committed_to":null,"lat":28.6305,"lng":-82.4497,"hometown_city":"Fort Lauderdale","hometown_state":"FL"},{"name":"Keyon Rice","year":2026,"position":"WR","stars":null,"rating_247":null,"committed_to":null,"lat":39.055,"lng":-76.7909,"hometown_city":"Baltimore","hometown_state":"MD"},{"name":"Keontae Bumpers","year":2026,"position":"WR","stars":null,"rating_247":null,"committed_to":"Norfolk State","lat":37.5215,"lng":-78.8537,"hometown_city":"Suffolk","hometown_state":"VA"},{"name":"Hudson Reasor","year":2026,"position":"WR","stars":null,"rating_247":null,"committed_to":"Colgate","lat":31.4757,"lng":-99.3312,"hometown_city":"Fort Worth","hometown_state":"TX"},{"name":"John-Patrick Oates","year":2026,"position":"TE","stars":3,"rating_247":88.0,"committed_to":"Virginia Tech","lat":40.0853435,"lng":-75.19402070907555,"hometown_city":"Wyndmoor","hometown_state":"PA"},{"name":"Destin Mitchell","year":2026,"position":"TE","stars":3,"rating_247":87.0,"committed_to":null,"lat":39.2908816,"lng":-76.610759,"hometown_city":"Baltimore","hometown_state":"MD"},{"name":"Brady Shust","year":2026,"position":"TE","stars":3,"rating_247":86.0,"committed_to":"Wake Forest","lat":41.0467635,"lng":-74.0229173,"hometown_city":"Montvale","hometown_state":"NJ"},{"name":"Carter Bashir","year":2026,"position":"TE","stars":3,"rating_247":86.0,"committed_to":"Syracuse","lat":39.9527237,"lng":-75.1635262,"hometown_city":"Philadelphia","hometown_state":"PA"},{"name":"Brayden Marko","year":2026,"position":"TE","stars":3,"rating_247":85.0,"committed_to":"Maryland","lat":38.8949855,"lng":-77.0365708,"hometown_city":"Washington","hometown_state":"DC"},{"name":"Colby Simpson","year":2026,"position":"TE","stars":3,"rating_247":85.0,"committed_to":"Tulane","lat":34.1460234,"lng":-118.8061794,"hometown_city":"Westlake Village","hometown_state":"CA"},{"name":"Liam Fuller","year":2026,"position":"TE","stars":3,"rating_247":85.0,"committed_to":"Temple","lat":40.2663107,"lng":-76.8861122,"hometown_city":"Harrisburg","hometown_state":"PA"},{"name":"Derron Gray Jr.","year":2026,"position":"TE","stars":3,"rating_247":85.0,"committed_to":"Bowling Green","lat":39.9622601,"lng":-83.0007065,"hometown_city":"Columbus","hometown_state":"OH"},{"name":"Ryley Zalusky","year":2026,"position":"TE","stars":null,"rating_247":84.0,"committed_to":"South Florida","lat":38.4937,"lng":-98.3804,"hometown_city":"Coffeyville","hometown_state":"KS"},{"name":"James Resar","year":2026,"position":"TE","stars":null,"rating_247":83.0,"committed_to":"Florida International","lat":38.4937,"lng":-98.3804,"hometown_city":"Independence","hometown_state":"KS"},{"name":"Andrew Gillman","year":2026,"position":"TE","stars":null,"rating_247":null,"committed_to":"Pennsylvania","lat":40.1907,"lng":-74.6728,"hometown_city":"Linwood","hometown_state":"NJ"},{"name":"Tyshaun Boyd","year":2026,"position":"TE","stars":null,"rating_247":null,"committed_to":null,"lat":40.1907,"lng":-74.6728,"hometown_city":"Newark","hometown_state":"NJ"},{"name":"Immanuel Iheanacho","year":2026,"position":"OT","stars":5,"rating_247":98.0,"committed_to":"Oregon","lat":39.0461292,"lng":-77.1130097,"hometown_city":"North Bethesda","hometown_state":"MD"},{"name":"Kevin Brown","year":2026,"position":"OT","stars":4,"rating_247":94.0,"committed_to":"West Virginia","lat":40.2663107,"lng":-76.8861122,"hometown_city":"Harrisburg","hometown_state":"PA"},{"name":"Marky Walbridge","year":2026,"position":"OT","stars":4,"rating_247":93.0,"committed_to":"Michigan","lat":42.283431,"lng":-71.2328329,"hometown_city":"Needham","hometown_state":"MA"},{"name":"Tyler Merrill","year":2026,"position":"OT","stars":4,"rating_247":91.0,"committed_to":"Notre Dame","lat":40.2101972,"lng":-77.0047276,"hometown_city":"Mechanicsburg","hometown_state":"PA"},{"name":"Tavian Branch","year":2026,"position":"OT","stars":3,"rating_247":89.0,"committed_to":"Auburn","lat":31.163771,"lng":-85.46863795754717,"hometown_city":"Taylor","hometown_state":"PA"},{"name":"Roseby Lubintus","year":2026,"position":"OT","stars":3,"rating_247":88.0,"committed_to":"Virginia Tech","lat":39.7173375,"lng":-74.9693329,"hometown_city":"Sicklerville","hometown_state":"NJ"},{"name":"Marlen Bright","year":2026,"position":"OT","stars":4,"rating_247":88.0,"committed_to":"Virginia Tech","lat":40.9491723,"lng":-74.2376802,"hometown_city":"Wayne","hometown_state":"NJ"},{"name":"Nick Fiumara","year":2026,"position":"OT","stars":3,"rating_247":87.0,"committed_to":"North Carolina","lat":42.3959296,"lng":-71.1786655,"hometown_city":"Belmont","hometown_state":"MA"},{"name":"Karon Spencer","year":2026,"position":"OT","stars":3,"rating_247":87.0,"committed_to":"Temple","lat":39.1532123,"lng":-77.0668408,"hometown_city":"Olney","hometown_state":"MD"},{"name":"Ben Gula","year":2026,"position":"OT","stars":3,"rating_247":86.0,"committed_to":"Colorado","lat":26.1223084,"lng":-80.1433786,"hometown_city":"Fort Lauderdale","hometown_state":"FL"},{"name":"Mason Mathis","year":2026,"position":"OT","stars":3,"rating_247":86.0,"committed_to":"Auburn","lat":30.6324149,"lng":-87.0396881,"hometown_city":"Milton","hometown_state":"FL"},{"name":"John Watkins","year":2026,"position":"OT","stars":3,"rating_247":86.0,"committed_to":"Temple","lat":39.2908816,"lng":-76.610759,"hometown_city":"Baltimore","hometown_state":"MD"},{"name":"Jonah Rodriguez","year":2026,"position":"OT","stars":null,"rating_247":86.0,"committed_to":"North Carolina","lat":37.1841,"lng":-119.4696,"hometown_city":"Chula Vista","hometown_state":"CA"},{"name":"Dylan Steen","year":2026,"position":"OT","stars":3,"rating_247":85.0,"committed_to":"Mississippi State","lat":26.1223084,"lng":-80.1433786,"hometown_city":"Fort Lauderdale","hometown_state":"FL"},{"name":"Lawrence Iyalekhue","year":2026,"position":"OT","stars":3,"rating_247":85.0,"committed_to":"Boston College","lat":40.9312099,"lng":-73.8987469,"hometown_city":"Yonkers","hometown_state":"NY"},{"name":"Max Vivier","year":2026,"position":"OT","stars":null,"rating_247":85.0,"committed_to":"Colorado State","lat":39.055,"lng":-76.7909,"hometown_city":"Sharpsburg","hometown_state":"MD"},{"name":"Brayden Charney","year":2026,"position":"OT","stars":3,"rating_247":84.0,"committed_to":"Syracuse","lat":26.715364,"lng":-80.0532942,"hometown_city":"West Palm Beach","hometown_state":"FL"},{"name":"Aiden Zilker","year":2026,"position":"OT","stars":3,"rating_247":84.0,"committed_to":"Temple","lat":40.781667,"lng":-76.344444,"hometown_city":"Ashland","hometown_state":"PA"},{"name":"Kison Shepard","year":2026,"position":"OT","stars":null,"rating_247":84.0,"committed_to":"Mississippi State","lat":32.7364,"lng":-89.6678,"hometown_city":"Scooba","hometown_state":"MS"},{"name":"Markus Fetcho","year":2026,"position":"OT","stars":null,"rating_247":84.0,"committed_to":"New Mexico","lat":37.1841,"lng":-119.4696,"hometown_city":"Oakland","hometown_state":"CA"},{"name":"Miles Muldrow","year":2026,"position":"OT","stars":3,"rating_247":84.0,"committed_to":"Delaware","lat":40.2762189,"lng":-74.8490528,"hometown_city":"Somerset","hometown_state":"NJ"},{"name":"Brandon Truszkowski","year":2026,"position":"OT","stars":3,"rating_247":83.0,"committed_to":"Delaware","lat":40.1399717,"lng":-75.210095,"hometown_city":"Fort Washington","hometown_state":"PA"},{"name":"Elijah Diaz","year":2026,"position":"OT","stars":null,"rating_247":null,"committed_to":"Bryant","lat":41.6219,"lng":-72.7273,"hometown_city":"Oakdale","hometown_state":"CT"},{"name":"Josiah Bynum-Smokes","year":2026,"position":"OT","stars":null,"rating_247":null,"committed_to":null,"lat":40.8781,"lng":-77.7996,"hometown_city":"Chester","hometown_state":"PA"},{"name":"Tylan George","year":2026,"position":"IOL","stars":3,"rating_247":92.0,"committed_to":"Tulane","lat":32.5184775,"lng":-92.1476353,"hometown_city":"West Monroe","hometown_state":"LA"},{"name":"Logan Anthony","year":2026,"position":"IOL","stars":3,"rating_247":89.0,"committed_to":"Rutgers","lat":40.8014826,"lng":-75.6101868,"hometown_city":"Palmerton","hometown_state":"PA"},{"name":"Zion Smith","year":2026,"position":"IOL","stars":3,"rating_247":88.0,"committed_to":"North Carolina","lat":38.9529442,"lng":-76.9408647,"hometown_city":"Hyattsville","hometown_state":"MD"},{"name":"Alan Pond","year":2026,"position":"IOL","stars":null,"rating_247":87.0,"committed_to":"Tulsa","lat":42.0751,"lng":-93.496,"hometown_city":"Fort Dodge","hometown_state":"IA"},{"name":"Luke Hatfield","year":2026,"position":"IOL","stars":3,"rating_247":86.0,"committed_to":"Virginia","lat":38.8121398,"lng":-77.6368038,"hometown_city":"Haymarket","hometown_state":"VA"},{"name":"Brendan Alexander","year":2026,"position":"IOL","stars":3,"rating_247":85.0,"committed_to":"Northern Illinois","lat":40.6872885,"lng":-80.2714505,"hometown_city":"Monaca","hometown_state":"PA"},{"name":"Rhett Morris","year":2026,"position":"IOL","stars":3,"rating_247":85.0,"committed_to":"West Virginia","lat":41.0573188,"lng":-74.1409771,"hometown_city":"Ramsey","hometown_state":"NJ"},{"name":"Ben Jones","year":2026,"position":"IOL","stars":3,"rating_247":84.0,"committed_to":"Appalachian State","lat":28.5421109,"lng":-81.3790304,"hometown_city":"Orlando","hometown_state":"FL"},{"name":"Jeremiah Benson","year":2026,"position":"IOL","stars":3,"rating_247":84.0,"committed_to":"Minnesota","lat":42.5679,"lng":-83.3733,"hometown_city":"West Bloomfield","hometown_state":"MI"},{"name":"Cristian Alvarez","year":2026,"position":"IOL","stars":3,"rating_247":83.0,"committed_to":"North Carolina","lat":41.0467635,"lng":-74.0229173,"hometown_city":"Montvale","hometown_state":"NJ"},{"name":"Logan King","year":2026,"position":"IOL","stars":3,"rating_247":83.0,"committed_to":"Temple","lat":39.2908816,"lng":-76.610759,"hometown_city":"Baltimore","hometown_state":"MD"},{"name":"Jonah Tarpley","year":2026,"position":"IOL","stars":3,"rating_247":81.0,"committed_to":"Temple","lat":38.2912431,"lng":-76.6357946,"hometown_city":"Leonardtown","hometown_state":"MD"},{"name":"Jordan Jensen","year":2026,"position":"IOL","stars":null,"rating_247":80.0,"committed_to":"Kansas State","lat":42.0751,"lng":-93.496,"hometown_city":"Fort Dodge","hometown_state":"IA"},{"name":"Cape Johnson","year":2026,"position":"IOL","stars":null,"rating_247":79.0,"committed_to":"Arkansas State","lat":38.4937,"lng":-98.3804,"hometown_city":"El Dorado","hometown_state":"KS"},{"name":"Jeremy Davis","year":2026,"position":"IOL","stars":null,"rating_247":null,"committed_to":null,"lat":39.055,"lng":-76.7909,"hometown_city":"Upper Marlboro","hometown_state":"MD"},{"name":"Roderick Williams, Jr.","year":2026,"position":"IOL","stars":null,"rating_247":null,"committed_to":null,"lat":34.8938,"lng":-92.4426,"hometown_city":"Cherry Valley","hometown_state":"AR"},{"name":"Zion Elee","year":2026,"position":"Edge","stars":5,"rating_247":98.0,"committed_to":"Maryland","lat":39.2908816,"lng":-76.610759,"hometown_city":"Baltimore","hometown_state":"MD"},{"name":"Ebenezer Ewetade","year":2026,"position":"Edge","stars":4,"rating_247":93.0,"committed_to":"Notre Dame","lat":35.7112642,"lng":-78.6141709,"hometown_city":"Garner","hometown_state":"NC"},{"name":"DeAnthony Lafayette","year":2026,"position":"Edge","stars":4,"rating_247":91.0,"committed_to":"Miami","lat":28.5421109,"lng":-81.3790304,"hometown_city":"Orlando","hometown_state":"FL"},{"name":"Malachi Ervin","year":2026,"position":"Edge","stars":3,"rating_247":90.0,"committed_to":"Buffalo","lat":39.896277299999994,"lng":-82.77319049748806,"hometown_city":"Pickerington","hometown_state":"OH"},{"name":"Jalen Anderson","year":2026,"position":"Edge","stars":null,"rating_247":90.0,"committed_to":"Florida State","lat":32.7364,"lng":-89.6678,"hometown_city":"Poplarville","hometown_state":"MS"},{"name":"Elijah Littlejohn","year":2026,"position":"Edge","stars":4,"rating_247":90.0,"committed_to":"Georgia","lat":35.2272,"lng":-80.843083,"hometown_city":"Charlotte","hometown_state":"NC"},{"name":"Alhassan Iddrissu","year":2026,"position":"Edge","stars":3,"rating_247":87.0,"committed_to":"UCF","lat":41.4662093,"lng":-72.1573008,"hometown_city":"Oakdale","hometown_state":"CT"},{"name":"Taylor Schaefer","year":2026,"position":"Edge","stars":null,"rating_247":87.0,"committed_to":"Wisconsin","lat":42.0751,"lng":-93.496,"hometown_city":"Fort Dodge","hometown_state":"IA"},{"name":"RJ Alphonse","year":2026,"position":"Edge","stars":3,"rating_247":86.0,"committed_to":"Eastern Michigan","lat":26.0112014,"lng":-80.1494901,"hometown_city":"Hollywood","hometown_state":"FL"},{"name":"Kayden Bennett","year":2026,"position":"Edge","stars":3,"rating_247":86.0,"committed_to":"Illinois","lat":41.9816944,"lng":-72.6506604,"hometown_city":"Suffield","hometown_state":"CT"},{"name":"Josh Nengite","year":2026,"position":"Edge","stars":3,"rating_247":86.0,"committed_to":"Temple","lat":40.2663107,"lng":-76.8861122,"hometown_city":"Harrisburg","hometown_state":"PA"},{"name":"Dominic Funke","year":2026,"position":"Edge","stars":3,"rating_247":86.0,"committed_to":"Boston College","lat":42.2139873,"lng":-71.2244987,"hometown_city":"Westwood","hometown_state":"MA"},{"name":"Lawrence Brown Jr.","year":2026,"position":"Edge","stars":null,"rating_247":85.0,"committed_to":"North Carolina State","lat":32.6415,"lng":-83.4426,"hometown_city":"Loganville","hometown_state":"GA"},{"name":"Seth Clarke","year":2026,"position":"Edge","stars":3,"rating_247":85.0,"committed_to":"Rice","lat":40.3492744,"lng":-74.6592958,"hometown_city":"Princeton","hometown_state":"NJ"},{"name":"Kamren Johnson","year":2026,"position":"Edge","stars":3,"rating_247":85.0,"committed_to":"Virginia Tech","lat":36.8529841,"lng":-75.9774183,"hometown_city":"Virginia Beach","hometown_state":"VA"},{"name":"Uyi Igiehon","year":2026,"position":"Edge","stars":3,"rating_247":85.0,"committed_to":"Temple","lat":40.6976019,"lng":-74.2632024,"hometown_city":"Union","hometown_state":"NJ"},{"name":"JD Singletary","year":2026,"position":"Edge","stars":3,"rating_247":85.0,"committed_to":"Rice","lat":39.5150576,"lng":-84.3982763,"hometown_city":"Middletown","hometown_state":"OH"},{"name":"Kacey Gilliam","year":2026,"position":"Edge","stars":3,"rating_247":84.0,"committed_to":"James Madison","lat":39.1434406,"lng":-77.2013705,"hometown_city":"Gaithersburg","hometown_state":"MD"},{"name":"Michael Holcomb","year":2026,"position":"Edge","stars":3,"rating_247":84.0,"committed_to":"Temple","lat":39.5355063,"lng":-76.3490396,"hometown_city":"Bel Air","hometown_state":"MD"},{"name":"Montra Sanford","year":2026,"position":"Edge","stars":null,"rating_247":84.0,"committed_to":"Kennesaw State","lat":32.7364,"lng":-89.6678,"hometown_city":"Senatobia","hometown_state":"MS"},{"name":"Aiden Anderson","year":2026,"position":"Edge","stars":3,"rating_247":83.0,"committed_to":"Buffalo","lat":28.5421109,"lng":-81.3790304,"hometown_city":"Orlando","hometown_state":"FL"},{"name":"Khalid Feliz","year":2026,"position":"Edge","stars":3,"rating_247":82.0,"committed_to":"Georgia State","lat":28.5421109,"lng":-81.3790304,"hometown_city":"Orlando","hometown_state":"FL"},{"name":"Jemel Bonica","year":2026,"position":"Edge","stars":null,"rating_247":null,"committed_to":null,"lat":28.6305,"lng":-82.4497,"hometown_city":"Miami","hometown_state":"FL"},{"name":"Zion Brown","year":2026,"position":"Edge","stars":null,"rating_247":null,"committed_to":null,"lat":28.6305,"lng":-82.4497,"hometown_city":"West Palm Beach","hometown_state":"FL"},{"name":"Josiah Collins","year":2026,"position":"Edge","stars":null,"rating_247":null,"committed_to":null,"lat":40.8781,"lng":-77.7996,"hometown_city":"Pittsburgh","hometown_state":"PA"},{"name":"Richard Anderson","year":2026,"position":"DL","stars":5,"rating_247":98.0,"committed_to":"Louisiana State","lat":29.9499323,"lng":-90.0701156,"hometown_city":"New Orleans","hometown_state":"LA"},{"name":"Keshawn Stancil","year":2026,"position":"DL","stars":4,"rating_247":95.0,"committed_to":"Miami","lat":35.650711,"lng":-78.4563914,"hometown_city":"Clayton","hometown_state":"NC"},{"name":"Danny Beale III","year":2026,"position":"DL","stars":null,"rating_247":94.0,"committed_to":"Arkansas","lat":34.8938,"lng":-92.4426,"hometown_city":"Cherry Valley","hometown_state":"AR"},{"name":"Noah Clark","year":2026,"position":"DL","stars":4,"rating_247":94.0,"committed_to":"South Carolina","lat":35.996653,"lng":-78.9018053,"hometown_city":"Durham","hometown_state":"NC"},{"name":"Earnest Rankins","year":2026,"position":"DL","stars":4,"rating_247":91.0,"committed_to":"Florida State","lat":33.7737582,"lng":-84.296069,"hometown_city":"Decatur","hometown_state":"GA"},{"name":"Anthony Kennedy Jr.","year":2026,"position":"DL","stars":3,"rating_247":90.0,"committed_to":"Arkansas","lat":34.7464809,"lng":-92.2895948,"hometown_city":"Little Rock","hometown_state":"AR"},{"name":"Damari Simeon","year":2026,"position":"DL","stars":4,"rating_247":90.0,"committed_to":"Ohio State","lat":39.4917828,"lng":-74.8707243,"hometown_city":"Richland","hometown_state":"NJ"},{"name":"Isaac Chukwurah","year":2026,"position":"DL","stars":3,"rating_247":90.0,"committed_to":"Miami","lat":39.6292788,"lng":-75.6582628,"hometown_city":"Bear","hometown_state":"DE"},{"name":"Reece Beck","year":2026,"position":"DL","stars":3,"rating_247":89.0,"committed_to":"Rutgers","lat":30.2396865,"lng":-81.3856384,"hometown_city":"Ponte Vedra Beach","hometown_state":"FL"},{"name":"Cameron Brickle II","year":2026,"position":"DL","stars":null,"rating_247":89.0,"committed_to":"Maryland","lat":28.6305,"lng":-82.4497,"hometown_city":"Bradenton","hometown_state":"FL"},{"name":"Jermaine Kinsler","year":2026,"position":"DL","stars":4,"rating_247":89.0,"committed_to":"Texas A&M","lat":40.9543943,"lng":-74.0308504,"hometown_city":"Oradell","hometown_state":"NJ"},{"name":"Preston Carey","year":2026,"position":"DL","stars":3,"rating_247":88.0,"committed_to":"Georgia","lat":27.4989278,"lng":-82.5748194,"hometown_city":"Bradenton","hometown_state":"FL"},{"name":"Jayden Brown","year":2026,"position":"DL","stars":null,"rating_247":88.0,"committed_to":"Temple","lat":39.055,"lng":-76.7909,"hometown_city":"Lanham","hometown_state":"MD"},{"name":"Jude Okeleke","year":2026,"position":"DL","stars":3,"rating_247":88.0,"committed_to":"Temple","lat":41.6062078,"lng":-73.1181658,"hometown_city":"Watertown","hometown_state":"CT"},{"name":"Walt Frazier Jr.","year":2026,"position":"DL","stars":null,"rating_247":88.0,"committed_to":"Syracuse","lat":40.8781,"lng":-77.7996,"hometown_city":"Haverford","hometown_state":"PA"},{"name":"Lucas Smalls-Allen","year":2026,"position":"DL","stars":3,"rating_247":87.0,"committed_to":"Wake Forest","lat":34.02332,"lng":-84.360022,"hometown_city":"Roswell","hometown_state":"GA"},{"name":"Antwuan Rogers","year":2026,"position":"DL","stars":3,"rating_247":87.0,"committed_to":"Temple","lat":39.5717796,"lng":-75.4671423,"hometown_city":"Salem","hometown_state":"NJ"},{"name":"Jaylen Thomas","year":2026,"position":"DL","stars":null,"rating_247":87.0,"committed_to":"West Virginia","lat":32.7364,"lng":-89.6678,"hometown_city":"Senatobia","hometown_state":"MS"},{"name":"Elijah Satchell","year":2026,"position":"DL","stars":3,"rating_247":86.0,"committed_to":"North Carolina State","lat":39.9448402,"lng":-75.1198911,"hometown_city":"Camden","hometown_state":"NJ"},{"name":"Kevin Moorer","year":2026,"position":"DL","stars":null,"rating_247":86.0,"committed_to":"Arizona","lat":38.4937,"lng":-98.3804,"hometown_city":"Hutchinson","hometown_state":"KS"},{"name":"TJ Spann","year":2026,"position":"DL","stars":null,"rating_247":86.0,"committed_to":"Arkansas State","lat":32.7364,"lng":-89.6678,"hometown_city":"Senatobia","hometown_state":"MS"},{"name":"Nicholas Igwe","year":2026,"position":"DL","stars":null,"rating_247":86.0,"committed_to":"Utah","lat":31.4757,"lng":-99.3312,"hometown_city":"Kilgore","hometown_state":"TX"},{"name":"Elijah Ali","year":2026,"position":"DL","stars":null,"rating_247":85.0,"committed_to":"Texas","lat":37.1841,"lng":-119.4696,"hometown_city":"Downey","hometown_state":"CA"},{"name":"Zakir Abdul-Salaam","year":2026,"position":"DL","stars":3,"rating_247":85.0,"committed_to":"Kennesaw State","lat":33.8595492,"lng":-84.683824,"hometown_city":"Powder Springs","hometown_state":"GA"},{"name":"Bryce Brewster","year":2026,"position":"DL","stars":3,"rating_247":85.0,"committed_to":"Bowling Green","lat":39.1014537,"lng":-84.5124602,"hometown_city":"Cincinnati","hometown_state":"OH"},{"name":"Alvin Yates","year":2026,"position":"DL","stars":3,"rating_247":84.0,"committed_to":null,"lat":39.9527237,"lng":-75.1635262,"hometown_city":"Philadelphia","hometown_state":"PA"},{"name":"Davier Bishop","year":2026,"position":"DL","stars":null,"rating_247":84.0,"committed_to":"Temple","lat":32.7364,"lng":-89.6678,"hometown_city":"Scooba","hometown_state":"MS"},{"name":"Kechan Miller","year":2026,"position":"DL","stars":3,"rating_247":84.0,"committed_to":"Temple","lat":40.0067786,"lng":-75.2854622,"hometown_city":"Ardmore","hometown_state":"PA"},{"name":"Chris HIlliard","year":2026,"position":"DL","stars":3,"rating_247":83.0,"committed_to":"Old Dominion","lat":35.4817982,"lng":-80.8589501,"hometown_city":"Cornelius","hometown_state":"NC"},{"name":"Ajahvea Robinson","year":2026,"position":"DL","stars":null,"rating_247":82.0,"committed_to":"New Mexico","lat":38.4937,"lng":-98.3804,"hometown_city":"Independence","hometown_state":"KS"},{"name":"Brandon Simmons Jr.","year":2026,"position":"DL","stars":3,"rating_247":82.0,"committed_to":"Eastern Michigan","lat":39.7027677,"lng":-75.1119434,"hometown_city":"Glassboro","hometown_state":"NJ"},{"name":"Chris Law","year":2026,"position":"DL","stars":3,"rating_247":81.0,"committed_to":"Liberty","lat":36.5859718,"lng":-79.3950228,"hometown_city":"Danville","hometown_state":"VA"},{"name":"Brock Heisler","year":2026,"position":"DL","stars":null,"rating_247":null,"committed_to":"Harvard","lat":40.8781,"lng":-77.7996,"hometown_city":"Greensburg","hometown_state":"PA"},{"name":"Cedric Mickens","year":2026,"position":"DL","stars":null,"rating_247":null,"committed_to":null,"lat":28.6305,"lng":-82.4497,"hometown_city":"Wellington","hometown_state":"FL"},{"name":"Linkin Zylstra","year":2026,"position":"DL","stars":null,"rating_247":null,"committed_to":"Holy Cross","lat":41.6219,"lng":-72.7273,"hometown_city":"Oakdale","hometown_state":"CT"},{"name":"Emory Landrum","year":2026,"position":"DL","stars":null,"rating_247":null,"committed_to":null,"lat":40.2862,"lng":-82.7937,"hometown_city":"Cleveland","hometown_state":"OH"},{"name":"Delaney Fludd","year":2026,"position":"DL","stars":null,"rating_247":null,"committed_to":null,"lat":41.6219,"lng":-72.7273,"hometown_city":"Oakdale","hometown_state":"CT"},{"name":"Tyler Atkinson","year":2026,"position":"LB","stars":5,"rating_247":97.0,"committed_to":"Texas","lat":33.8389977,"lng":-83.9007382,"hometown_city":"Loganville","hometown_state":"GA"},{"name":"Nick Abrams II","year":2026,"position":"LB","stars":4,"rating_247":90.0,"committed_to":"Georgia","lat":39.4010753,"lng":-76.796299,"hometown_city":"Owings Mills","hometown_state":"MD"},{"name":"Isaiah Simmons","year":2026,"position":"LB","stars":4,"rating_247":89.0,"committed_to":"Pittsburgh","lat":36.8462923,"lng":-76.2929252,"hometown_city":"Norfolk","hometown_state":"VA"},{"name":"Adam Shaw","year":2026,"position":"LB","stars":3,"rating_247":88.0,"committed_to":"Michigan State","lat":41.0025975,"lng":-74.0404175,"hometown_city":"Hillsdale","hometown_state":"NJ"},{"name":"Angel Luciano","year":2026,"position":"LB","stars":3,"rating_247":87.0,"committed_to":"Minnesota","lat":40.2353679,"lng":-76.8413613,"hometown_city":"Steelton","hometown_state":"PA"},{"name":"Colsen Gatten","year":2026,"position":"LB","stars":3,"rating_247":87.0,"committed_to":"Duke","lat":40.4416941,"lng":-79.9900861,"hometown_city":"Pittsburgh","hometown_state":"PA"},{"name":"Josh Pittman","year":2026,"position":"LB","stars":null,"rating_247":87.0,"committed_to":"Pittsburgh","lat":37.5215,"lng":-78.8537,"hometown_city":"Suffolk","hometown_state":"VA"},{"name":"Gemaus Sackie","year":2026,"position":"LB","stars":3,"rating_247":87.0,"committed_to":"Syracuse","lat":40.0712218,"lng":-74.8648859,"hometown_city":"Burlington","hometown_state":"NJ"},{"name":"Jordan Rodriguez","year":2026,"position":"LB","stars":3,"rating_247":87.0,"committed_to":"Boston College","lat":40.7281575,"lng":-74.0776417,"hometown_city":"Jersey City","hometown_state":"NJ"},{"name":"Jayden Jones","year":2026,"position":"LB","stars":3,"rating_247":86.0,"committed_to":"Connecticut","lat":39.4020593,"lng":-75.0393368,"hometown_city":"Millville","hometown_state":"NJ"},{"name":"Matthew Occhipinti","year":2026,"position":"LB","stars":3,"rating_247":86.0,"committed_to":"UCF","lat":41.0573188,"lng":-74.1409771,"hometown_city":"Ramsey","hometown_state":"NJ"},{"name":"Jordan Moreta","year":2026,"position":"LB","stars":3,"rating_247":86.0,"committed_to":"North Carolina State","lat":40.9452911,"lng":-74.0735899,"hometown_city":"Paramus","hometown_state":"NJ"},{"name":"Matthew Jones","year":2026,"position":"LB","stars":3,"rating_247":86.0,"committed_to":"Richmond","lat":40.0131672,"lng":-75.2943516,"hometown_city":"Haverford","hometown_state":"PA"},{"name":"Bryce Robinson","year":2026,"position":"LB","stars":3,"rating_247":86.0,"committed_to":"Nevada, Las Vegas","lat":33.9528472,"lng":-84.5496148,"hometown_city":"Marietta","hometown_state":"GA"},{"name":"Charles Belser","year":2026,"position":"LB","stars":3,"rating_247":85.0,"committed_to":null,"lat":39.9527237,"lng":-75.1635262,"hometown_city":"Philadelphia","hometown_state":"PA"},{"name":"Duane Johnson","year":2026,"position":"LB","stars":3,"rating_247":85.0,"committed_to":"West Georgia","lat":25.7742658,"lng":-80.1936589,"hometown_city":"Miami","hometown_state":"FL"},{"name":"Brian Stovall Jr.","year":2026,"position":"LB","stars":null,"rating_247":85.0,"committed_to":"Toledo","lat":44.3467,"lng":-85.4102,"hometown_city":"Detroit","hometown_state":"MI"},{"name":"Landon Kehoe","year":2026,"position":"LB","stars":null,"rating_247":85.0,"committed_to":"Old Dominion","lat":40.8781,"lng":-77.7996,"hometown_city":"Danville","hometown_state":"PA"},{"name":"Anwar Witherspoon Jr.","year":2026,"position":"LB","stars":3,"rating_247":84.0,"committed_to":"Buffalo","lat":40.5382375,"lng":-74.39451734508772,"hometown_city":"Edison","hometown_state":"NJ"},{"name":"Phillip Goodrich","year":2026,"position":"LB","stars":3,"rating_247":83.0,"committed_to":"Army","lat":26.1223084,"lng":-80.1433786,"hometown_city":"Fort Lauderdale","hometown_state":"FL"},{"name":"Brendan Farhat","year":2026,"position":"LB","stars":3,"rating_247":83.0,"committed_to":"Temple","lat":41.7001043,"lng":-70.7628129,"hometown_city":"Marion","hometown_state":"MA"},{"name":"Shane Rochelle","year":2026,"position":"LB","stars":null,"rating_247":82.0,"committed_to":"Middle Tennessee","lat":28.6305,"lng":-82.4497,"hometown_city":"Miami","hometown_state":"FL"},{"name":"Myles Miller","year":2026,"position":"LB","stars":null,"rating_247":null,"committed_to":null,"lat":32.7364,"lng":-89.6678,"hometown_city":"Senatobia","hometown_state":"MS"},{"name":"Jay Timmons","year":2026,"position":"CB","stars":4,"rating_247":97.0,"committed_to":"Ohio State","lat":40.6300671,"lng":-79.9695004,"hometown_city":"Gibsonia","hometown_state":"PA"},{"name":"Elbert Hill IV","year":2026,"position":"CB","stars":null,"rating_247":95.0,"committed_to":"Southern California","lat":40.2862,"lng":-82.7937,"hometown_city":"Akron","hometown_state":"OH"},{"name":"Samari Matthews","year":2026,"position":"CB","stars":4,"rating_247":94.0,"committed_to":"Texas","lat":35.4817982,"lng":-80.8589501,"hometown_city":"Cornelius","hometown_state":"NC"},{"name":"Jordan Thomas","year":2026,"position":"CB","stars":4,"rating_247":93.0,"committed_to":"Ohio State","lat":40.9543943,"lng":-74.0308504,"hometown_city":"Oradell","hometown_state":"NJ"},{"name":"AJ Marks","year":2026,"position":"CB","stars":3,"rating_247":90.0,"committed_to":"Wake Forest","lat":27.4989278,"lng":-82.5748194,"hometown_city":"Bradenton","hometown_state":"FL"},{"name":"Kenton Dopson III","year":2026,"position":"CB","stars":null,"rating_247":90.0,"committed_to":"North Carolina","lat":28.6305,"lng":-82.4497,"hometown_city":"Miami","hometown_state":"FL"},{"name":"Sean Johnson","year":2026,"position":"CB","stars":3,"rating_247":89.0,"committed_to":"Maryland","lat":39.1278864,"lng":-76.6869128,"hometown_city":"Severn","hometown_state":"MD"},{"name":"Xavier Jackson","year":2026,"position":"CB","stars":3,"rating_247":88.0,"committed_to":"North Carolina","lat":38.7910374,"lng":-90.7039107,"hometown_city":"O'Fallon","hometown_state":"MO"},{"name":"Da'Ron Barksdale","year":2026,"position":"CB","stars":3,"rating_247":88.0,"committed_to":"Pittsburgh","lat":40.4059025,"lng":-79.9119948,"hometown_city":"Homestead","hometown_state":"PA"},{"name":"KJ Johnson","year":2026,"position":"CB","stars":3,"rating_247":88.0,"committed_to":"South Carolina","lat":33.5206824,"lng":-86.8024326,"hometown_city":"Birmingham","hometown_state":"AL"},{"name":"Jesse Legree","year":2026,"position":"CB","stars":3,"rating_247":86.0,"committed_to":"Oregon State","lat":39.2908816,"lng":-76.610759,"hometown_city":"Baltimore","hometown_state":"MD"},{"name":"Xavier Myers","year":2026,"position":"CB","stars":3,"rating_247":86.0,"committed_to":"Boston College","lat":39.2908816,"lng":-76.610759,"hometown_city":"Baltimore","hometown_state":"MD"},{"name":"Shawn Church Jr.","year":2026,"position":"CB","stars":3,"rating_247":86.0,"committed_to":"Delaware","lat":36.8529841,"lng":-75.9774183,"hometown_city":"Virginia Beach","hometown_state":"VA"},{"name":"Jermiyah Douglas","year":2026,"position":"CB","stars":null,"rating_247":85.0,"committed_to":"Western Carolina","lat":28.6305,"lng":-82.4497,"hometown_city":"Fort Lauderdale","hometown_state":"FL"},{"name":"Mojo Williams Jr.","year":2026,"position":"CB","stars":null,"rating_247":85.0,"committed_to":"Colorado","lat":31.0689,"lng":-91.9968,"hometown_city":"New Orleans","hometown_state":"LA"},{"name":"Julian Byrd","year":2026,"position":"CB","stars":3,"rating_247":85.0,"committed_to":"Tulsa","lat":33.5670562,"lng":-84.5810418,"hometown_city":"Fairburn","hometown_state":"GA"},{"name":"Bryce Williams","year":2026,"position":"CB","stars":3,"rating_247":85.0,"committed_to":"Buffalo","lat":40.3284403,"lng":-74.790718,"hometown_city":"Pennington","hometown_state":"NJ"},{"name":"Yalik Carter","year":2026,"position":"CB","stars":3,"rating_247":84.0,"committed_to":null,"lat":39.4496857,"lng":-75.7166811,"hometown_city":"Middletown","hometown_state":"DE"},{"name":"Dylan Abram","year":2026,"position":"CB","stars":3,"rating_247":84.0,"committed_to":"Temple","lat":39.9527237,"lng":-75.1635262,"hometown_city":"Philadelphia","hometown_state":"PA"},{"name":"Jordan Turner","year":2026,"position":"CB","stars":null,"rating_247":84.0,"committed_to":"Troy","lat":32.6415,"lng":-83.4426,"hometown_city":"Milledgeville","hometown_state":"GA"},{"name":"Nakeel Lawrence","year":2026,"position":"CB","stars":null,"rating_247":84.0,"committed_to":"Temple","lat":37.1841,"lng":-119.4696,"hometown_city":"Oroville","hometown_state":"CA"},{"name":"Asa Locks","year":2026,"position":"CB","stars":null,"rating_247":84.0,"committed_to":"Temple","lat":42.0751,"lng":-93.496,"hometown_city":"Council Bluffs","hometown_state":"IA"},{"name":"Kennedi Bailey","year":2026,"position":"CB","stars":3,"rating_247":82.0,"committed_to":"Liberty","lat":33.4707348,"lng":-82.5045956,"hometown_city":"Thomson","hometown_state":"GA"},{"name":"Tradarius Smith","year":2026,"position":"CB","stars":null,"rating_247":82.0,"committed_to":"Charlotte","lat":32.7364,"lng":-89.6678,"hometown_city":"Poplarville","hometown_state":"MS"},{"name":"Odell Teel","year":2026,"position":"CB","stars":null,"rating_247":null,"committed_to":"Ferris State","lat":38.9896,"lng":-75.505,"hometown_city":"Wilmington","hometown_state":"DE"},{"name":"Larry Spring","year":2026,"position":"CB","stars":null,"rating_247":null,"committed_to":null,"lat":28.6305,"lng":-82.4497,"hometown_city":"Miami","hometown_state":"FL"},{"name":"Travon Chardonet","year":2026,"position":"CB","stars":null,"rating_247":null,"committed_to":"Holy Cross","lat":40.1907,"lng":-74.6728,"hometown_city":"Montvale","hometown_state":"NJ"},{"name":"Gyan King","year":2026,"position":"CB","stars":null,"rating_247":null,"committed_to":"Bryant","lat":40.1907,"lng":-74.6728,"hometown_city":"Egg Harbor City","hometown_state":"NJ"},{"name":"Matt Sieg","year":2026,"position":"S","stars":4,"rating_247":95.0,"committed_to":"West Virginia","lat":40.3709025,"lng":-80.2347814,"hometown_city":"McDonald","hometown_state":"PA"},{"name":"Darrell Carey","year":2026,"position":"S","stars":3,"rating_247":92.0,"committed_to":"Maryland","lat":38.9529442,"lng":-76.9408647,"hometown_city":"Hyattsville","hometown_state":"MD"},{"name":"Blake Stewart","year":2026,"position":"S","stars":3,"rating_247":90.0,"committed_to":"Georgia","lat":33.7490987,"lng":-84.3901849,"hometown_city":"Atlanta","hometown_state":"GA"},{"name":"Jordan Deck","year":2026,"position":"S","stars":4,"rating_247":90.0,"committed_to":"Michigan","lat":33.1506744,"lng":-96.8236116,"hometown_city":"Frisco","hometown_state":"TX"},{"name":"KJ McClain","year":2026,"position":"S","stars":3,"rating_247":88.0,"committed_to":"Tennessee","lat":41.0467635,"lng":-74.0229173,"hometown_city":"Montvale","hometown_state":"NJ"},{"name":"Taj Powell","year":2026,"position":"S","stars":3,"rating_247":87.0,"committed_to":"Louisville","lat":39.9242266,"lng":-83.8088172,"hometown_city":"Springfield","hometown_state":"OH"},{"name":"Orion Saunders","year":2026,"position":"S","stars":3,"rating_247":87.0,"committed_to":"Tulane","lat":42.4605189,"lng":-71.3488963,"hometown_city":"Concord","hometown_state":"MA"},{"name":"Ibn-Wadu Muhammad","year":2026,"position":"S","stars":null,"rating_247":87.0,"committed_to":"Syracuse","lat":40.1907,"lng":-74.6728,"hometown_city":"Camden","hometown_state":"NJ"},{"name":"Daron Harris","year":2026,"position":"S","stars":3,"rating_247":86.0,"committed_to":"Temple","lat":39.849557,"lng":-75.3557458,"hometown_city":"Chester","hometown_state":"PA"},{"name":"Braylon Edwards","year":2026,"position":"S","stars":3,"rating_247":85.0,"committed_to":"Colorado","lat":32.6518004,"lng":-96.9083366,"hometown_city":"Duncanville","hometown_state":"TX"},{"name":"Josiah Jackson","year":2026,"position":"S","stars":null,"rating_247":85.0,"committed_to":"Temple","lat":38.4937,"lng":-98.3804,"hometown_city":"Garden City","hometown_state":"KS"},{"name":"Alchino Blakely","year":2026,"position":"S","stars":3,"rating_247":84.0,"committed_to":"Charlotte","lat":33.857328,"lng":-84.0199108,"hometown_city":"Snellville","hometown_state":"GA"},{"name":"Alex Hanks","year":2026,"position":"S","stars":3,"rating_247":83.0,"committed_to":"Temple","lat":40.767323,"lng":-74.2048677,"hometown_city":"East Orange","hometown_state":"NJ"},{"name":"Orel Gray","year":2026,"position":"S","stars":null,"rating_247":83.0,"committed_to":"Temple","lat":32.7364,"lng":-89.6678,"hometown_city":"Fulton","hometown_state":"MS"},{"name":"Robert Tyson","year":2026,"position":"S","stars":null,"rating_247":null,"committed_to":null,"lat":32.6415,"lng":-83.4426,"hometown_city":"Marietta","hometown_state":"GA"},{"name":"Noah Voltaire","year":2026,"position":"S","stars":null,"rating_247":null,"committed_to":"Austin Peay","lat":32.6415,"lng":-83.4426,"hometown_city":"Marietta","hometown_state":"GA"},{"name":"Joey O'Brien","year":2026,"position":"ATH","stars":5,"rating_247":97.0,"committed_to":"Notre Dame","lat":40.1023326,"lng":-75.1521195,"hometown_city":"Glenside","hometown_state":"PA"},{"name":"Brayden Rouse","year":2026,"position":"ATH","stars":4,"rating_247":96.0,"committed_to":"Tennessee","lat":33.9528472,"lng":-84.5496148,"hometown_city":"Marietta","hometown_state":"GA"},{"name":"Damon Ferguson","year":2026,"position":"ATH","stars":4,"rating_247":93.0,"committed_to":"Pittsburgh","lat":39.2908816,"lng":-76.610759,"hometown_city":"Baltimore","hometown_state":"MD"},{"name":"Tyriq Green","year":2026,"position":"ATH","stars":4,"rating_247":93.0,"committed_to":"Georgia","lat":34.1206564,"lng":-84.0043513,"hometown_city":"Buford","hometown_state":"GA"},{"name":"Justice Fitzpatrick","year":2026,"position":"ATH","stars":4,"rating_247":92.0,"committed_to":"Georgia","lat":26.1223084,"lng":-80.1433786,"hometown_city":"Fort Lauderdale","hometown_state":"FL"},{"name":"Samson Gash","year":2026,"position":"ATH","stars":4,"rating_247":90.0,"committed_to":"Michigan State","lat":42.48059,"lng":-83.4754913,"hometown_city":"Novi","hometown_state":"MI"},{"name":"Messiah Mickens","year":2026,"position":"ATH","stars":4,"rating_247":90.0,"committed_to":"Virginia Tech","lat":40.2663107,"lng":-76.8861122,"hometown_city":"Harrisburg","hometown_state":"PA"},{"name":"Jaden McDuffie","year":2026,"position":"ATH","stars":4,"rating_247":90.0,"committed_to":"Northwestern","lat":38.9358105,"lng":-76.55301414304145,"hometown_city":"Edgewater","hometown_state":"MD"},{"name":"Jyron Hughley","year":2026,"position":"ATH","stars":3,"rating_247":89.0,"committed_to":"West Virginia","lat":26.715364,"lng":-80.0532942,"hometown_city":"West Palm Beach","hometown_state":"FL"},{"name":"Rihyael Kelley","year":2026,"position":"ATH","stars":3,"rating_247":89.0,"committed_to":"Alabama","lat":39.1014537,"lng":-84.5124602,"hometown_city":"Cincinnati","hometown_state":"OH"},{"name":"Josiah Zayas","year":2026,"position":"ATH","stars":3,"rating_247":89.0,"committed_to":"Penn State","lat":40.5382375,"lng":-74.39451734508772,"hometown_city":"Edison","hometown_state":"NJ"},{"name":"Elias Coke","year":2026,"position":"ATH","stars":3,"rating_247":88.0,"committed_to":"Rutgers","lat":40.2663107,"lng":-76.8861122,"hometown_city":"Harrisburg","hometown_state":"PA"},{"name":"Jordan Vann","year":2026,"position":"ATH","stars":3,"rating_247":88.0,"committed_to":"Louisville","lat":39.5150576,"lng":-84.3982763,"hometown_city":"Middletown","hometown_state":"OH"},{"name":"Zaiden McDonald","year":2026,"position":"ATH","stars":3,"rating_247":88.0,"committed_to":"Stanford","lat":40.735657,"lng":-74.1723667,"hometown_city":"Newark","hometown_state":"NJ"},{"name":"Amari Sabb","year":2026,"position":"ATH","stars":3,"rating_247":87.0,"committed_to":"Alabama","lat":39.7027677,"lng":-75.1119434,"hometown_city":"Glassboro","hometown_state":"NJ"},{"name":"Steve Klein","year":2026,"position":"ATH","stars":3,"rating_247":87.0,"committed_to":"Boston College","lat":40.9912087,"lng":-74.0326395,"hometown_city":"Westwood","hometown_state":"NJ"},{"name":"Celley Davis","year":2026,"position":"ATH","stars":null,"rating_247":86.0,"committed_to":"Kennesaw State","lat":35.858,"lng":-86.3505,"hometown_city":"Germantown","hometown_state":"TN"},{"name":"KD Cotton","year":2026,"position":"ATH","stars":3,"rating_247":86.0,"committed_to":"Duke","lat":35.1170873,"lng":-80.723718,"hometown_city":"Matthews","hometown_state":"NC"},{"name":"Chris Newell Jr.","year":2026,"position":"ATH","stars":3,"rating_247":85.0,"committed_to":"Bowling Green","lat":41.5051613,"lng":-81.6934446,"hometown_city":"Cleveland","hometown_state":"OH"},{"name":"Nate Bailey","year":2026,"position":"ATH","stars":3,"rating_247":85.0,"committed_to":"Harvard","lat":41.0467635,"lng":-74.0229173,"hometown_city":"Montvale","hometown_state":"NJ"},{"name":"Allen Hill","year":2026,"position":"ATH","stars":3,"rating_247":85.0,"committed_to":"Youngstown State","lat":41.1035786,"lng":-80.6520161,"hometown_city":"Youngstown","hometown_state":"OH"},{"name":"Adam Kirtley","year":2026,"position":"ATH","stars":3,"rating_247":84.0,"committed_to":"Cincinnati","lat":39.1014537,"lng":-84.5124602,"hometown_city":"Cincinnati","hometown_state":"OH"},{"name":"Elijah Moss-Williams","year":2026,"position":"ATH","stars":3,"rating_247":84.0,"committed_to":"James Madison","lat":36.8462923,"lng":-76.2929252,"hometown_city":"Norfolk","hometown_state":"VA"},{"name":"David Moore Jr.","year":2026,"position":"ATH","stars":3,"rating_247":84.0,"committed_to":"Massachusetts","lat":40.7987113,"lng":-74.2390353,"hometown_city":"West Orange","hometown_state":"NJ"},{"name":"Eyan Stead Jr.","year":2026,"position":"ATH","stars":3,"rating_247":84.0,"committed_to":"Temple","lat":39.9527237,"lng":-75.1635262,"hometown_city":"Philadelphia","hometown_state":"PA"},{"name":"KaRon Ali","year":2026,"position":"ATH","stars":3,"rating_247":83.0,"committed_to":"Towson","lat":39.769838,"lng":-74.8873855,"hometown_city":"Atco","hometown_state":"NJ"},{"name":"Anthony Brown","year":2026,"position":"ATH","stars":3,"rating_247":83.0,"committed_to":null,"lat":39.9381682,"lng":-75.2718507,"hometown_city":"Lansdowne","hometown_state":"PA"},{"name":"Kareem Pruitt","year":2026,"position":"ATH","stars":3,"rating_247":81.0,"committed_to":"Massachusetts","lat":42.5869558,"lng":-83.36895696372882,"hometown_city":"Orchard Lake","hometown_state":"MI"},{"name":"Armani Rogers","year":2026,"position":"ATH","stars":null,"rating_247":null,"committed_to":null,"lat":40.2862,"lng":-82.7937,"hometown_city":"Dayton","hometown_state":"OH"},{"name":"Donte Wright","year":2026,"position":"ATH","stars":null,"rating_247":null,"committed_to":null,"lat":40.8781,"lng":-77.7996,"hometown_city":"Clairton","hometown_state":"PA"},{"name":"Cade Wallace","year":2026,"position":"ATH","stars":null,"rating_247":null,"committed_to":"Stephen F. Austin","lat":31.4757,"lng":-99.3312,"hometown_city":"Grand Prairie","hometown_state":"TX"},{"name":"Jahvon Wiggins","year":2026,"position":"ATH","stars":null,"rating_247":null,"committed_to":"William & Mary","lat":37.5215,"lng":-78.8537,"hometown_city":"Norfolk","hometown_state":"VA"},{"name":"Clinton Lee","year":2026,"position":"ATH","stars":null,"rating_247":null,"committed_to":"Navy","lat":39.055,"lng":-76.7909,"hometown_city":"Middletown","hometown_state":"MD"},{"name":"Terry Dorsey","year":2026,"position":"ATH","stars":null,"rating_247":null,"committed_to":null,"lat":39.055,"lng":-76.7909,"hometown_city":"Hyattsville","hometown_state":"MD"},{"name":"Luke Sword","year":2026,"position":"P","stars":null,"rating_247":80.0,"committed_to":"Temple","lat":40.8781,"lng":-77.7996,"hometown_city":"Willow Grove","hometown_state":"PA"}],"2027":[{"name":"Brodie Campbell","year":2027,"position":"QB","stars":null,"rating_247":88.0,"committed_to":"Georgia Tech","lat":32.6415,"lng":-83.4426,"hometown_city":"Newnan","hometown_state":"GA"},{"name":"Trent Buttles","year":2027,"position":"QB","stars":null,"rating_247":87.0,"committed_to":"Rutgers","lat":42.9538,"lng":-75.5268,"hometown_city":"Hamburg","hometown_state":"NY"},{"name":"Lonnie Andrews III","year":2027,"position":"QB","stars":null,"rating_247":86.0,"committed_to":"Virginia","lat":37.5215,"lng":-78.8537,"hometown_city":"Chesapeake","hometown_state":"VA"},{"name":"Derrick Baker","year":2027,"position":"QB","stars":null,"rating_247":86.0,"committed_to":"Tennessee","lat":32.6415,"lng":-83.4426,"hometown_city":"Alpharetta","hometown_state":"GA"},{"name":"Gary Chatman Jr.","year":2027,"position":"QB","stars":null,"rating_247":86.0,"committed_to":"Auburn","lat":32.6415,"lng":-83.4426,"hometown_city":"Snellville","hometown_state":"GA"},{"name":"RJ Day","year":2027,"position":"QB","stars":null,"rating_247":84.0,"committed_to":"Northwestern","lat":40.2862,"lng":-82.7937,"hometown_city":"Columbus","hometown_state":"OH"},{"name":"Kevin Parker","year":2027,"position":"QB","stars":null,"rating_247":83.0,"committed_to":null,"lat":37.5215,"lng":-78.8537,"hometown_city":"Newport News","hometown_state":"VA"},{"name":"Bryce Carter","year":2027,"position":"QB","stars":null,"rating_247":null,"committed_to":null,"lat":40.1907,"lng":-74.6728,"hometown_city":"Burlington","hometown_state":"NJ"},{"name":"Abdul Turay","year":2027,"position":"RB","stars":null,"rating_247":88.0,"committed_to":null,"lat":40.1907,"lng":-74.6728,"hometown_city":"Jersey City","hometown_state":"NJ"},{"name":"Chukwuma Odoh","year":2027,"position":"RB","stars":null,"rating_247":88.0,"committed_to":"Penn State","lat":40.1907,"lng":-74.6728,"hometown_city":"Paramus","hometown_state":"NJ"},{"name":"Justice Hardy","year":2027,"position":"RB","stars":null,"rating_247":87.0,"committed_to":"Louisville","lat":40.8781,"lng":-77.7996,"hometown_city":"Reading","hometown_state":"PA"},{"name":"Xavier Bala","year":2027,"position":"RB","stars":null,"rating_247":87.0,"committed_to":"Boston College","lat":42.9538,"lng":-75.5268,"hometown_city":"Long Island City","hometown_state":"NY"},{"name":"Kamari Holloway","year":2027,"position":"RB","stars":null,"rating_247":87.0,"committed_to":null,"lat":35.5557,"lng":-79.3877,"hometown_city":"Durham","hometown_state":"NC"},{"name":"Ta'kiesse Barnes","year":2027,"position":"RB","stars":null,"rating_247":86.0,"committed_to":"Temple","lat":40.1907,"lng":-74.6728,"hometown_city":"Pleasantville","hometown_state":"NJ"},{"name":"James Bell","year":2027,"position":"RB","stars":null,"rating_247":85.0,"committed_to":null,"lat":40.0417,"lng":-89.1965,"hometown_city":"Chicago","hometown_state":"IL"},{"name":"Arian Taylor","year":2027,"position":"RB","stars":null,"rating_247":83.0,"committed_to":null,"lat":31.4757,"lng":-99.3312,"hometown_city":"Texarkana","hometown_state":"TX"},{"name":"Zacchaeus Welch","year":2027,"position":"RB","stars":null,"rating_247":null,"committed_to":null,"lat":31.4757,"lng":-99.3312,"hometown_city":"Texarkana","hometown_state":"TX"},{"name":"Tyson Craft","year":2027,"position":"RB","stars":null,"rating_247":null,"committed_to":null,"lat":31.4757,"lng":-99.3312,"hometown_city":"Missouri City","hometown_state":"TX"},{"name":"Axcel Bailey","year":2027,"position":"RB","stars":null,"rating_247":null,"committed_to":null,"lat":40.1907,"lng":-74.6728,"hometown_city":"Clementon","hometown_state":"NJ"},{"name":"Jett Jerwers","year":2027,"position":"RB","stars":null,"rating_247":null,"committed_to":"Harvard","lat":40.2862,"lng":-82.7937,"hometown_city":"New Albany","hometown_state":"OH"},{"name":"Deyon Smith","year":2027,"position":"RB","stars":null,"rating_247":null,"committed_to":null,"lat":38.9101,"lng":-77.0147,"hometown_city":"Washington","hometown_state":"DC"},{"name":"Isaiah Garrett","year":2027,"position":"RB","stars":null,"rating_247":null,"committed_to":null,"lat":40.2862,"lng":-82.7937,"hometown_city":"Cincinnati","hometown_state":"OH"},{"name":"Jance Henry Jr.","year":2027,"position":"RB","stars":null,"rating_247":null,"committed_to":"Bowling Green","lat":40.2862,"lng":-82.7937,"hometown_city":"Akron","hometown_state":"OH"},{"name":"Larry Johnson","year":2027,"position":"RB","stars":null,"rating_247":null,"committed_to":null,"lat":35.858,"lng":-86.3505,"hometown_city":"Collierville","hometown_state":"TN"},{"name":"Amari Cannon","year":2027,"position":"RB","stars":null,"rating_247":null,"committed_to":null,"lat":40.8781,"lng":-77.7996,"hometown_city":"Downingtown","hometown_state":"PA"},{"name":"Tayshawn Branche","year":2027,"position":"RB","stars":null,"rating_247":null,"committed_to":null,"lat":37.5215,"lng":-78.8537,"hometown_city":"Norfolk","hometown_state":"VA"},{"name":"Roman Coney","year":2027,"position":"RB","stars":null,"rating_247":null,"committed_to":null,"lat":40.1907,"lng":-74.6728,"hometown_city":"Richland","hometown_state":"NJ"},{"name":"Dakota Guerrant","year":2027,"position":"WR","stars":null,"rating_247":98.0,"committed_to":null,"lat":44.3467,"lng":-85.4102,"hometown_city":"Harper Woods","hometown_state":"MI"},{"name":"Kesean Bowman","year":2027,"position":"WR","stars":null,"rating_247":93.0,"committed_to":"Tennessee","lat":35.858,"lng":-86.3505,"hometown_city":"Brentwood","hometown_state":"TN"},{"name":"Julius Jones","year":2027,"position":"WR","stars":null,"rating_247":92.0,"committed_to":null,"lat":28.6305,"lng":-82.4497,"hometown_city":"Fort Lauderdale","hometown_state":"FL"},{"name":"Javien Robinson","year":2027,"position":"WR","stars":null,"rating_247":90.0,"committed_to":"South Carolina","lat":40.8781,"lng":-77.7996,"hometown_city":"McKeesport","hometown_state":"PA"},{"name":"Ah'Mari Stevens","year":2027,"position":"WR","stars":null,"rating_247":90.0,"committed_to":"Louisiana State","lat":28.6305,"lng":-82.4497,"hometown_city":"Hollywood","hometown_state":"FL"},{"name":"Chuck Alexander","year":2027,"position":"WR","stars":null,"rating_247":89.0,"committed_to":"Louisville","lat":40.2862,"lng":-82.7937,"hometown_city":"Cincinnati","hometown_state":"OH"},{"name":"Iveon Lewis","year":2027,"position":"WR","stars":null,"rating_247":89.0,"committed_to":"Kentucky","lat":37.5215,"lng":-78.8537,"hometown_city":"Richmond","hometown_state":"VA"},{"name":"Carlos Ferguson","year":2027,"position":"WR","stars":null,"rating_247":89.0,"committed_to":"Minnesota","lat":39.055,"lng":-76.7909,"hometown_city":"Owings Mills","hometown_state":"MD"},{"name":"Jamar Taylor","year":2027,"position":"WR","stars":null,"rating_247":89.0,"committed_to":"Rutgers","lat":38.9896,"lng":-75.505,"hometown_city":"Wilmington","hometown_state":"DE"},{"name":"Isaiah Alvarez","year":2027,"position":"WR","stars":null,"rating_247":88.0,"committed_to":null,"lat":40.1907,"lng":-74.6728,"hometown_city":"Ramsey","hometown_state":"NJ"},{"name":"Bryan Porter","year":2027,"position":"WR","stars":null,"rating_247":88.0,"committed_to":null,"lat":40.1907,"lng":-74.6728,"hometown_city":"Oradell","hometown_state":"NJ"},{"name":"Charles Britton III","year":2027,"position":"WR","stars":null,"rating_247":88.0,"committed_to":null,"lat":44.3467,"lng":-85.4102,"hometown_city":"Belleville","hometown_state":"MI"},{"name":"Chad Willis","year":2027,"position":"WR","stars":null,"rating_247":87.0,"committed_to":"Cincinnati","lat":44.3467,"lng":-85.4102,"hometown_city":"Orchard Lake","hometown_state":"MI"},{"name":"Donovan McNabb Jr.","year":2027,"position":"WR","stars":null,"rating_247":87.0,"committed_to":null,"lat":34.2744,"lng":-111.6602,"hometown_city":"Phoenix","hometown_state":"AZ"},{"name":"Markus Lee","year":2027,"position":"WR","stars":null,"rating_247":87.0,"committed_to":null,"lat":37.5215,"lng":-78.8537,"hometown_city":"Richmond","hometown_state":"VA"},{"name":"Donte Dent Jr.","year":2027,"position":"WR","stars":null,"rating_247":87.0,"committed_to":"James Madison","lat":37.5215,"lng":-78.8537,"hometown_city":"Chesapeake","hometown_state":"VA"},{"name":"Brien Walker","year":2027,"position":"WR","stars":null,"rating_247":87.0,"committed_to":null,"lat":42.9538,"lng":-75.5268,"hometown_city":"Rochester","hometown_state":"NY"},{"name":"Jordan Burns","year":2027,"position":"WR","stars":null,"rating_247":87.0,"committed_to":null,"lat":37.5215,"lng":-78.8537,"hometown_city":"Lynchburg","hometown_state":"VA"},{"name":"Camden Simmons","year":2027,"position":"WR","stars":null,"rating_247":86.0,"committed_to":"James Madison","lat":37.5215,"lng":-78.8537,"hometown_city":"Springfield","hometown_state":"VA"},{"name":"Anthony Henderson","year":2027,"position":"WR","stars":null,"rating_247":86.0,"committed_to":"Maryland","lat":37.5215,"lng":-78.8537,"hometown_city":"Suffolk","hometown_state":"VA"},{"name":"Jailyn Moore","year":2027,"position":"WR","stars":null,"rating_247":86.0,"committed_to":null,"lat":35.5557,"lng":-79.3877,"hometown_city":"Clemmons","hometown_state":"NC"},{"name":"Austin Busso","year":2027,"position":"WR","stars":null,"rating_247":86.0,"committed_to":"South Florida","lat":40.1907,"lng":-74.6728,"hometown_city":"Oradell","hometown_state":"NJ"},{"name":"Landon Hicks","year":2027,"position":"WR","stars":null,"rating_247":85.0,"committed_to":"Virginia","lat":37.5215,"lng":-78.8537,"hometown_city":"Richmond","hometown_state":"VA"},{"name":"Nahjae Smith","year":2027,"position":"WR","stars":null,"rating_247":null,"committed_to":null,"lat":40.1907,"lng":-74.6728,"hometown_city":"Elizabeth","hometown_state":"NJ"},{"name":"Kamari Westbrook","year":2027,"position":"WR","stars":null,"rating_247":null,"committed_to":null,"lat":44.3467,"lng":-85.4102,"hometown_city":"Belleville","hometown_state":"MI"},{"name":"Jontai Quick","year":2027,"position":"WR","stars":null,"rating_247":null,"committed_to":"Kent State","lat":40.8781,"lng":-77.7996,"hometown_city":"Harrisburg","hometown_state":"PA"},{"name":"Xavier Brown","year":2027,"position":"WR","stars":null,"rating_247":null,"committed_to":null,"lat":39.055,"lng":-76.7909,"hometown_city":"Forestville","hometown_state":"MD"},{"name":"Gavin White","year":2027,"position":"WR","stars":null,"rating_247":null,"committed_to":"Buffalo","lat":42.9538,"lng":-75.5268,"hometown_city":"Rochester","hometown_state":"NY"},{"name":"Mikey McQueen","year":2027,"position":"WR","stars":null,"rating_247":null,"committed_to":"Temple","lat":40.1907,"lng":-74.6728,"hometown_city":"Mount Holly","hometown_state":"NJ"},{"name":"Jaerron Johnson","year":2027,"position":"WR","stars":null,"rating_247":null,"committed_to":null,"lat":37.5215,"lng":-78.8537,"hometown_city":"Richmond","hometown_state":"VA"},{"name":"Ethan Singletary","year":2027,"position":"WR","stars":null,"rating_247":null,"committed_to":null,"lat":33.9169,"lng":-80.8964,"hometown_city":"Columbia","hometown_state":"SC"},{"name":"Ethan Dempsey","year":2027,"position":"WR","stars":null,"rating_247":null,"committed_to":null,"lat":35.5557,"lng":-79.3877,"hometown_city":"Charlotte","hometown_state":"NC"},{"name":"Tommy Douglas","year":2027,"position":"TE","stars":null,"rating_247":89.0,"committed_to":"Florida","lat":40.1907,"lng":-74.6728,"hometown_city":"Princeton","hometown_state":"NJ"},{"name":"Sean Currie","year":2027,"position":"TE","stars":null,"rating_247":89.0,"committed_to":"Penn State","lat":40.1907,"lng":-74.6728,"hometown_city":"Lawrenceville","hometown_state":"NJ"},{"name":"Trae Proctor","year":2027,"position":"TE","stars":null,"rating_247":87.0,"committed_to":"Kentucky","lat":28.6305,"lng":-82.4497,"hometown_city":"Plantation","hometown_state":"FL"},{"name":"Sydney Padilla","year":2027,"position":"TE","stars":null,"rating_247":87.0,"committed_to":"Rutgers","lat":40.1907,"lng":-74.6728,"hometown_city":"West Orange","hometown_state":"NJ"},{"name":"Saleh Atariwa","year":2027,"position":"TE","stars":null,"rating_247":86.0,"committed_to":"Rutgers","lat":42.9538,"lng":-75.5268,"hometown_city":"Bronx","hometown_state":"NY"},{"name":"Michael Glover","year":2027,"position":"TE","stars":null,"rating_247":null,"committed_to":null,"lat":40.8781,"lng":-77.7996,"hometown_city":"Reading","hometown_state":"PA"},{"name":"Collin Walls","year":2027,"position":"TE","stars":null,"rating_247":null,"committed_to":"Temple","lat":40.1907,"lng":-74.6728,"hometown_city":"Princeton","hometown_state":"NJ"},{"name":"Mark Matthews","year":2027,"position":"OT","stars":null,"rating_247":98.0,"committed_to":"Texas A&M","lat":28.6305,"lng":-82.4497,"hometown_city":"Fort Lauderdale","hometown_state":"FL"},{"name":"Oluwasemilore Olubobola","year":2027,"position":"OT","stars":null,"rating_247":98.0,"committed_to":"Notre Dame","lat":40.1907,"lng":-74.6728,"hometown_city":"Jersey City","hometown_state":"NJ"},{"name":"Tyler Graham","year":2027,"position":"OT","stars":null,"rating_247":87.0,"committed_to":"Duke","lat":40.8781,"lng":-77.7996,"hometown_city":"Malvern","hometown_state":"PA"},{"name":"Lual Aleu","year":2027,"position":"OT","stars":null,"rating_247":86.0,"committed_to":"Missouri","lat":40.2862,"lng":-82.7937,"hometown_city":"Cincinnati","hometown_state":"OH"},{"name":"Luke Injaychock","year":2027,"position":"OT","stars":null,"rating_247":86.0,"committed_to":"Missouri","lat":40.0417,"lng":-89.1965,"hometown_city":"La Grange Park","hometown_state":"IL"},{"name":"Sebastian Waddell","year":2027,"position":"OT","stars":null,"rating_247":86.0,"committed_to":null,"lat":40.8781,"lng":-77.7996,"hometown_city":"Philadelphia","hometown_state":"PA"},{"name":"Preston Bernard","year":2027,"position":"OT","stars":null,"rating_247":null,"committed_to":null,"lat":40.8781,"lng":-77.7996,"hometown_city":"Haverford","hometown_state":"PA"},{"name":"Owen Bernard","year":2027,"position":"OT","stars":null,"rating_247":null,"committed_to":"Navy","lat":40.8781,"lng":-77.7996,"hometown_city":"Haverford","hometown_state":"PA"},{"name":"Amon Wright","year":2027,"position":"OT","stars":null,"rating_247":null,"committed_to":null,"lat":40.1907,"lng":-74.6728,"hometown_city":"Glassboro","hometown_state":"NJ"},{"name":"Kevin Nesbitt","year":2027,"position":"OT","stars":null,"rating_247":null,"committed_to":"Temple","lat":39.055,"lng":-76.7909,"hometown_city":"Hyattsville","hometown_state":"MD"},{"name":"Marzear Douglas","year":2027,"position":"OT","stars":null,"rating_247":null,"committed_to":null,"lat":38.9101,"lng":-77.0147,"hometown_city":"Washington","hometown_state":"DC"},{"name":"Terrance Smith","year":2027,"position":"IOL","stars":null,"rating_247":95.0,"committed_to":null,"lat":40.8781,"lng":-77.7996,"hometown_city":"Lansdale","hometown_state":"PA"},{"name":"Ian Walker","year":2027,"position":"IOL","stars":null,"rating_247":89.0,"committed_to":"Kentucky","lat":40.1907,"lng":-74.6728,"hometown_city":"Pennington","hometown_state":"NJ"},{"name":"Louis Esposito","year":2027,"position":"IOL","stars":null,"rating_247":86.0,"committed_to":"Michigan","lat":44.3467,"lng":-85.4102,"hometown_city":"Saline","hometown_state":"MI"},{"name":"Charles Butler","year":2027,"position":"IOL","stars":null,"rating_247":86.0,"committed_to":"Rutgers","lat":40.8781,"lng":-77.7996,"hometown_city":"Pittsburgh","hometown_state":"PA"},{"name":"Jackson Albright","year":2027,"position":"IOL","stars":null,"rating_247":86.0,"committed_to":"Rutgers","lat":40.8781,"lng":-77.7996,"hometown_city":"Turbotville","hometown_state":"PA"},{"name":"Jayden Dean","year":2027,"position":"IOL","stars":null,"rating_247":85.0,"committed_to":null,"lat":28.6305,"lng":-82.4497,"hometown_city":"Fort Lauderdale","hometown_state":"FL"},{"name":"Giovanni Garner","year":2027,"position":"IOL","stars":null,"rating_247":null,"committed_to":null,"lat":28.6305,"lng":-82.4497,"hometown_city":"Opa Locka","hometown_state":"FL"},{"name":"Timothy Harvey","year":2027,"position":"IOL","stars":null,"rating_247":null,"committed_to":null,"lat":32.6415,"lng":-83.4426,"hometown_city":"Loganville","hometown_state":"GA"},{"name":"Jared Taylor","year":2027,"position":"IOL","stars":null,"rating_247":null,"committed_to":null,"lat":39.055,"lng":-76.7909,"hometown_city":"Hyattsville","hometown_state":"MD"},{"name":"Karson Engle","year":2027,"position":"IOL","stars":null,"rating_247":null,"committed_to":"Lehigh","lat":40.8781,"lng":-77.7996,"hometown_city":"Elizabethville","hometown_state":"PA"},{"name":"Ben Taglianetti","year":2027,"position":"IOL","stars":null,"rating_247":null,"committed_to":null,"lat":42.2596,"lng":-71.8083,"hometown_city":"Easthampton","hometown_state":"MA"},{"name":"Ty'Jahn Short","year":2027,"position":"IOL","stars":null,"rating_247":null,"committed_to":null,"lat":39.055,"lng":-76.7909,"hometown_city":"Baltimore","hometown_state":"MD"},{"name":"Chris Gentner","year":2027,"position":"IOL","stars":null,"rating_247":null,"committed_to":"Ohio","lat":40.2862,"lng":-82.7937,"hometown_city":"Columbus","hometown_state":"OH"},{"name":"Anthony Gerald","year":2027,"position":"IOL","stars":null,"rating_247":null,"committed_to":null,"lat":40.1907,"lng":-74.6728,"hometown_city":"Montvale","hometown_state":"NJ"},{"name":"Abraham Sesay","year":2027,"position":"Edge","stars":null,"rating_247":98.0,"committed_to":null,"lat":40.8781,"lng":-77.7996,"hometown_city":"Exton","hometown_state":"PA"},{"name":"Chris Whitehead","year":2027,"position":"Edge","stars":null,"rating_247":94.0,"committed_to":null,"lat":37.5215,"lng":-78.8537,"hometown_city":"Chesterfield","hometown_state":"VA"},{"name":"Jackson Vaughn","year":2027,"position":"Edge","stars":null,"rating_247":92.0,"committed_to":"Notre Dame","lat":40.1907,"lng":-74.6728,"hometown_city":"Oradell","hometown_state":"NJ"},{"name":"James Pace III","year":2027,"position":"Edge","stars":null,"rating_247":91.0,"committed_to":null,"lat":39.055,"lng":-76.7909,"hometown_city":"Hyattsville","hometown_state":"MD"},{"name":"Justin Weeks","year":2027,"position":"Edge","stars":null,"rating_247":89.0,"committed_to":null,"lat":32.6415,"lng":-83.4426,"hometown_city":"Douglasville","hometown_state":"GA"},{"name":"T.K. Cunningham","year":2027,"position":"Edge","stars":null,"rating_247":89.0,"committed_to":null,"lat":34.2744,"lng":-111.6602,"hometown_city":"Chandler","hometown_state":"AZ"},{"name":"Chaz Gray","year":2027,"position":"Edge","stars":null,"rating_247":89.0,"committed_to":"Washington","lat":40.1907,"lng":-74.6728,"hometown_city":"Montvale","hometown_state":"NJ"},{"name":"Adekunbi Adetayo","year":2027,"position":"Edge","stars":null,"rating_247":89.0,"committed_to":null,"lat":40.1907,"lng":-74.6728,"hometown_city":"Newark","hometown_state":"NJ"},{"name":"Rion Jackson","year":2027,"position":"Edge","stars":null,"rating_247":88.0,"committed_to":"Auburn","lat":39.055,"lng":-76.7909,"hometown_city":"Annapolis","hometown_state":"MD"},{"name":"Trevoris Finley","year":2027,"position":"Edge","stars":null,"rating_247":87.0,"committed_to":"West Virginia","lat":28.6305,"lng":-82.4497,"hometown_city":"Opa Locka","hometown_state":"FL"},{"name":"Esa Wittingburg","year":2027,"position":"Edge","stars":null,"rating_247":87.0,"committed_to":null,"lat":40.1907,"lng":-74.6728,"hometown_city":"East Orange","hometown_state":"NJ"},{"name":"Dominic Letlow","year":2027,"position":"Edge","stars":null,"rating_247":87.0,"committed_to":"Pittsburgh","lat":40.2862,"lng":-82.7937,"hometown_city":"Youngstown","hometown_state":"OH"},{"name":"Kemontae Chaplin","year":2027,"position":"Edge","stars":null,"rating_247":87.0,"committed_to":null,"lat":38.9101,"lng":-77.0147,"hometown_city":"Washington","hometown_state":"DC"},{"name":"Cam Aime","year":2027,"position":"Edge","stars":null,"rating_247":87.0,"committed_to":"Pittsburgh","lat":40.1907,"lng":-74.6728,"hometown_city":"Montvale","hometown_state":"NJ"},{"name":"Javon Lane","year":2027,"position":"Edge","stars":null,"rating_247":85.0,"committed_to":null,"lat":40.1907,"lng":-74.6728,"hometown_city":"Atlantic City","hometown_state":"NJ"},{"name":"Sincere Hester","year":2027,"position":"Edge","stars":null,"rating_247":null,"committed_to":null,"lat":42.9538,"lng":-75.5268,"hometown_city":"Bronx","hometown_state":"NY"},{"name":"Chase Hyacinth","year":2027,"position":"Edge","stars":null,"rating_247":null,"committed_to":null,"lat":42.9538,"lng":-75.5268,"hometown_city":"Bronx","hometown_state":"NY"},{"name":"Philip Prioleau","year":2027,"position":"Edge","stars":null,"rating_247":null,"committed_to":null,"lat":28.6305,"lng":-82.4497,"hometown_city":"Orlando","hometown_state":"FL"},{"name":"Sammy Dantonka","year":2027,"position":"Edge","stars":null,"rating_247":null,"committed_to":null,"lat":40.8781,"lng":-77.7996,"hometown_city":"Springfield","hometown_state":"PA"},{"name":"Benji Carter","year":2027,"position":"Edge","stars":null,"rating_247":null,"committed_to":null,"lat":40.1907,"lng":-74.6728,"hometown_city":"Atco","hometown_state":"NJ"},{"name":"Aaron Black","year":2027,"position":"Edge","stars":null,"rating_247":null,"committed_to":null,"lat":32.6415,"lng":-83.4426,"hometown_city":"Loganville","hometown_state":"GA"},{"name":"Mark Shiloh","year":2027,"position":"Edge","stars":null,"rating_247":null,"committed_to":null,"lat":28.6305,"lng":-82.4497,"hometown_city":"Jacksonville","hometown_state":"FL"},{"name":"Caleb Saint Fleur","year":2027,"position":"Edge","stars":null,"rating_247":null,"committed_to":null,"lat":28.6305,"lng":-82.4497,"hometown_city":"Hollywood","hometown_state":"FL"},{"name":"Amare Mitchell","year":2027,"position":"Edge","stars":null,"rating_247":null,"committed_to":null,"lat":40.2862,"lng":-82.7937,"hometown_city":"Canton","hometown_state":"OH"},{"name":"Amara Dolleh","year":2027,"position":"Edge","stars":null,"rating_247":null,"committed_to":null,"lat":40.1907,"lng":-74.6728,"hometown_city":"Camden","hometown_state":"NJ"},{"name":"Austin Wright","year":2027,"position":"Edge","stars":null,"rating_247":null,"committed_to":"Eastern Michigan","lat":40.8781,"lng":-77.7996,"hometown_city":"Philadelphia","hometown_state":"PA"},{"name":"Jason Madden","year":2027,"position":"Edge","stars":null,"rating_247":null,"committed_to":"Connecticut","lat":40.1907,"lng":-74.6728,"hometown_city":"Toms River","hometown_state":"NJ"},{"name":"Stanley Montgomery","year":2027,"position":"DL","stars":null,"rating_247":94.0,"committed_to":"Penn State","lat":40.8781,"lng":-77.7996,"hometown_city":"Philadelphia","hometown_state":"PA"},{"name":"Elijah Guertin","year":2027,"position":"DL","stars":null,"rating_247":90.0,"committed_to":null,"lat":41.6762,"lng":-71.5562,"hometown_city":"Warwick","hometown_state":"RI"},{"name":"Carter Blattner","year":2027,"position":"DL","stars":null,"rating_247":89.0,"committed_to":"Penn State","lat":40.1907,"lng":-74.6728,"hometown_city":"Allendale","hometown_state":"NJ"},{"name":"Tyler Alexander","year":2027,"position":"DL","stars":null,"rating_247":88.0,"committed_to":null,"lat":28.6305,"lng":-82.4497,"hometown_city":"Wellington","hometown_state":"FL"},{"name":"Kalib Spivey","year":2027,"position":"DL","stars":null,"rating_247":88.0,"committed_to":"Georgia Tech","lat":32.7794,"lng":-86.8287,"hometown_city":"Alexander City","hometown_state":"AL"},{"name":"Raymond Hudson","year":2027,"position":"DL","stars":null,"rating_247":88.0,"committed_to":null,"lat":37.5215,"lng":-78.8537,"hometown_city":"Richmond","hometown_state":"VA"},{"name":"Xzaiver Whittington","year":2027,"position":"DL","stars":null,"rating_247":87.0,"committed_to":null,"lat":39.055,"lng":-76.7909,"hometown_city":"Aberdeen","hometown_state":"MD"},{"name":"Joshua Simmons","year":2027,"position":"DL","stars":null,"rating_247":87.0,"committed_to":null,"lat":42.9538,"lng":-75.5268,"hometown_city":"New Rochelle","hometown_state":"NY"},{"name":"Antonio Underwood","year":2027,"position":"DL","stars":null,"rating_247":86.0,"committed_to":null,"lat":31.4757,"lng":-99.3312,"hometown_city":"Houston","hometown_state":"TX"},{"name":"Lorenzo Tartamella","year":2027,"position":"DL","stars":null,"rating_247":85.0,"committed_to":"Navy","lat":40.1907,"lng":-74.6728,"hometown_city":"Red Bank","hometown_state":"NJ"},{"name":"John Amofah Jr.","year":2027,"position":"DL","stars":null,"rating_247":84.0,"committed_to":"Cincinnati","lat":32.6415,"lng":-83.4426,"hometown_city":"Atlanta","hometown_state":"GA"},{"name":"Michael Gibbs","year":2027,"position":"DL","stars":null,"rating_247":84.0,"committed_to":"James Madison","lat":37.5215,"lng":-78.8537,"hometown_city":"Richmond","hometown_state":"VA"},{"name":"Jamaree Horton","year":2027,"position":"DL","stars":null,"rating_247":null,"committed_to":null,"lat":37.5215,"lng":-78.8537,"hometown_city":"Chesapeake","hometown_state":"VA"},{"name":"Trent Small","year":2027,"position":"DL","stars":null,"rating_247":null,"committed_to":null,"lat":39.055,"lng":-76.7909,"hometown_city":"Hyattsville","hometown_state":"MD"},{"name":"Sebastian Myles","year":2027,"position":"DL","stars":null,"rating_247":null,"committed_to":"Kennesaw State","lat":32.6415,"lng":-83.4426,"hometown_city":"Atlanta","hometown_state":"GA"},{"name":"Keegan Gray-Wyckoff","year":2027,"position":"DL","stars":null,"rating_247":null,"committed_to":"Temple","lat":40.2862,"lng":-82.7937,"hometown_city":"Antwerp","hometown_state":"OH"},{"name":"Jayshawn McCloud","year":2027,"position":"DL","stars":null,"rating_247":null,"committed_to":null,"lat":28.6305,"lng":-82.4497,"hometown_city":"Green Cove Springs","hometown_state":"FL"},{"name":"Jayshawn McCloud","year":2027,"position":"DL","stars":null,"rating_247":null,"committed_to":"Liberty","lat":28.6305,"lng":-82.4497,"hometown_city":"Green Cove Springs","hometown_state":"FL"},{"name":"Kodi Gbanite","year":2027,"position":"DL","stars":null,"rating_247":null,"committed_to":null,"lat":40.1907,"lng":-74.6728,"hometown_city":"Livingston","hometown_state":"NJ"},{"name":"Tasheem Butler","year":2027,"position":"LB","stars":null,"rating_247":87.0,"committed_to":"North Carolina","lat":40.1907,"lng":-74.6728,"hometown_city":"Glassboro","hometown_state":"NJ"},{"name":"Jahmiere Daniels-Portis","year":2027,"position":"LB","stars":null,"rating_247":87.0,"committed_to":null,"lat":40.2862,"lng":-82.7937,"hometown_city":"Springfield","hometown_state":"OH"},{"name":"Wesley Flamer","year":2027,"position":"LB","stars":null,"rating_247":87.0,"committed_to":"West Virginia","lat":37.5215,"lng":-78.8537,"hometown_city":"Springfield","hometown_state":"VA"},{"name":"Jack Baker","year":2027,"position":"LB","stars":null,"rating_247":86.0,"committed_to":"Duke","lat":40.1907,"lng":-74.6728,"hometown_city":"Toms River","hometown_state":"NJ"},{"name":"Minikon Johnson","year":2027,"position":"LB","stars":null,"rating_247":86.0,"committed_to":"Connecticut","lat":40.8781,"lng":-77.7996,"hometown_city":"Pittsburgh","hometown_state":"PA"},{"name":"Rick Brown","year":2027,"position":"LB","stars":null,"rating_247":86.0,"committed_to":"West Virginia","lat":40.8781,"lng":-77.7996,"hometown_city":"Harrisburg","hometown_state":"PA"},{"name":"Sire Razi","year":2027,"position":"LB","stars":null,"rating_247":86.0,"committed_to":null,"lat":32.6415,"lng":-83.4426,"hometown_city":"Fairburn","hometown_state":"GA"},{"name":"Jack Frassetto","year":2027,"position":"LB","stars":null,"rating_247":86.0,"committed_to":"Northwestern","lat":40.1907,"lng":-74.6728,"hometown_city":"Lawrenceville","hometown_state":"NJ"},{"name":"Walter Hudson","year":2027,"position":"LB","stars":null,"rating_247":86.0,"committed_to":"Pittsburgh","lat":40.8781,"lng":-77.7996,"hometown_city":"Philadelphia","hometown_state":"PA"},{"name":"Roman Thompson","year":2027,"position":"LB","stars":null,"rating_247":85.0,"committed_to":null,"lat":40.8781,"lng":-77.7996,"hometown_city":"Pittsburgh","hometown_state":"PA"},{"name":"Quinn Vanneste","year":2027,"position":"LB","stars":null,"rating_247":85.0,"committed_to":null,"lat":42.2596,"lng":-71.8083,"hometown_city":"Marion","hometown_state":"MA"},{"name":"Juiez Washington","year":2027,"position":"LB","stars":null,"rating_247":null,"committed_to":null,"lat":39.055,"lng":-76.7909,"hometown_city":"Hyattsville","hometown_state":"MD"},{"name":"Alijah Paige","year":2027,"position":"LB","stars":null,"rating_247":null,"committed_to":null,"lat":37.5215,"lng":-78.8537,"hometown_city":"Richmond","hometown_state":"VA"},{"name":"Ace Alston","year":2027,"position":"CB","stars":null,"rating_247":93.0,"committed_to":"Notre Dame","lat":40.2862,"lng":-82.7937,"hometown_city":"Cincinnati","hometown_state":"OH"},{"name":"Zayden Gamble","year":2027,"position":"CB","stars":null,"rating_247":92.0,"committed_to":"Notre Dame","lat":28.6305,"lng":-82.4497,"hometown_city":"Fort Lauderdale","hometown_state":"FL"},{"name":"Gabe Jenkins","year":2027,"position":"CB","stars":null,"rating_247":90.0,"committed_to":"Colorado","lat":40.8781,"lng":-77.7996,"hometown_city":"Pittsburgh","hometown_state":"PA"},{"name":"Duvay Williams","year":2027,"position":"CB","stars":null,"rating_247":90.0,"committed_to":"California","lat":37.1841,"lng":-119.4696,"hometown_city":"Inglewood","hometown_state":"CA"},{"name":"Bryce Woods","year":2027,"position":"CB","stars":null,"rating_247":88.0,"committed_to":"Virginia Tech","lat":32.6415,"lng":-83.4426,"hometown_city":"College Park","hometown_state":"GA"},{"name":"Jaden Carey","year":2027,"position":"CB","stars":null,"rating_247":88.0,"committed_to":null,"lat":28.6305,"lng":-82.4497,"hometown_city":"Fort Lauderdale","hometown_state":"FL"},{"name":"Jordan Young","year":2027,"position":"CB","stars":null,"rating_247":87.0,"committed_to":"Pittsburgh","lat":28.6305,"lng":-82.4497,"hometown_city":"Lakeland","hometown_state":"FL"},{"name":"T'ari Miller","year":2027,"position":"CB","stars":null,"rating_247":87.0,"committed_to":null,"lat":28.6305,"lng":-82.4497,"hometown_city":"Miami","hometown_state":"FL"},{"name":"Patrick Hall","year":2027,"position":"CB","stars":null,"rating_247":87.0,"committed_to":null,"lat":37.1841,"lng":-119.4696,"hometown_city":"Santa Ana","hometown_state":"CA"},{"name":"Trey Hopkins","year":2027,"position":"CB","stars":null,"rating_247":87.0,"committed_to":"UCLA","lat":40.8781,"lng":-77.7996,"hometown_city":"Wyndmoor","hometown_state":"PA"},{"name":"Jacquari Parks","year":2027,"position":"CB","stars":null,"rating_247":86.0,"committed_to":null,"lat":28.6305,"lng":-82.4497,"hometown_city":"Jacksonville","hometown_state":"FL"},{"name":"Khalid Rainer","year":2027,"position":"CB","stars":null,"rating_247":86.0,"committed_to":null,"lat":37.5215,"lng":-78.8537,"hometown_city":"Richmond","hometown_state":"VA"},{"name":"Ziere Alston","year":2027,"position":"CB","stars":null,"rating_247":85.0,"committed_to":null,"lat":40.2862,"lng":-82.7937,"hometown_city":"Dayton","hometown_state":"OH"},{"name":"Terrence Barner","year":2027,"position":"CB","stars":null,"rating_247":84.0,"committed_to":null,"lat":42.9538,"lng":-75.5268,"hometown_city":"Rochester","hometown_state":"NY"},{"name":"Demari Clemons","year":2027,"position":"CB","stars":null,"rating_247":null,"committed_to":null,"lat":28.6305,"lng":-82.4497,"hometown_city":"Bradenton","hometown_state":"FL"},{"name":"Jack Strother","year":2027,"position":"CB","stars":null,"rating_247":null,"committed_to":null,"lat":37.5215,"lng":-78.8537,"hometown_city":"Virginia Beach","hometown_state":"VA"},{"name":"Ramir Harris-Dupree","year":2027,"position":"CB","stars":null,"rating_247":null,"committed_to":null,"lat":35.5557,"lng":-79.3877,"hometown_city":"Greensboro","hometown_state":"NC"},{"name":"Brandon Ross","year":2027,"position":"CB","stars":null,"rating_247":null,"committed_to":"Buffalo","lat":40.8781,"lng":-77.7996,"hometown_city":"Philadelphia","hometown_state":"PA"},{"name":"Kenaz Sullivan","year":2027,"position":"S","stars":null,"rating_247":90.0,"committed_to":null,"lat":37.5215,"lng":-78.8537,"hometown_city":"Springfield","hometown_state":"VA"},{"name":"Zayvon Miller","year":2027,"position":"S","stars":null,"rating_247":87.0,"committed_to":"Virginia","lat":37.5215,"lng":-78.8537,"hometown_city":"Richmond","hometown_state":"VA"},{"name":"Alan Blackshere","year":2027,"position":"S","stars":null,"rating_247":86.0,"committed_to":"Connecticut","lat":28.6305,"lng":-82.4497,"hometown_city":"Opa Locka","hometown_state":"FL"},{"name":"Mamadee Sangaray","year":2027,"position":"S","stars":null,"rating_247":86.0,"committed_to":"Boston College","lat":42.9538,"lng":-75.5268,"hometown_city":"New Rochelle","hometown_state":"NY"},{"name":"Suhayl Benson","year":2027,"position":"S","stars":null,"rating_247":86.0,"committed_to":null,"lat":38.9896,"lng":-75.505,"hometown_city":"Wilmington","hometown_state":"DE"},{"name":"Jordan Crider","year":2027,"position":"S","stars":null,"rating_247":86.0,"committed_to":"Iowa State","lat":40.2862,"lng":-82.7937,"hometown_city":"Middletown","hometown_state":"OH"},{"name":"Ty'ire Clark","year":2027,"position":"S","stars":null,"rating_247":85.0,"committed_to":"Michigan State","lat":40.1907,"lng":-74.6728,"hometown_city":"Jersey City","hometown_state":"NJ"},{"name":"Trey Cherry","year":2027,"position":"S","stars":null,"rating_247":null,"committed_to":null,"lat":37.5215,"lng":-78.8537,"hometown_city":"Richmond","hometown_state":"VA"},{"name":"Latroy Pender Jr.","year":2027,"position":"S","stars":null,"rating_247":null,"committed_to":null,"lat":28.6305,"lng":-82.4497,"hometown_city":"Fort Myers","hometown_state":"FL"},{"name":"Kaeden Drenning","year":2027,"position":"S","stars":null,"rating_247":null,"committed_to":null,"lat":37.5215,"lng":-78.8537,"hometown_city":"Virginia Beach","hometown_state":"VA"},{"name":"Ivan Thompson","year":2027,"position":"S","stars":null,"rating_247":null,"committed_to":null,"lat":37.5215,"lng":-78.8537,"hometown_city":"Richmond","hometown_state":"VA"},{"name":"JoJo Delecce","year":2027,"position":"S","stars":null,"rating_247":null,"committed_to":null,"lat":40.1907,"lng":-74.6728,"hometown_city":"Glassboro","hometown_state":"NJ"},{"name":"George Richards","year":2027,"position":"S","stars":null,"rating_247":null,"committed_to":"Connecticut","lat":41.6219,"lng":-72.7273,"hometown_city":"Oakdale","hometown_state":"CT"},{"name":"Aroson Randle Jr.","year":2027,"position":"ATH","stars":null,"rating_247":94.0,"committed_to":"Miami","lat":35.5557,"lng":-79.3877,"hometown_city":"Garner","hometown_state":"NC"},{"name":"Monsanna Torbert Jr.","year":2027,"position":"ATH","stars":null,"rating_247":93.0,"committed_to":null,"lat":40.2862,"lng":-82.7937,"hometown_city":"Cincinnati","hometown_state":"OH"},{"name":"Khalil Taylor","year":2027,"position":"ATH","stars":null,"rating_247":92.0,"committed_to":null,"lat":40.8781,"lng":-77.7996,"hometown_city":"Gibsonia","hometown_state":"PA"},{"name":"Carter Bonner","year":2027,"position":"ATH","stars":null,"rating_247":90.0,"committed_to":"West Virginia","lat":39.055,"lng":-76.7909,"hometown_city":"Baltimore","hometown_state":"MD"},{"name":"Hakim Frampton","year":2027,"position":"ATH","stars":null,"rating_247":89.0,"committed_to":"Texas A&M","lat":31.4757,"lng":-99.3312,"hometown_city":"San Antonio","hometown_state":"TX"},{"name":"Colt Lumpris","year":2027,"position":"ATH","stars":null,"rating_247":89.0,"committed_to":"Michigan","lat":40.1907,"lng":-74.6728,"hometown_city":"Lawrenceville","hometown_state":"NJ"},{"name":"Marcus Turpin","year":2027,"position":"ATH","stars":null,"rating_247":89.0,"committed_to":null,"lat":39.055,"lng":-76.7909,"hometown_city":"Baltimore","hometown_state":"MD"},{"name":"Austin Barrett","year":2027,"position":"ATH","stars":null,"rating_247":89.0,"committed_to":"Virginia Tech","lat":40.1907,"lng":-74.6728,"hometown_city":"Paramus","hometown_state":"NJ"},{"name":"Logan Steele","year":2027,"position":"ATH","stars":null,"rating_247":88.0,"committed_to":"Wake Forest","lat":40.8781,"lng":-77.7996,"hometown_city":"Coal Township","hometown_state":"PA"},{"name":"DJ Davis","year":2027,"position":"ATH","stars":null,"rating_247":88.0,"committed_to":"Wisconsin","lat":38.9896,"lng":-75.505,"hometown_city":"Middletown","hometown_state":"DE"},{"name":"Cade Cooper","year":2027,"position":"ATH","stars":null,"rating_247":88.0,"committed_to":"Louisiana State","lat":40.8781,"lng":-77.7996,"hometown_city":"Malvern","hometown_state":"PA"},{"name":"Semaj Dozier","year":2027,"position":"ATH","stars":null,"rating_247":88.0,"committed_to":"Virginia Tech","lat":40.1907,"lng":-74.6728,"hometown_city":"Pleasantville","hometown_state":"NJ"},{"name":"Matt Williams","year":2027,"position":"ATH","stars":null,"rating_247":88.0,"committed_to":"Vanderbilt","lat":37.5215,"lng":-78.8537,"hometown_city":"Norfolk","hometown_state":"VA"},{"name":"Ka'ron Ceaser","year":2027,"position":"ATH","stars":null,"rating_247":87.0,"committed_to":"Penn State","lat":40.1907,"lng":-74.6728,"hometown_city":"Atco","hometown_state":"NJ"},{"name":"Jonathan Galette","year":2027,"position":"ATH","stars":null,"rating_247":87.0,"committed_to":"Penn State","lat":40.1907,"lng":-74.6728,"hometown_city":"Montvale","hometown_state":"NJ"},{"name":"Cain Van Norden","year":2027,"position":"ATH","stars":null,"rating_247":87.0,"committed_to":"Florida","lat":39.055,"lng":-76.7909,"hometown_city":"Forestville","hometown_state":"MD"},{"name":"Chase Guers","year":2027,"position":"ATH","stars":null,"rating_247":87.0,"committed_to":null,"lat":40.8781,"lng":-77.7996,"hometown_city":"Schuylkill Haven","hometown_state":"PA"},{"name":"Ian McDuffie","year":2027,"position":"ATH","stars":null,"rating_247":87.0,"committed_to":"Syracuse","lat":40.1907,"lng":-74.6728,"hometown_city":"Wayne","hometown_state":"NJ"},{"name":"Sa Rex","year":2027,"position":"ATH","stars":null,"rating_247":86.0,"committed_to":null,"lat":37.5215,"lng":-78.8537,"hometown_city":"Richmond","hometown_state":"VA"},{"name":"Noah Collins-Howard","year":2027,"position":"ATH","stars":null,"rating_247":86.0,"committed_to":"Syracuse","lat":42.9538,"lng":-75.5268,"hometown_city":"Henrietta","hometown_state":"NY"},{"name":"Romel Koon","year":2027,"position":"ATH","stars":null,"rating_247":86.0,"committed_to":null,"lat":35.858,"lng":-86.3505,"hometown_city":"Brentwood","hometown_state":"TN"},{"name":"Eltonino Hicks","year":2027,"position":"ATH","stars":null,"rating_247":86.0,"committed_to":"Connecticut","lat":37.5215,"lng":-78.8537,"hometown_city":"Springfield","hometown_state":"VA"},{"name":"Amir Hogans","year":2027,"position":"ATH","stars":null,"rating_247":86.0,"committed_to":"Northwestern","lat":40.1907,"lng":-74.6728,"hometown_city":"Princeton","hometown_state":"NJ"},{"name":"Chris Bradley","year":2027,"position":"ATH","stars":null,"rating_247":86.0,"committed_to":null,"lat":40.2862,"lng":-82.7937,"hometown_city":"Cincinnati","hometown_state":"OH"},{"name":"James Westervelt","year":2027,"position":"ATH","stars":null,"rating_247":85.0,"committed_to":"Virginia","lat":39.055,"lng":-76.7909,"hometown_city":"Bel Air","hometown_state":"MD"},{"name":"Virgil Lemons","year":2027,"position":"ATH","stars":null,"rating_247":null,"committed_to":null,"lat":28.6305,"lng":-82.4497,"hometown_city":"Fort Lauderdale","hometown_state":"FL"},{"name":"Darius Dennis","year":2027,"position":"ATH","stars":null,"rating_247":null,"committed_to":null,"lat":40.2862,"lng":-82.7937,"hometown_city":"Dayton","hometown_state":"OH"},{"name":"Nehki Martin","year":2027,"position":"ATH","stars":null,"rating_247":null,"committed_to":null,"lat":40.1907,"lng":-74.6728,"hometown_city":"Paramus","hometown_state":"NJ"},{"name":"Mark Madden","year":2027,"position":"ATH","stars":null,"rating_247":null,"committed_to":null,"lat":40.2862,"lng":-82.7937,"hometown_city":"Cincinnati","hometown_state":"OH"},{"name":"Sire Hall","year":2027,"position":"ATH","stars":null,"rating_247":null,"committed_to":null,"lat":40.8781,"lng":-77.7996,"hometown_city":"Chester","hometown_state":"PA"},{"name":"JoNavan Bryant","year":2027,"position":"ATH","stars":null,"rating_247":null,"committed_to":null,"lat":28.6305,"lng":-82.4497,"hometown_city":"Pensacola","hometown_state":"FL"},{"name":"Jakari Graham","year":2027,"position":"ATH","stars":null,"rating_247":null,"committed_to":"Temple","lat":37.5215,"lng":-78.8537,"hometown_city":"Springfield","hometown_state":"VA"},{"name":"Brayden Rose","year":2027,"position":"ATH","stars":null,"rating_247":null,"committed_to":null,"lat":40.8781,"lng":-77.7996,"hometown_city":"Taylor","hometown_state":"PA"},{"name":"Jaden Days","year":2027,"position":"ATH","stars":null,"rating_247":null,"committed_to":"Temple","lat":40.1907,"lng":-74.6728,"hometown_city":"Millville","hometown_state":"NJ"},{"name":"Jayden Paulino","year":2027,"position":"ATH","stars":null,"rating_247":null,"committed_to":null,"lat":40.1907,"lng":-74.6728,"hometown_city":"Wayne","hometown_state":"NJ"}],"2028":[{"name":"Trey Tagliaferri","year":2028,"position":"QB","stars":null,"rating_247":89.0,"committed_to":null,"lat":40.1907,"lng":-74.6728,"hometown_city":"Oradell","hometown_state":"NJ"},{"name":"Charles Scott Jr.","year":2028,"position":"QB","stars":null,"rating_247":87.0,"committed_to":"Alabama","lat":37.5215,"lng":-78.8537,"hometown_city":"Richmond","hometown_state":"VA"},{"name":"Carson Schoen","year":2028,"position":"QB","stars":null,"rating_247":84.0,"committed_to":null,"lat":40.1907,"lng":-74.6728,"hometown_city":"Ramsey","hometown_state":"NJ"},{"name":"Dominick Everette","year":2028,"position":"QB","stars":null,"rating_247":null,"committed_to":null,"lat":37.5215,"lng":-78.8537,"hometown_city":"Norfolk","hometown_state":"VA"},{"name":"Jerome LaRue","year":2028,"position":"RB","stars":null,"rating_247":89.0,"committed_to":"Maryland","lat":40.8781,"lng":-77.7996,"hometown_city":"York","hometown_state":"PA"},{"name":"Ca'Si Thomas","year":2028,"position":"RB","stars":null,"rating_247":null,"committed_to":null,"lat":40.1907,"lng":-74.6728,"hometown_city":"Ramsey","hometown_state":"NJ"},{"name":"Juelz Chiron-Robinson","year":2028,"position":"RB","stars":null,"rating_247":null,"committed_to":null,"lat":40.8781,"lng":-77.7996,"hometown_city":"Exton","hometown_state":"PA"},{"name":"Jason Harden Jr","year":2028,"position":"RB","stars":null,"rating_247":null,"committed_to":null,"lat":37.5215,"lng":-78.8537,"hometown_city":"Virginia Beach","hometown_state":"VA"},{"name":"Deandre Bidden","year":2028,"position":"WR","stars":null,"rating_247":92.0,"committed_to":null,"lat":44.3467,"lng":-85.4102,"hometown_city":"Harper Woods","hometown_state":"MI"},{"name":"Lorenzo McMullen Jr.","year":2028,"position":"WR","stars":null,"rating_247":90.0,"committed_to":null,"lat":40.2862,"lng":-82.7937,"hometown_city":"Cincinnati","hometown_state":"OH"},{"name":"Brandon Jefferson","year":2028,"position":"WR","stars":null,"rating_247":90.0,"committed_to":null,"lat":39.055,"lng":-76.7909,"hometown_city":"Baltimore","hometown_state":"MD"},{"name":"Quincy Gilmer","year":2028,"position":"WR","stars":null,"rating_247":90.0,"committed_to":null,"lat":28.6305,"lng":-82.4497,"hometown_city":"Bradenton","hometown_state":"FL"},{"name":"Mylan Griggs","year":2028,"position":"WR","stars":null,"rating_247":88.0,"committed_to":null,"lat":44.3467,"lng":-85.4102,"hometown_city":"Detroit","hometown_state":"MI"},{"name":"Xander Odenyo","year":2028,"position":"WR","stars":null,"rating_247":87.0,"committed_to":null,"lat":42.2596,"lng":-71.8083,"hometown_city":"Marion","hometown_state":"MA"},{"name":"Amari Jones","year":2028,"position":"WR","stars":null,"rating_247":null,"committed_to":null,"lat":40.1907,"lng":-74.6728,"hometown_city":"Jersey City","hometown_state":"NJ"},{"name":"Jordyn Murray","year":2028,"position":"WR","stars":null,"rating_247":null,"committed_to":null,"lat":28.6305,"lng":-82.4497,"hometown_city":"Tampa","hometown_state":"FL"},{"name":"David Hill","year":2028,"position":"WR","stars":null,"rating_247":null,"committed_to":null,"lat":28.6305,"lng":-82.4497,"hometown_city":"Tampa","hometown_state":"FL"},{"name":"TJ Bailey","year":2028,"position":"WR","stars":null,"rating_247":null,"committed_to":null,"lat":40.1907,"lng":-74.6728,"hometown_city":"Newark","hometown_state":"NJ"},{"name":"Mason Anderson","year":2028,"position":"WR","stars":null,"rating_247":null,"committed_to":null,"lat":42.9538,"lng":-75.5268,"hometown_city":"Hamburg","hometown_state":"NY"},{"name":"Luke Sohyda","year":2028,"position":"TE","stars":null,"rating_247":null,"committed_to":null,"lat":40.8781,"lng":-77.7996,"hometown_city":"Canonsburg","hometown_state":"PA"},{"name":"Eytan D'oleo","year":2028,"position":"OT","stars":null,"rating_247":90.0,"committed_to":null,"lat":40.1907,"lng":-74.6728,"hometown_city":"Camden","hometown_state":"NJ"},{"name":"Isaiah Whitehead","year":2028,"position":"OT","stars":null,"rating_247":87.0,"committed_to":null,"lat":37.5215,"lng":-78.8537,"hometown_city":"Chesterfield","hometown_state":"VA"},{"name":"Alvin Holland","year":2028,"position":"OT","stars":null,"rating_247":null,"committed_to":null,"lat":37.5215,"lng":-78.8537,"hometown_city":"Suffolk","hometown_state":"VA"},{"name":"Kavon Blackmon","year":2028,"position":"OT","stars":null,"rating_247":null,"committed_to":null,"lat":40.2862,"lng":-82.7937,"hometown_city":"Springfield","hometown_state":"OH"},{"name":"Ephraim Holmes","year":2028,"position":"OT","stars":null,"rating_247":null,"committed_to":null,"lat":35.5557,"lng":-79.3877,"hometown_city":"Charlotte","hometown_state":"NC"},{"name":"Tyrie Davis-Winn","year":2028,"position":"IOL","stars":null,"rating_247":90.0,"committed_to":null,"lat":40.8781,"lng":-77.7996,"hometown_city":"Drexel Hill","hometown_state":"PA"},{"name":"Patrick Cheatham Jr.","year":2028,"position":"IOL","stars":null,"rating_247":null,"committed_to":null,"lat":37.5215,"lng":-78.8537,"hometown_city":"Highland Springs","hometown_state":"VA"},