{"2026":[{"name":"Jared Curtis","year":2026,"position":"QB","stars":5,"rating_247":99.0,"committed_to":"Vanderbilt","lat":36.1622296,"lng":-86.7743531,"hometown_city":"Nashville","hometown_state":"TN"},{"name":"Faizon Brandon","year":2026,"position":"QB","stars":5,"rating_247":99.0,"committed_to":"Tennessee","lat":36.0726355,"lng":-79.7919754,"hometown_city":"Greensboro","hometown_state":"NC"},{"name":"Dia Bell","year":2026,"position":"QB","stars":5,"rating_247":97.0,"committed_to":"Texas","lat":26.1223084,"lng":-80.1433786,"hometown_city":"Fort Lauderdale","hometown_state":"FL"},{"name":"Jonas Williams","year":2026,"position":"QB","stars":4,"rating_247":95.0,"committed_to":"Southern California","lat":41.4958665,"lng":-87.8486613,"hometown_city":"Frankfort","hometown_state":"IL"},{"name":"Helaman Casuga","year":2026,"position":"QB","stars":4,"rating_247":90.0,"committed_to":"Texas A&M","lat":40.5246711,"lng":-111.8638226,"hometown_city":"Draper","hometown_state":"UT"},{"name":"Tait Reynolds","year":2026,"position":"QB","stars":3,"rating_247":88.0,"committed_to":"Clemson","lat":33.2483858,"lng":-111.6341585,"hometown_city":"Queen Creek","hometown_state":"AZ"},{"name":"Kane Archer","year":2026,"position":"QB","stars":3,"rating_247":85.0,"committed_to":"Utah","lat":35.2156489,"lng":-94.2557663,"hometown_city":"Greenwood","hometown_state":"AR"},{"name":"Josiah Oxendine","year":2026,"position":"QB","stars":null,"rating_247":null,"committed_to":null,"lat":35.5557,"lng":-79.3877,"hometown_city":"Marshville","hometown_state":"NC"},{"name":"EJ Crowell","year":2026,"position":"RB","stars":null,"rating_247":98.0,"committed_to":"Alabama","lat":32.7794,"lng":-86.8287,"hometown_city":"Jackson","hometown_state":"AL"},{"name":"Savion Hiter","year":2026,"position":"RB","stars":5,"rating_247":98.0,"committed_to":"Michigan","lat":38.010695,"lng":-77.9086068,"hometown_city":"Mineral","hometown_state":"VA"},{"name":"KJ Edwards","year":2026,"position":"RB","stars":4,"rating_247":97.0,"committed_to":"Texas A&M","lat":32.1570412,"lng":-94.338114,"hometown_city":"Carthage","hometown_state":"TX"},{"name":"Davian Groce","year":2026,"position":"RB","stars":4,"rating_247":96.0,"committed_to":"Florida","lat":33.1506744,"lng":-96.8236116,"hometown_city":"Frisco","hometown_state":"TX"},{"name":"Tradarian Ball","year":2026,"position":"RB","stars":4,"rating_247":96.0,"committed_to":"Oregon","lat":33.44628645,"lng":-94.07638067493534,"hometown_city":"Texarkana","hometown_state":"TX"},{"name":"Deshonne Redeaux","year":2026,"position":"RB","stars":4,"rating_247":95.0,"committed_to":"Southern California","lat":34.1460234,"lng":-118.8061794,"hometown_city":"Westlake Village","hometown_state":"CA"},{"name":"Jonathan Hatton Jr.","year":2026,"position":"RB","stars":4,"rating_247":95.0,"committed_to":"Oklahoma","lat":29.5707831,"lng":-98.2330927,"hometown_city":"Cibolo","hometown_state":"TX"},{"name":"Brian Bonner Jr.","year":2026,"position":"RB","stars":null,"rating_247":94.0,"committed_to":"Washington","lat":37.1841,"lng":-119.4696,"hometown_city":"Valencia","hometown_state":"CA"},{"name":"Jonaz Walton","year":2026,"position":"RB","stars":4,"rating_247":93.0,"committed_to":"Notre Dame","lat":33.5801103,"lng":-85.0766113,"hometown_city":"Carrollton","hometown_state":"GA"},{"name":"Damarius Yates","year":2026,"position":"RB","stars":4,"rating_247":93.0,"committed_to":"Mississippi","lat":32.767633,"lng":-88.6508784,"hometown_city":"De Kalb","hometown_state":"MS"},{"name":"Javian Osborne","year":2026,"position":"RB","stars":4,"rating_247":92.0,"committed_to":"Notre Dame","lat":32.747893,"lng":-96.4719289,"hometown_city":"Forney","hometown_state":"TX"},{"name":"Jae Lamar","year":2026,"position":"RB","stars":4,"rating_247":91.0,"committed_to":"Georgia","lat":31.179998,"lng":-83.7887928,"hometown_city":"Moultrie","hometown_state":"GA"},{"name":"Carsyn Baker","year":2026,"position":"RB","stars":4,"rating_247":90.0,"committed_to":"Texas A&M","lat":33.5670562,"lng":-84.5810418,"hometown_city":"Fairburn","hometown_state":"GA"},{"name":"Amari Latimer","year":2026,"position":"RB","stars":4,"rating_247":90.0,"committed_to":"West Virginia","lat":33.4713249,"lng":-84.5972005,"hometown_city":"Tyrone","hometown_state":"GA"},{"name":"Cardae Mack","year":2026,"position":"RB","stars":4,"rating_247":90.0,"committed_to":"Arizona State","lat":29.9988312,"lng":-95.2621553,"hometown_city":"Humble","hometown_state":"TX"},{"name":"DeZephen Walker","year":2026,"position":"RB","stars":4,"rating_247":89.0,"committed_to":"Oklahoma","lat":38.7145481,"lng":-94.4611204,"hometown_city":"Peculiar","hometown_state":"MO"},{"name":"KD Jones","year":2026,"position":"RB","stars":3,"rating_247":89.0,"committed_to":"Oklahoma State","lat":36.0228734,"lng":-95.9683278,"hometown_city":"Jenks","hometown_state":"OK"},{"name":"Javian Mallory","year":2026,"position":"RB","stars":4,"rating_247":88.0,"committed_to":"Miami","lat":26.3586885,"lng":-80.0830984,"hometown_city":"Boca Raton","hometown_state":"FL"},{"name":"Ja'Michael Jones","year":2026,"position":"RB","stars":3,"rating_247":88.0,"committed_to":"Mississippi","lat":32.3669656,"lng":-86.3006485,"hometown_city":"Montgomery","hometown_state":"AL"},{"name":"Izaiah Wright","year":2026,"position":"RB","stars":3,"rating_247":87.0,"committed_to":"Purdue","lat":42.0708765,"lng":-83.2465957,"hometown_city":"Rockwood","hometown_state":"MI"},{"name":"Jaeden Hill","year":2026,"position":"RB","stars":3,"rating_247":87.0,"committed_to":"Mississippi State","lat":34.2576067,"lng":-88.7033859,"hometown_city":"Tupelo","hometown_state":"MS"},{"name":"Jayreon Campbell","year":2026,"position":"RB","stars":3,"rating_247":86.0,"committed_to":"Indiana","lat":33.8595492,"lng":-84.683824,"hometown_city":"Powder Springs","hometown_state":"GA"},{"name":"Will Rajecki","year":2026,"position":"RB","stars":3,"rating_247":86.0,"committed_to":"Tennessee","lat":34.2367621,"lng":-84.4907621,"hometown_city":"Canton","hometown_state":"GA"},{"name":"TJ Ward Jr.","year":2026,"position":"RB","stars":3,"rating_247":85.0,"committed_to":null,"lat":36.1622296,"lng":-86.7743531,"hometown_city":"Nashville","hometown_state":"TN"},{"name":"J'Alan Terry","year":2026,"position":"RB","stars":3,"rating_247":84.0,"committed_to":null,"lat":34.010929,"lng":-85.9989596,"hometown_city":"Gadsden","hometown_state":"AL"},{"name":"Jeremiah Seaton","year":2026,"position":"RB","stars":null,"rating_247":null,"committed_to":null,"lat":39.055,"lng":-76.7909,"hometown_city":"Upper Marlboro","hometown_state":"MD"},{"name":"TK Keys","year":2026,"position":"WR","stars":null,"rating_247":98.0,"committed_to":"Tennessee","lat":32.7364,"lng":-89.6678,"hometown_city":"Hattiesburg","hometown_state":"MS"},{"name":"Chris Henry Jr.","year":2026,"position":"WR","stars":5,"rating_247":98.0,"committed_to":"Ohio State","lat":33.7494951,"lng":-117.8732213,"hometown_city":"Santa Ana","hometown_state":"CA"},{"name":"Calvin Russell III","year":2026,"position":"WR","stars":null,"rating_247":98.0,"committed_to":"Syracuse","lat":28.6305,"lng":-82.4497,"hometown_city":"Miami","hometown_state":"FL"},{"name":"Cederian Morgan","year":2026,"position":"WR","stars":4,"rating_247":97.0,"committed_to":"Alabama","lat":32.944012,"lng":-85.9538532,"hometown_city":"Alexander City","hometown_state":"AL"},{"name":"Kayden Dixon-Wyatt","year":2026,"position":"WR","stars":4,"rating_247":97.0,"committed_to":"Southern California","lat":33.7494951,"lng":-117.8732213,"hometown_city":"Santa Ana","hometown_state":"CA"},{"name":"Somourian Wingo","year":2026,"position":"WR","stars":4,"rating_247":97.0,"committed_to":"Miami","lat":29.8946952,"lng":-81.3145395,"hometown_city":"St. Augustine","hometown_state":"FL"},{"name":"Corey Barber Jr.","year":2026,"position":"WR","stars":null,"rating_247":96.0,"committed_to":"Louisiana State","lat":32.7794,"lng":-86.8287,"hometown_city":"Pinson","hometown_state":"AL"},{"name":"Ethan Feaster","year":2026,"position":"WR","stars":4,"rating_247":96.0,"committed_to":"Southern California","lat":32.6061241,"lng":-96.865612653687,"hometown_city":"DeSoto","hometown_state":"TX"},{"name":"Jerquaden Guilford","year":2026,"position":"WR","stars":4,"rating_247":96.0,"committed_to":"Ohio State","lat":41.0799898,"lng":-85.1386015,"hometown_city":"Fort Wayne","hometown_state":"IN"},{"name":"Naeem Burroughs","year":2026,"position":"WR","stars":4,"rating_247":95.0,"committed_to":"Clemson","lat":30.3321838,"lng":-81.655651,"hometown_city":"Jacksonville","hometown_state":"FL"},{"name":"Craig Dandridge","year":2026,"position":"WR","stars":4,"rating_247":95.0,"committed_to":"Georgia","lat":34.0709576,"lng":-84.2747329,"hometown_city":"Alpharetta","hometown_state":"GA"},{"name":"Chase Campbell","year":2026,"position":"WR","stars":4,"rating_247":95.0,"committed_to":"Texas Tech","lat":33.5059189,"lng":-102.0090575,"hometown_city":"Wolfforth","hometown_state":"TX"},{"name":"Jayden Petit","year":2026,"position":"WR","stars":4,"rating_247":94.0,"committed_to":"Oklahoma","lat":26.1421976,"lng":-81.7942944,"hometown_city":"Naples","hometown_state":"FL"},{"name":"Aaron Gregory","year":2026,"position":"WR","stars":4,"rating_247":94.0,"committed_to":"Texas A&M","lat":33.7514966,"lng":-84.7477136,"hometown_city":"Douglasville","hometown_state":"GA"},{"name":"Jordan Clay","year":2026,"position":"WR","stars":4,"rating_247":94.0,"committed_to":"Washington","lat":29.4246002,"lng":-98.4951405,"hometown_city":"San Antonio","hometown_state":"TX"},{"name":"Travis Johnson","year":2026,"position":"WR","stars":4,"rating_247":94.0,"committed_to":"Michigan","lat":36.7183708,"lng":-76.2466798,"hometown_city":"Chesapeake","hometown_state":"VA"},{"name":"Legend Bey","year":2026,"position":"WR","stars":4,"rating_247":93.0,"committed_to":"Ohio State","lat":32.747893,"lng":-96.4719289,"hometown_city":"Forney","hometown_state":"TX"},{"name":"Connor Salmin","year":2026,"position":"WR","stars":4,"rating_247":92.0,"committed_to":"Clemson","lat":39.017936,"lng":-77.2094542,"hometown_city":"Potomac","hometown_state":"MD"},{"name":"Kenny Darby","year":2026,"position":"WR","stars":4,"rating_247":92.0,"committed_to":"Kentucky","lat":32.5369356,"lng":-93.6952689,"hometown_city":"Bossier City","hometown_state":"LA"},{"name":"Jasen Lopez","year":2026,"position":"WR","stars":4,"rating_247":91.0,"committed_to":"Florida State","lat":25.7742658,"lng":-80.1936589,"hometown_city":"Miami","hometown_state":"FL"},{"name":"Jabari Mack","year":2026,"position":"WR","stars":4,"rating_247":91.0,"committed_to":"Louisiana State","lat":29.960933,"lng":-90.3705407077716,"hometown_city":"Destrehan","hometown_state":"LA"},{"name":"Mason James","year":2026,"position":"WR","stars":4,"rating_247":91.0,"committed_to":"Washington","lat":35.2225717,"lng":-97.4394816,"hometown_city":"Norman","hometown_state":"OK"},{"name":"Marquez Daniel","year":2026,"position":"WR","stars":4,"rating_247":91.0,"committed_to":"Florida","lat":32.4240286,"lng":-85.6916195,"hometown_city":"Tuskegee","hometown_state":"AL"},{"name":"Ryan Mosley","year":2026,"position":"WR","stars":4,"rating_247":90.0,"committed_to":"Georgia","lat":33.5801103,"lng":-85.0766113,"hometown_city":"Carrollton","hometown_state":"GA"},{"name":"Madden Williams","year":2026,"position":"WR","stars":4,"rating_247":90.0,"committed_to":"Texas A&M","lat":33.8825705,"lng":-118.1167679,"hometown_city":"Bellflower","hometown_state":"CA"},{"name":"Tyreek King","year":2026,"position":"WR","stars":4,"rating_247":90.0,"committed_to":"Tennessee","lat":35.9603948,"lng":-83.9210261,"hometown_city":"Knoxville","hometown_state":"TN"},{"name":"Dyzier Carter","year":2026,"position":"WR","stars":4,"rating_247":90.0,"committed_to":"Rutgers","lat":38.010695,"lng":-77.9086068,"hometown_city":"Mineral","hometown_state":"VA"},{"name":"Vance Spafford","year":2026,"position":"WR","stars":4,"rating_247":90.0,"committed_to":"Miami","lat":33.5965685,"lng":-117.659405,"hometown_city":"Mission Viejo","hometown_state":"CA"},{"name":"Brayden Robinson","year":2026,"position":"WR","stars":4,"rating_247":90.0,"committed_to":"Notre Dame","lat":32.5117104,"lng":-96.80836332870047,"hometown_city":"Red Oak","hometown_state":"TX"},{"name":"Daniel Odom","year":2026,"position":"WR","stars":4,"rating_247":90.0,"committed_to":"Oklahoma","lat":33.8825705,"lng":-118.1167679,"hometown_city":"Bellflower","hometown_state":"CA"},{"name":"Kennan Pula","year":2026,"position":"WR","stars":3,"rating_247":90.0,"committed_to":"BYU","lat":40.3768954,"lng":-111.7957645,"hometown_city":"American Fork","hometown_state":"UT"},{"name":"Davion Brown","year":2026,"position":"WR","stars":4,"rating_247":89.0,"committed_to":"Virginia Tech","lat":37.5385087,"lng":-77.43428,"hometown_city":"Richmond","hometown_state":"VA"},{"name":"Keeyshawn Tabuteau","year":2026,"position":"WR","stars":3,"rating_247":89.0,"committed_to":"Wisconsin","lat":35.0457219,"lng":-85.3094883,"hometown_city":"Chattanooga","hometown_state":"TN"},{"name":"Kenneth Moore III","year":2026,"position":"WR","stars":4,"rating_247":89.0,"committed_to":"UCLA","lat":37.9577016,"lng":-121.2907796,"hometown_city":"Stockton","hometown_state":"CA"},{"name":"Payton Cook","year":2026,"position":"WR","stars":3,"rating_247":89.0,"committed_to":"Louisville","lat":41.083064,"lng":-81.518485,"hometown_city":"Akron","hometown_state":"OH"},{"name":"Chris Stewart","year":2026,"position":"WR","stars":4,"rating_247":89.0,"committed_to":"Texas","lat":29.5639758,"lng":-95.2864299,"hometown_city":"Pearland","hometown_state":"TX"},{"name":"Brandon Bennett","year":2026,"position":"WR","stars":4,"rating_247":88.0,"committed_to":"Florida State","lat":26.1223084,"lng":-80.1433786,"hometown_city":"Fort Lauderdale","hometown_state":"FL"},{"name":"Xavier McDonald","year":2026,"position":"WR","stars":4,"rating_247":88.0,"committed_to":"James Madison","lat":32.3537557,"lng":-89.6545171,"hometown_city":"Morton","hometown_state":"MS"},{"name":"Alex Ward","year":2026,"position":"WR","stars":null,"rating_247":88.0,"committed_to":"Colorado","lat":28.6305,"lng":-82.4497,"hometown_city":"Bradenton","hometown_state":"FL"},{"name":"O'Mari Johnson","year":2026,"position":"WR","stars":3,"rating_247":88.0,"committed_to":null,"lat":32.2990384,"lng":-90.1847691,"hometown_city":"Jackson","hometown_state":"MS"},{"name":"Tron Baker","year":2026,"position":"WR","stars":null,"rating_247":88.0,"committed_to":"Southern California","lat":37.1841,"lng":-119.4696,"hometown_city":"Chatsworth","hometown_state":"CA"},{"name":"Owen Cabell","year":2026,"position":"WR","stars":3,"rating_247":88.0,"committed_to":"Vanderbilt","lat":36.1622296,"lng":-86.7743531,"hometown_city":"Nashville","hometown_state":"TN"},{"name":"Xavier Owens","year":2026,"position":"WR","stars":3,"rating_247":88.0,"committed_to":"Fresno State","lat":29.9499323,"lng":-90.0701156,"hometown_city":"New Orleans","hometown_state":"LA"},{"name":"Brock Boyd","year":2026,"position":"WR","stars":3,"rating_247":87.0,"committed_to":"Ohio State","lat":32.9412363,"lng":-97.1341783,"hometown_city":"Southlake","hometown_state":"TX"},{"name":"Tyran Evans","year":2026,"position":"WR","stars":3,"rating_247":87.0,"committed_to":"Miami","lat":35.4817982,"lng":-80.8589501,"hometown_city":"Cornelius","hometown_state":"NC"},{"name":"Nalin Scott","year":2026,"position":"WR","stars":3,"rating_247":87.0,"committed_to":"Nebraska","lat":33.8595492,"lng":-84.683824,"hometown_city":"Powder Springs","hometown_state":"GA"},{"name":"Jardon Stringer","year":2026,"position":"WR","stars":3,"rating_247":87.0,"committed_to":null,"lat":33.039291,"lng":-85.0313269,"hometown_city":"LaGrange","hometown_state":"GA"},{"name":"Tre'von McGory","year":2026,"position":"WR","stars":3,"rating_247":86.0,"committed_to":"Western Kentucky","lat":35.0867577,"lng":-89.8100858,"hometown_city":"Germantown","hometown_state":"TN"},{"name":"Brody Keefe","year":2026,"position":"WR","stars":3,"rating_247":86.0,"committed_to":"Duke","lat":35.2272,"lng":-80.843083,"hometown_city":"Charlotte","hometown_state":"NC"},{"name":"JaColby Cooper","year":2026,"position":"WR","stars":null,"rating_247":86.0,"committed_to":"Tennessee","lat":35.858,"lng":-86.3505,"hometown_city":"Alcoa","hometown_state":"TN"},{"name":"Deion Thomas","year":2026,"position":"WR","stars":3,"rating_247":86.0,"committed_to":"Missouri State","lat":33.7490987,"lng":-84.3901849,"hometown_city":"Atlanta","hometown_state":"GA"},{"name":"Peyton Zachary","year":2026,"position":"WR","stars":3,"rating_247":85.0,"committed_to":"Nevada, Las Vegas","lat":33.9528472,"lng":-84.5496148,"hometown_city":"Marietta","hometown_state":"GA"},{"name":"Jaylen Pile","year":2026,"position":"WR","stars":3,"rating_247":85.0,"committed_to":"Michigan","lat":32.7762719,"lng":-96.7968559,"hometown_city":"Dallas","hometown_state":"TX"},{"name":"Brayden Carroll","year":2026,"position":"WR","stars":3,"rating_247":84.0,"committed_to":"Tennessee","lat":35.1595182,"lng":-84.8766115,"hometown_city":"Cleveland","hometown_state":"TN"},{"name":"Dominic Saidu","year":2026,"position":"WR","stars":null,"rating_247":null,"committed_to":null,"lat":31.4757,"lng":-99.3312,"hometown_city":"Kaufman","hometown_state":"TX"},{"name":"Mark Bowman","year":2026,"position":"TE","stars":5,"rating_247":97.0,"committed_to":"Southern California","lat":33.7494951,"lng":-117.8732213,"hometown_city":"Santa Ana","hometown_state":"CA"},{"name":"Kendre Harrison","year":2026,"position":"TE","stars":5,"rating_247":97.0,"committed_to":"Oregon","lat":36.3548586,"lng":-79.6644748,"hometown_city":"Reidsville","hometown_state":"NC"},{"name":"Brock Harris","year":2026,"position":"TE","stars":4,"rating_247":94.0,"committed_to":"BYU","lat":37.104153,"lng":-113.5841313,"hometown_city":"St. George","hometown_state":"UT"},{"name":"Matt Ludwig","year":2026,"position":"TE","stars":4,"rating_247":91.0,"committed_to":"Texas Tech","lat":45.7874957,"lng":-108.49607,"hometown_city":"Billings","hometown_state":"MT"},{"name":"JC Anderson","year":2026,"position":"TE","stars":null,"rating_247":91.0,"committed_to":"Louisiana State","lat":40.0417,"lng":-89.1965,"hometown_city":"Mt. Zion","hometown_state":"IL"},{"name":"Taimane Purcell","year":2026,"position":"TE","stars":3,"rating_247":90.0,"committed_to":"California","lat":21.304547,"lng":-157.8556764,"hometown_city":"Honolulu","hometown_state":"HI"},{"name":"Xavier Tiller","year":2026,"position":"TE","stars":4,"rating_247":90.0,"committed_to":"Florida State","lat":33.5670562,"lng":-84.5810418,"hometown_city":"Fairburn","hometown_state":"GA"},{"name":"Heze Kent","year":2026,"position":"TE","stars":4,"rating_247":90.0,"committed_to":"Florida","lat":31.1499528,"lng":-81.4914894,"hometown_city":"Brunswick","hometown_state":"GA"},{"name":"Luke Sorensen","year":2026,"position":"TE","stars":3,"rating_247":89.0,"committed_to":"Nebraska","lat":33.8347516,"lng":-117.911732,"hometown_city":"Anaheim","hometown_state":"CA"},{"name":"Luke Brewer","year":2026,"position":"TE","stars":4,"rating_247":89.0,"committed_to":"Iowa","lat":41.4755461,"lng":-93.6788304,"hometown_city":"Norwalk","hometown_state":"IA"},{"name":"Parker Elmore","year":2026,"position":"TE","stars":3,"rating_247":89.0,"committed_to":"Indiana","lat":39.2014405,"lng":-85.9213796,"hometown_city":"Columbus","hometown_state":"IN"},{"name":"Corbyn Fordham","year":2026,"position":"TE","stars":3,"rating_247":88.0,"committed_to":"Florida State","lat":30.3321838,"lng":-81.655651,"hometown_city":"Jacksonville","hometown_state":"FL"},{"name":"Caleb Tafua","year":2026,"position":"TE","stars":4,"rating_247":88.0,"committed_to":"Texas A&M","lat":33.4151117,"lng":-111.8314773,"hometown_city":"Mesa","hometown_state":"AZ"},{"name":"Zack Turner","year":2026,"position":"TE","stars":null,"rating_247":88.0,"committed_to":"SMU","lat":31.4757,"lng":-99.3312,"hometown_city":"Duncanville","hometown_state":"TX"},{"name":"Lincoln Watkins","year":2026,"position":"TE","stars":3,"rating_247":88.0,"committed_to":"Kentucky","lat":42.9815877,"lng":-82.440466,"hometown_city":"Port Huron","hometown_state":"MI"},{"name":"Mason Bonner","year":2026,"position":"TE","stars":3,"rating_247":88.0,"committed_to":"Michigan","lat":39.7392364,"lng":-104.9848623,"hometown_city":"Denver","hometown_state":"CO"},{"name":"Camden Jensen","year":2026,"position":"TE","stars":3,"rating_247":88.0,"committed_to":"UCLA","lat":39.613321,"lng":-105.0166498,"hometown_city":"Littleton","hometown_state":"CO"},{"name":"Ryder Mix","year":2026,"position":"TE","stars":3,"rating_247":87.0,"committed_to":"Oklahoma","lat":33.1506744,"lng":-96.8236116,"hometown_city":"Frisco","hometown_state":"TX"},{"name":"Carson Sneed","year":2026,"position":"TE","stars":3,"rating_247":86.0,"committed_to":"North Carolina","lat":36.1622296,"lng":-86.7743531,"hometown_city":"Nashville","hometown_state":"TN"},{"name":"Calerbe Hermane","year":2026,"position":"TE","stars":null,"rating_247":null,"committed_to":"Murray State","lat":28.6305,"lng":-82.4497,"hometown_city":"Boca Raton","hometown_state":"FL"},{"name":"Lamar Brown","year":2026,"position":"OT","stars":5,"rating_247":99.0,"committed_to":"Louisiana State","lat":30.4459596,"lng":-91.18738,"hometown_city":"Baton Rouge","hometown_state":"LA"},{"name":"Keenyi Pepe","year":2026,"position":"OT","stars":4,"rating_247":99.0,"committed_to":"Southern California","lat":27.4989278,"lng":-82.5748194,"hometown_city":"Bradenton","hometown_state":"FL"},{"name":"Jackson Cantwell","year":2026,"position":"OT","stars":5,"rating_247":99.0,"committed_to":"Miami","lat":37.0439358,"lng":-93.3098534,"hometown_city":"Nixa","hometown_state":"MO"},{"name":"Felix Ojo","year":2026,"position":"OT","stars":5,"rating_247":98.0,"committed_to":"Texas Tech","lat":32.5631924,"lng":-97.1416768,"hometown_city":"Mansfield","hometown_state":"TX"},{"name":"Kodi Greene","year":2026,"position":"OT","stars":5,"rating_247":98.0,"committed_to":"Washington","lat":33.7494951,"lng":-117.8732213,"hometown_city":"Santa Ana","hometown_state":"CA"},{"name":"Gabriel Osenda","year":2026,"position":"OT","stars":4,"rating_247":98.0,"committed_to":"Tennessee","lat":35.0457219,"lng":-85.3094883,"hometown_city":"Chattanooga","hometown_state":"TN"},{"name":"Immanuel Iheanacho","year":2026,"position":"OT","stars":5,"rating_247":98.0,"committed_to":"Oregon","lat":39.0461292,"lng":-77.1130097,"hometown_city":"North Bethesda","hometown_state":"MD"},{"name":"Sam Greer","year":2026,"position":"OT","stars":4,"rating_247":97.0,"committed_to":"Ohio State","lat":41.083064,"lng":-81.518485,"hometown_city":"Akron","hometown_state":"OH"},{"name":"Kelvin Obot","year":2026,"position":"OT","stars":5,"rating_247":97.0,"committed_to":"Utah","lat":44.0076639,"lng":-116.9165461,"hometown_city":"Fruitland","hometown_state":"ID"},{"name":"Ekene Ogboko","year":2026,"position":"OT","stars":5,"rating_247":96.0,"committed_to":"Georgia","lat":35.996653,"lng":-78.9018053,"hometown_city":"Durham","hometown_state":"NC"},{"name":"Brysten Martinez","year":2026,"position":"OT","stars":4,"rating_247":95.0,"committed_to":"Louisiana State","lat":30.2385294,"lng":-90.9200987,"hometown_city":"Gonzales","hometown_state":"LA"},{"name":"Malakai Lee","year":2026,"position":"OT","stars":4,"rating_247":95.0,"committed_to":"Michigan","lat":21.304547,"lng":-157.8556764,"hometown_city":"Honolulu","hometown_state":"HI"},{"name":"PJ Dean","year":2026,"position":"OT","stars":null,"rating_247":95.0,"committed_to":"Georgia","lat":35.5557,"lng":-79.3877,"hometown_city":"Clemmons","hometown_state":"NC"},{"name":"Johnnie Jones","year":2026,"position":"OT","stars":4,"rating_247":95.0,"committed_to":"Missouri","lat":27.0999188,"lng":-82.4543597,"hometown_city":"Venice","hometown_state":"FL"},{"name":"Kamari Blair","year":2026,"position":"OT","stars":4,"rating_247":95.0,"committed_to":"Tennessee","lat":36.5277607,"lng":-87.3588703,"hometown_city":"Clarksville","hometown_state":"TN"},{"name":"Kevin Brown","year":2026,"position":"OT","stars":4,"rating_247":94.0,"committed_to":"West Virginia","lat":40.2663107,"lng":-76.8861122,"hometown_city":"Harrisburg","hometown_state":"PA"},{"name":"Grayson McKeogh","year":2026,"position":"OT","stars":4,"rating_247":93.0,"committed_to":"Notre Dame","lat":40.1023326,"lng":-75.1521195,"hometown_city":"Glenside","hometown_state":"PA"},{"name":"Marky Walbridge","year":2026,"position":"OT","stars":4,"rating_247":93.0,"committed_to":"Michigan","lat":42.283431,"lng":-71.2328329,"hometown_city":"Needham","hometown_state":"MA"},{"name":"Breck Kolojay","year":2026,"position":"OT","stars":4,"rating_247":93.0,"committed_to":"Southern California","lat":27.4989278,"lng":-82.5748194,"hometown_city":"Bradenton","hometown_state":"FL"},{"name":"Max Riley","year":2026,"position":"OT","stars":null,"rating_247":93.0,"committed_to":"Ohio State","lat":40.2862,"lng":-82.7937,"hometown_city":"Avon Lake","hometown_state":"OH"},{"name":"Zyon Guiles","year":2026,"position":"OT","stars":4,"rating_247":93.0,"committed_to":"South Carolina","lat":33.7537774,"lng":-79.4475566,"hometown_city":"Hemingway","hometown_state":"SC"},{"name":"John Turntine III","year":2026,"position":"OT","stars":4,"rating_247":93.0,"committed_to":"Texas","lat":32.753177,"lng":-97.3327459,"hometown_city":"Fort Worth","hometown_state":"TX"},{"name":"Kai Pritchard","year":2026,"position":"OT","stars":4,"rating_247":91.0,"committed_to":"Illinois","lat":39.9537359,"lng":-74.1979576,"hometown_city":"Toms River","hometown_state":"NJ"},{"name":"Grant Wise","year":2026,"position":"OT","stars":4,"rating_247":91.0,"committed_to":"Clemson","lat":30.6324149,"lng":-87.0396881,"hometown_city":"Milton","hometown_state":"FL"},{"name":"Carson Nielsen","year":2026,"position":"OT","stars":4,"rating_247":91.0,"committed_to":"Iowa","lat":42.4979693,"lng":-92.3329637,"hometown_city":"Waterloo","hometown_state":"IA"},{"name":"Emanuel Tucker","year":2026,"position":"OT","stars":4,"rating_247":90.0,"committed_to":"Mississippi","lat":34.4942683,"lng":-89.0078418,"hometown_city":"New Albany","hometown_state":"MS"},{"name":"Zaden Krempin","year":2026,"position":"OT","stars":4,"rating_247":90.0,"committed_to":"Texas A&M","lat":33.2385763,"lng":-96.7866058,"hometown_city":"Prosper","hometown_state":"TX"},{"name":"Thomas Wilder","year":2026,"position":"OT","stars":4,"rating_247":90.0,"committed_to":"Virginia Tech","lat":36.8529841,"lng":-75.9774183,"hometown_city":"Virginia Beach","hometown_state":"VA"},{"name":"Champ Smith","year":2026,"position":"OT","stars":3,"rating_247":89.0,"committed_to":"Illinois","lat":25.7742658,"lng":-80.1936589,"hometown_city":"Miami","hometown_state":"FL"},{"name":"Adam Guthrie","year":2026,"position":"OT","stars":4,"rating_247":89.0,"committed_to":"Clemson","lat":39.5364511,"lng":-83.4390843,"hometown_city":"Washington Court House","hometown_state":"OH"},{"name":"Drew Evers","year":2026,"position":"OT","stars":4,"rating_247":89.0,"committed_to":"SMU","lat":33.0283854,"lng":-97.0867203,"hometown_city":"Flower Mound","hometown_state":"TX"},{"name":"Wilson Zierer","year":2026,"position":"OT","stars":4,"rating_247":89.0,"committed_to":"Auburn","lat":34.97479,"lng":-83.30549,"hometown_city":"Rabun Gap","hometown_state":"GA"},{"name":"Jonas Muya","year":2026,"position":"OT","stars":3,"rating_247":89.0,"committed_to":"West Virginia","lat":41.0799898,"lng":-85.1386015,"hometown_city":"Fort Wayne","hometown_state":"IN"},{"name":"Sam Utu","year":2026,"position":"OT","stars":4,"rating_247":88.0,"committed_to":"SMU","lat":33.7872568,"lng":-117.8503088,"hometown_city":"Orange","hometown_state":"CA"},{"name":"Da'Ron Parks","year":2026,"position":"OT","stars":4,"rating_247":88.0,"committed_to":"North Carolina","lat":38.417919499999996,"lng":-81.84361448523134,"hometown_city":"Nitro","hometown_state":"WV"},{"name":"Khalief Canty Jr.","year":2026,"position":"OT","stars":null,"rating_247":88.0,"committed_to":"Missouri","lat":44.3467,"lng":-85.4102,"hometown_city":"Detroit","hometown_state":"MI"},{"name":"Marlen Bright","year":2026,"position":"OT","stars":4,"rating_247":88.0,"committed_to":"Virginia Tech","lat":40.9491723,"lng":-74.2376802,"hometown_city":"Wayne","hometown_state":"NJ"},{"name":"J.B. Shabazz","year":2026,"position":"OT","stars":4,"rating_247":88.0,"committed_to":"North Carolina","lat":36.1198589,"lng":-80.0736533,"hometown_city":"Kernersville","hometown_state":"NC"},{"name":"Dominic Harris","year":2026,"position":"OT","stars":3,"rating_247":88.0,"committed_to":"Washington","lat":36.1672559,"lng":-115.1485163,"hometown_city":"Las Vegas","hometown_state":"NV"},{"name":"Scottland Dover","year":2026,"position":"OT","stars":3,"rating_247":87.0,"committed_to":"Appalachian State","lat":35.0717945,"lng":-81.6498195,"hometown_city":"Gaffney","hometown_state":"SC"},{"name":"Jesse Moody","year":2026,"position":"OT","stars":3,"rating_247":86.0,"committed_to":"Maryland","lat":39.9527237,"lng":-75.1635262,"hometown_city":"Philadelphia","hometown_state":"PA"},{"name":"Xavier Payne","year":2026,"position":"OT","stars":3,"rating_247":86.0,"committed_to":"Colorado","lat":28.5421109,"lng":-81.3790304,"hometown_city":"Orlando","hometown_state":"FL"},{"name":"Kasiyah Charlton","year":2026,"position":"OT","stars":3,"rating_247":86.0,"committed_to":"UCF","lat":31.1499528,"lng":-81.4914894,"hometown_city":"Brunswick","hometown_state":"GA"},{"name":"Brody Smith","year":2026,"position":"OT","stars":3,"rating_247":86.0,"committed_to":"North Carolina State","lat":35.7564719,"lng":-83.9704593,"hometown_city":"Maryville","hometown_state":"TN"},{"name":"Ja'Vaughn Hargett","year":2026,"position":"OT","stars":3,"rating_247":86.0,"committed_to":"East Carolina","lat":35.996653,"lng":-78.9018053,"hometown_city":"Durham","hometown_state":"NC"},{"name":"Bear McWhorter","year":2026,"position":"OT","stars":null,"rating_247":85.0,"committed_to":"Auburn","lat":32.6415,"lng":-83.4426,"hometown_city":"White","hometown_state":"GA"},{"name":"Thomas Storm","year":2026,"position":"OT","stars":null,"rating_247":null,"committed_to":"Tennessee","lat":44.3467,"lng":-85.4102,"hometown_city":"Brighton","hometown_state":"MI"},{"name":"Darius Gray","year":2026,"position":"IOL","stars":4,"rating_247":98.0,"committed_to":"South Carolina","lat":37.5385087,"lng":-77.43428,"hometown_city":"Richmond","hometown_state":"VA"},{"name":"Tommy Tofi","year":2026,"position":"IOL","stars":4,"rating_247":97.0,"committed_to":"Oregon","lat":37.7790262,"lng":-122.4199061,"hometown_city":"San Francisco","hometown_state":"CA"},{"name":"Ben Nichols","year":2026,"position":"IOL","stars":4,"rating_247":94.0,"committed_to":"Notre Dame","lat":43.0346872,"lng":-83.5180155,"hometown_city":"Davison","hometown_state":"MI"},{"name":"Leo Delaney","year":2026,"position":"IOL","stars":4,"rating_247":89.0,"committed_to":"Clemson","lat":35.2272,"lng":-80.843083,"hometown_city":"Charlotte","hometown_state":"NC"},{"name":"Deacon Schmitt","year":2026,"position":"IOL","stars":4,"rating_247":89.0,"committed_to":"Oklahoma","lat":40.4774818,"lng":-104.9013617,"hometown_city":"Windsor","hometown_state":"CO"},{"name":"Brandon Anderson","year":2026,"position":"IOL","stars":3,"rating_247":89.0,"committed_to":"Missouri","lat":34.0234337,"lng":-84.6154897,"hometown_city":"Kennesaw","hometown_state":"GA"},{"name":"Jax Tanner","year":2026,"position":"IOL","stars":4,"rating_247":89.0,"committed_to":"BYU","lat":43.6086295,"lng":-116.392326,"hometown_city":"Meridian","hometown_state":"ID"},{"name":"Donel Robinson","year":2026,"position":"IOL","stars":4,"rating_247":89.0,"committed_to":"Baylor","lat":33.1131834,"lng":-90.0531408,"hometown_city":"Lexington","hometown_state":"MS"},{"name":"G'Nivre Carr","year":2026,"position":"IOL","stars":3,"rating_247":88.0,"committed_to":"Florida","lat":27.4989278,"lng":-82.5748194,"hometown_city":"Bradenton","hometown_state":"FL"},{"name":"Jarvis Strickland","year":2026,"position":"IOL","stars":4,"rating_247":88.0,"committed_to":"Louisville","lat":37.0833893,"lng":-88.6000478,"hometown_city":"Paducah","hometown_state":"KY"},{"name":"Anthony Hall","year":2026,"position":"IOL","stars":3,"rating_247":88.0,"committed_to":"North Carolina","lat":42.3317642,"lng":-71.1211635,"hometown_city":"Brookline","hometown_state":"MA"},{"name":"Parker Pritchett","year":2026,"position":"IOL","stars":3,"rating_247":88.0,"committed_to":"Auburn","lat":32.4609764,"lng":-84.9877094,"hometown_city":"Columbus","hometown_state":"GA"},{"name":"Jalayne Miller","year":2026,"position":"IOL","stars":4,"rating_247":88.0,"committed_to":"Stanford","lat":33.4353672,"lng":-112.3576005,"hometown_city":"Goodyear","hometown_state":"AZ"},{"name":"Ed Baker","year":2026,"position":"IOL","stars":null,"rating_247":88.0,"committed_to":"Tennessee","lat":39.055,"lng":-76.7909,"hometown_city":"Baltimore","hometown_state":"MD"},{"name":"Canon Pickett","year":2026,"position":"IOL","stars":3,"rating_247":87.0,"committed_to":"Miami","lat":27.9477595,"lng":-82.458444,"hometown_city":"Tampa","hometown_state":"FL"},{"name":"Jeremy George-El","year":2026,"position":"IOL","stars":null,"rating_247":87.0,"committed_to":"Tennessee","lat":35.858,"lng":-86.3505,"hometown_city":"Knoxville","hometown_state":"TN"},{"name":"Desmond Green","year":2026,"position":"IOL","stars":3,"rating_247":87.0,"committed_to":"Florida","lat":33.406361000000004,"lng":-79.92930142942461,"hometown_city":"St. Stephen","hometown_state":"SC"},{"name":"Jalan Chapman","year":2026,"position":"IOL","stars":3,"rating_247":87.0,"committed_to":"Mississippi","lat":29.9499323,"lng":-90.0701156,"hometown_city":"New Orleans","hometown_state":"LA"},{"name":"Aydan Newell","year":2026,"position":"IOL","stars":3,"rating_247":86.0,"committed_to":"South Alabama","lat":32.2731475,"lng":-89.9868058,"hometown_city":"Brandon","hometown_state":"MS"},{"name":"Toa Katoa","year":2026,"position":"IOL","stars":null,"rating_247":86.0,"committed_to":"SMU","lat":31.4757,"lng":-99.3312,"hometown_city":"Euless","hometown_state":"TX"},{"name":"Rodney Dunham","year":2026,"position":"Edge","stars":5,"rating_247":98.0,"committed_to":"Notre Dame","lat":35.2272,"lng":-80.843083,"hometown_city":"Charlotte","hometown_state":"NC"},{"name":"Zion Elee","year":2026,"position":"Edge","stars":5,"rating_247":98.0,"committed_to":"Maryland","lat":39.2908816,"lng":-76.610759,"hometown_city":"Baltimore","hometown_state":"MD"},{"name":"Carter Meadows","year":2026,"position":"Edge","stars":5,"rating_247":98.0,"committed_to":"Michigan","lat":38.8949855,"lng":-77.0365708,"hometown_city":"Washington","hometown_state":"DC"},{"name":"LaDamion Guyton","year":2026,"position":"Edge","stars":5,"rating_247":97.0,"committed_to":"Texas Tech","lat":32.0809263,"lng":-81.0911768,"hometown_city":"Savannah","hometown_state":"GA"},{"name":"Tristian Givens","year":2026,"position":"Edge","stars":4,"rating_247":97.0,"committed_to":"Texas A&M","lat":32.4609764,"lng":-84.9877094,"hometown_city":"Columbus","hometown_state":"GA"},{"name":"Jake Kreul","year":2026,"position":"Edge","stars":4,"rating_247":96.0,"committed_to":"Oklahoma","lat":27.4989278,"lng":-82.5748194,"hometown_city":"Bradenton","hometown_state":"FL"},{"name":"Titan Davis","year":2026,"position":"Edge","stars":4,"rating_247":96.0,"committed_to":"Michigan","lat":38.6268039,"lng":-90.1994097,"hometown_city":"St. Louis","hometown_state":"MO"},{"name":"Khary Wilder","year":2026,"position":"Edge","stars":4,"rating_247":95.0,"committed_to":"Ohio State","lat":33.8963593,"lng":-118.3053037,"hometown_city":"Gardena","hometown_state":"CA"},{"name":"Richard Wesley","year":2026,"position":"Edge","stars":5,"rating_247":95.0,"committed_to":"Texas","lat":34.2595715,"lng":-118.6023247,"hometown_city":"Chatsworth","hometown_state":"CA"},{"name":"Trenton Henderson","year":2026,"position":"Edge","stars":4,"rating_247":95.0,"committed_to":"Louisiana State","lat":30.421309,"lng":-87.2169149,"hometown_city":"Pensacola","hometown_state":"FL"},{"name":"Derek Colman-Brusa","year":2026,"position":"Edge","stars":4,"rating_247":94.0,"committed_to":"Washington","lat":47.469918,"lng":-122.3485274,"hometown_city":"Burien","hometown_state":"WA"},{"name":"Simote Katoanga","year":2026,"position":"Edge","stars":4,"rating_247":92.0,"committed_to":"Southern California","lat":33.6408845,"lng":-117.6029341,"hometown_city":"Rancho Santa Margarita","hometown_state":"CA"},{"name":"KJ Ford","year":2026,"position":"Edge","stars":4,"rating_247":92.0,"committed_to":"Florida","lat":32.6518004,"lng":-96.9083366,"hometown_city":"Duncanville","hometown_state":"TX"},{"name":"Zach Groves","year":2026,"position":"Edge","stars":4,"rating_247":92.0,"committed_to":"Tennessee","lat":36.5486597,"lng":-86.6961102,"hometown_city":"Cross Plains","hometown_state":"TN"},{"name":"Khamari Brooks","year":2026,"position":"Edge","stars":4,"rating_247":91.0,"committed_to":"Georgia","lat":33.949281,"lng":-83.534608,"hometown_city":"Bogart","hometown_state":"GA"},{"name":"Dre Quinn","year":2026,"position":"Edge","stars":4,"rating_247":91.0,"committed_to":"Ohio State","lat":34.1206564,"lng":-84.0043513,"hometown_city":"Buford","hometown_state":"GA"},{"name":"Shaun Scott","year":2026,"position":"Edge","stars":4,"rating_247":90.0,"committed_to":"Southern California","lat":33.7494951,"lng":-117.8732213,"hometown_city":"Santa Ana","hometown_state":"CA"},{"name":"Elijah Littlejohn","year":2026,"position":"Edge","stars":4,"rating_247":90.0,"committed_to":"Georgia","lat":35.2272,"lng":-80.843083,"hometown_city":"Charlotte","hometown_state":"NC"},{"name":"Zavion Griffin-Haynes","year":2026,"position":"Edge","stars":3,"rating_247":89.0,"committed_to":"North Carolina","lat":35.9232862,"lng":-78.4573914,"hometown_city":"Rolesville","hometown_state":"NC"},{"name":"Colton Yarbrough","year":2026,"position":"Edge","stars":3,"rating_247":89.0,"committed_to":"Arkansas","lat":33.9958945,"lng":-96.3814259,"hometown_city":"Durant","hometown_state":"OK"},{"name":"Hezekiah Harris","year":2026,"position":"Edge","stars":4,"rating_247":89.0,"committed_to":"Tennessee","lat":34.729847,"lng":-86.5859011,"hometown_city":"Huntsville","hometown_state":"AL"},{"name":"CJ Edwards","year":2026,"position":"Edge","stars":3,"rating_247":89.0,"committed_to":"Tennessee","lat":40.5431598,"lng":-74.3632049,"hometown_city":"Metuchen","hometown_state":"NJ"},{"name":"Tariq Boney","year":2026,"position":"Edge","stars":3,"rating_247":89.0,"committed_to":"Michigan","lat":38.8949855,"lng":-77.0365708,"hometown_city":"Washington","hometown_state":"DC"},{"name":"Braeden Jones","year":2026,"position":"Edge","stars":4,"rating_247":88.0,"committed_to":"Southern California","lat":41.8755616,"lng":-87.6244212,"hometown_city":"Chicago","hometown_state":"IL"},{"name":"Cam Brooks","year":2026,"position":"Edge","stars":3,"rating_247":88.0,"committed_to":"Florida State","lat":30.8365815,"lng":-83.9787808,"hometown_city":"Thomasville","hometown_state":"GA"},{"name":"Keysaun Eleazer","year":2026,"position":"Edge","stars":3,"rating_247":88.0,"committed_to":"Stanford","lat":35.7803977,"lng":-78.6390989,"hometown_city":"Raleigh","hometown_state":"NC"},{"name":"Dutch Horisk","year":2026,"position":"Edge","stars":3,"rating_247":88.0,"committed_to":"Oregon","lat":33.8825705,"lng":-118.1167679,"hometown_city":"Bellflower","hometown_state":"CA"},{"name":"Keytrin Harris","year":2026,"position":"Edge","stars":3,"rating_247":87.0,"committed_to":"Arizona","lat":33.3062223,"lng":-111.8413317,"hometown_city":"Chandler","hometown_state":"AZ"},{"name":"Prince Williams","year":2026,"position":"Edge","stars":3,"rating_247":87.0,"committed_to":"Arizona","lat":36.1672559,"lng":-115.1485163,"hometown_city":"Las Vegas","hometown_state":"NV"},{"name":"Katrell Webb","year":2026,"position":"Edge","stars":3,"rating_247":87.0,"committed_to":"Purdue","lat":34.0514898,"lng":-84.0712997,"hometown_city":"Suwanee","hometown_state":"GA"},{"name":"Evan Harvey","year":2026,"position":"Edge","stars":3,"rating_247":87.0,"committed_to":"Memphis","lat":33.4713249,"lng":-84.5972005,"hometown_city":"Tyrone","hometown_state":"GA"},{"name":"Luke Wafle","year":2026,"position":"DL","stars":4,"rating_247":99.0,"committed_to":"Southern California","lat":40.3492744,"lng":-74.6592958,"hometown_city":"Princeton","hometown_state":"NJ"},{"name":"Richard Anderson","year":2026,"position":"DL","stars":5,"rating_247":98.0,"committed_to":"Louisiana State","lat":29.9499323,"lng":-90.0701156,"hometown_city":"New Orleans","hometown_state":"LA"},{"name":"Carter Gooden","year":2026,"position":"DL","stars":4,"rating_247":96.0,"committed_to":"Tennessee","lat":41.7001043,"lng":-70.7628129,"hometown_city":"Marion","hometown_state":"MA"},{"name":"Deuce Geralds","year":2026,"position":"DL","stars":4,"rating_247":96.0,"committed_to":"Louisiana State","lat":34.0514898,"lng":-84.0712997,"hometown_city":"Suwanee","hometown_state":"GA"},{"name":"Jamarion Matthews","year":2026,"position":"DL","stars":4,"rating_247":96.0,"committed_to":"Alabama","lat":34.2978794,"lng":-83.8240663,"hometown_city":"Gainesville","hometown_state":"GA"},{"name":"Bryce Perry-Wright","year":2026,"position":"DL","stars":4,"rating_247":96.0,"committed_to":"Texas A&M","lat":34.1206564,"lng":-84.0043513,"hometown_city":"Buford","hometown_state":"GA"},{"name":"Aiden Harris","year":2026,"position":"DL","stars":4,"rating_247":95.0,"committed_to":"South Carolina","lat":35.1170873,"lng":-80.723718,"hometown_city":"Matthews","hometown_state":"NC"},{"name":"Nolan Wilson","year":2026,"position":"DL","stars":4,"rating_247":95.0,"committed_to":"Alabama","lat":30.5254692,"lng":-89.6795084,"hometown_city":"Picayune","hometown_state":"MS"},{"name":"Tomuhini Topui","year":2026,"position":"DL","stars":4,"rating_247":95.0,"committed_to":"Southern California","lat":33.7494951,"lng":-117.8732213,"hometown_city":"Santa Ana","hometown_state":"CA"},{"name":"Tony Cumberland","year":2026,"position":"DL","stars":4,"rating_247":95.0,"committed_to":"Oregon","lat":44.0505054,"lng":-123.0950506,"hometown_city":"Eugene","hometown_state":"OR"},{"name":"Keshawn Stancil","year":2026,"position":"DL","stars":4,"rating_247":95.0,"committed_to":"Miami","lat":35.650711,"lng":-78.4563914,"hometown_city":"Clayton","hometown_state":"NC"},{"name":"Danny Beale III","year":2026,"position":"DL","stars":null,"rating_247":94.0,"committed_to":"Arkansas","lat":34.8938,"lng":-92.4426,"hometown_city":"Cherry Valley","hometown_state":"AR"},{"name":"Bott Mulitalo","year":2026,"position":"DL","stars":4,"rating_247":94.0,"committed_to":"BYU","lat":40.3768954,"lng":-111.7957645,"hometown_city":"American Fork","hometown_state":"UT"},{"name":"Noah Clark","year":2026,"position":"DL","stars":4,"rating_247":94.0,"committed_to":"South Carolina","lat":35.996653,"lng":-78.9018053,"hometown_city":"Durham","hometown_state":"NC"},{"name":"Emanuel Ruffin","year":2026,"position":"DL","stars":4,"rating_247":93.0,"committed_to":"Ohio State","lat":33.3823635,"lng":-86.91720475,"hometown_city":"Bessemer","hometown_state":"AL"},{"name":"Tajh Overton","year":2026,"position":"DL","stars":4,"rating_247":93.0,"committed_to":"Missouri","lat":36.2661536,"lng":-95.8549456,"hometown_city":"Owasso","hometown_state":"OK"},{"name":"Corey Wells","year":2026,"position":"DL","stars":4,"rating_247":92.0,"committed_to":"Auburn","lat":31.3465627,"lng":-89.2600605,"hometown_city":"Petal","hometown_state":"MS"},{"name":"Vodney Cleveland","year":2026,"position":"DL","stars":4,"rating_247":92.0,"committed_to":"North Carolina","lat":33.5206824,"lng":-86.8024326,"hometown_city":"Birmingham","hometown_state":"AL"},{"name":"Franklin Whitley","year":2026,"position":"DL","stars":4,"rating_247":91.0,"committed_to":"Florida State","lat":34.851354,"lng":-82.3984882,"hometown_city":"Greenville","hometown_state":"SC"},{"name":"Kendall Guervil","year":2026,"position":"DL","stars":4,"rating_247":91.0,"committed_to":"Florida","lat":26.640628,"lng":-81.8723084,"hometown_city":"Fort Myers","hometown_state":"FL"},{"name":"Earnest Rankins","year":2026,"position":"DL","stars":4,"rating_247":91.0,"committed_to":"Florida State","lat":33.7737582,"lng":-84.296069,"hometown_city":"Decatur","hometown_state":"GA"},{"name":"Anthony Jones","year":2026,"position":"DL","stars":3,"rating_247":91.0,"committed_to":"Oregon","lat":33.6856969,"lng":-117.8259819,"hometown_city":"Irvine","hometown_state":"CA"},{"name":"Breeze Carter","year":2026,"position":"DL","stars":null,"rating_247":91.0,"committed_to":"Tennessee","lat":32.6415,"lng":-83.4426,"hometown_city":"Douglasville","hometown_state":"GA"},{"name":"Dereon Albert","year":2026,"position":"DL","stars":4,"rating_247":91.0,"committed_to":"Tennessee","lat":32.2990384,"lng":-90.1847691,"hometown_city":"Jackson","hometown_state":"MS"},{"name":"Anthony Kennedy Jr.","year":2026,"position":"DL","stars":3,"rating_247":90.0,"committed_to":"Arkansas","lat":34.7464809,"lng":-92.2895948,"hometown_city":"Little Rock","hometown_state":"AR"},{"name":"Damari Simeon","year":2026,"position":"DL","stars":4,"rating_247":90.0,"committed_to":"Ohio State","lat":39.4917828,"lng":-74.8707243,"hometown_city":"Richland","hometown_state":"NJ"},{"name":"Tufanua Ionatana Umu-Cais","year":2026,"position":"DL","stars":3,"rating_247":89.0,"committed_to":"Washington","lat":39.6482059,"lng":-104.9879641,"hometown_city":"Englewood","hometown_state":"CO"},{"name":"McHale Blade","year":2026,"position":"DL","stars":4,"rating_247":89.0,"committed_to":"Michigan","lat":41.8755616,"lng":-87.6244212,"hometown_city":"Chicago","hometown_state":"IL"},{"name":"Cameron Brickle II","year":2026,"position":"DL","stars":null,"rating_247":89.0,"committed_to":"Maryland","lat":28.6305,"lng":-82.4497,"hometown_city":"Bradenton","hometown_state":"FL"},{"name":"Jermaine Kinsler","year":2026,"position":"DL","stars":4,"rating_247":89.0,"committed_to":"Texas A&M","lat":40.9543943,"lng":-74.0308504,"hometown_city":"Oradell","hometown_state":"NJ"},{"name":"JaReylan McCoy","year":2026,"position":"DL","stars":4,"rating_247":89.0,"committed_to":"Florida","lat":34.2576067,"lng":-88.7033859,"hometown_city":"Tupelo","hometown_state":"MS"},{"name":"Carter Luckie","year":2026,"position":"DL","stars":4,"rating_247":89.0,"committed_to":"Georgia","lat":33.9412127,"lng":-84.2135309,"hometown_city":"Norcross","hometown_state":"GA"},{"name":"Andrew Harris","year":2026,"position":"DL","stars":4,"rating_247":89.0,"committed_to":"South Carolina","lat":35.1170873,"lng":-80.723718,"hometown_city":"Matthews","hometown_state":"NC"},{"name":"Tico Crittendon Jr.","year":2026,"position":"DL","stars":null,"rating_247":89.0,"committed_to":"Mississippi State","lat":32.6415,"lng":-83.4426,"hometown_city":"Lithonia","hometown_state":"GA"},{"name":"Kedric Golston II","year":2026,"position":"DL","stars":4,"rating_247":89.0,"committed_to":"Tennessee","lat":39.0437192,"lng":-77.4874899,"hometown_city":"Ashburn","hometown_state":"VA"},{"name":"Darryl Rivers","year":2026,"position":"DL","stars":3,"rating_247":89.0,"committed_to":"Tennessee","lat":33.8595492,"lng":-84.683824,"hometown_city":"Powder Springs","hometown_state":"GA"},{"name":"Keenan Britt","year":2026,"position":"DL","stars":3,"rating_247":89.0,"committed_to":"South Carolina","lat":33.5853695,"lng":-85.91428175037092,"hometown_city":"Oxford","hometown_state":"AL"},{"name":"Preston Carey","year":2026,"position":"DL","stars":3,"rating_247":88.0,"committed_to":"Georgia","lat":27.4989278,"lng":-82.5748194,"hometown_city":"Bradenton","hometown_state":"FL"},{"name":"Gabe Hill","year":2026,"position":"DL","stars":null,"rating_247":88.0,"committed_to":"Indiana","lat":40.0417,"lng":-89.1965,"hometown_city":"Naperville","hometown_state":"IL"},{"name":"JaMarcus Whyce","year":2026,"position":"DL","stars":3,"rating_247":88.0,"committed_to":"Maryland","lat":39.7589478,"lng":-84.1916069,"hometown_city":"Dayton","hometown_state":"OH"},{"name":"Mhari Johnson","year":2026,"position":"DL","stars":null,"rating_247":88.0,"committed_to":"Alabama","lat":32.7794,"lng":-86.8287,"hometown_city":"Muscle Shoals","hometown_state":"AL"},{"name":"Tiki Hola","year":2026,"position":"DL","stars":4,"rating_247":88.0,"committed_to":"Notre Dame","lat":30.1104947,"lng":-97.3152701,"hometown_city":"Bastrop","hometown_state":"TX"},{"name":"Viliami Moala","year":2026,"position":"DL","stars":3,"rating_247":88.0,"committed_to":"North Carolina","lat":33.2442813,"lng":-86.8163773,"hometown_city":"Alabaster","hometown_state":"AL"},{"name":"Kam Cody","year":2026,"position":"DL","stars":null,"rating_247":88.0,"committed_to":"Clemson","lat":32.6415,"lng":-83.4426,"hometown_city":"Savannah","hometown_state":"GA"},{"name":"JJ Finch","year":2026,"position":"DL","stars":3,"rating_247":88.0,"committed_to":"Tennessee","lat":39.7683331,"lng":-86.1583502,"hometown_city":"Indianapolis","hometown_state":"IN"},{"name":"James Carrington","year":2026,"position":"DL","stars":3,"rating_247":87.0,"committed_to":"Oklahoma","lat":33.6856969,"lng":-117.8259819,"hometown_city":"Irvine","hometown_state":"CA"},{"name":"Darryus McKinley","year":2026,"position":"DL","stars":3,"rating_247":87.0,"committed_to":"Ohio State","lat":30.2240897,"lng":-92.0198427,"hometown_city":"Lafayette","hometown_state":"LA"},{"name":"Jaylen Thomas","year":2026,"position":"DL","stars":null,"rating_247":87.0,"committed_to":"West Virginia","lat":32.7364,"lng":-89.6678,"hometown_city":"Senatobia","hometown_state":"MS"},{"name":"Tyson Bacon","year":2026,"position":"DL","stars":3,"rating_247":86.0,"committed_to":"Miami","lat":33.3848933,"lng":-86.8070484,"hometown_city":"Hoover","hometown_state":"AL"},{"name":"Iverson Garcia-Ponce","year":2026,"position":"DL","stars":3,"rating_247":86.0,"committed_to":"South Florida","lat":36.0317472,"lng":-84.0279677,"hometown_city":"Powell","hometown_state":"TN"},{"name":"Nuk Simmons","year":2026,"position":"DL","stars":null,"rating_247":86.0,"committed_to":"Tennessee","lat":32.6415,"lng":-83.4426,"hometown_city":"Columbus","hometown_state":"GA"},{"name":"Seven Cloud","year":2026,"position":"DL","stars":null,"rating_247":86.0,"committed_to":null,"lat":38.4937,"lng":-98.3804,"hometown_city":"El Dorado","hometown_state":"KS"},{"name":"Rodney White","year":2026,"position":"DL","stars":3,"rating_247":85.0,"committed_to":"Indiana","lat":39.4018552,"lng":-76.602388,"hometown_city":"Towson","hometown_state":"MD"},{"name":"Zakir Abdul-Salaam","year":2026,"position":"DL","stars":3,"rating_247":85.0,"committed_to":"Kennesaw State","lat":33.8595492,"lng":-84.683824,"hometown_city":"Powder Springs","hometown_state":"GA"},{"name":"Anthony Jones Jr.","year":2026,"position":"LB","stars":null,"rating_247":98.0,"committed_to":"Oregon","lat":32.7794,"lng":-86.8287,"hometown_city":"Mobile","hometown_state":"AL"},{"name":"TJ White","year":2026,"position":"LB","stars":4,"rating_247":97.0,"committed_to":"Tennessee","lat":32.2990384,"lng":-90.1847691,"hometown_city":"Jackson","hometown_state":"MS"},{"name":"Tyler Atkinson","year":2026,"position":"LB","stars":5,"rating_247":97.0,"committed_to":"Texas","lat":33.8389977,"lng":-83.9007382,"hometown_city":"Loganville","hometown_state":"GA"},{"name":"Kosi Okpala","year":2026,"position":"LB","stars":4,"rating_247":96.0,"committed_to":"Texas","lat":29.7589382,"lng":-95.3676974,"hometown_city":"Houston","hometown_state":"TX"},{"name":"Jaquez Wilkes","year":2026,"position":"LB","stars":4,"rating_247":96.0,"committed_to":"Auburn","lat":33.1215089,"lng":-85.5663432,"hometown_city":"Wadley","hometown_state":"AL"},{"name":"Brayden Rouse","year":2026,"position":"LB","stars":4,"rating_247":96.0,"committed_to":"Tennessee","lat":33.9528472,"lng":-84.5496148,"hometown_city":"Marietta","hometown_state":"GA"},{"name":"Talanoa Ili","year":2026,"position":"LB","stars":4,"rating_247":95.0,"committed_to":"Southern California","lat":21.679124,"lng":-157.94838,"hometown_city":"Kahuku","hometown_state":"HI"},{"name":"Qui Beck","year":2026,"position":"LB","stars":null,"rating_247":91.0,"committed_to":"Texas A&M","lat":31.4757,"lng":-99.3312,"hometown_city":"Carthage","hometown_state":"TX"},{"name":"Tank King","year":2026,"position":"LB","stars":4,"rating_247":91.0,"committed_to":"Texas A&M","lat":29.8988618,"lng":-93.9288723,"hometown_city":"Port Arthur","hometown_state":"TX"},{"name":"Thomas Davis Jr.","year":2026,"position":"LB","stars":4,"rating_247":90.0,"committed_to":"Notre Dame","lat":35.1170873,"lng":-80.723718,"hometown_city":"Matthews","hometown_state":"NC"},{"name":"Shadarius Toodle","year":2026,"position":"LB","stars":4,"rating_247":90.0,"committed_to":"Auburn","lat":30.6943566,"lng":-88.0430541,"hometown_city":"Mobile","hometown_state":"AL"},{"name":"Malik Morris","year":2026,"position":"LB","stars":4,"rating_247":89.0,"committed_to":"Florida","lat":28.0394654,"lng":-81.9498042,"hometown_city":"Lakeland","hometown_state":"FL"},{"name":"Ja'Kobe Clapper","year":2026,"position":"LB","stars":null,"rating_247":89.0,"committed_to":"Notre Dame","lat":40.2862,"lng":-82.7937,"hometown_city":"Cincinnati","hometown_state":"OH"},{"name":"Kenneth Goodwin III","year":2026,"position":"LB","stars":null,"rating_247":88.0,"committed_to":"SMU","lat":28.6305,"lng":-82.4497,"hometown_city":"Miami","hometown_state":"FL"},{"name":"Ant Davis","year":2026,"position":"LB","stars":null,"rating_247":88.0,"committed_to":"Mississippi","lat":32.6415,"lng":-83.4426,"hometown_city":"Loganville","hometown_state":"GA"},{"name":"Samu Moala","year":2026,"position":"LB","stars":4,"rating_247":88.0,"committed_to":"Texas A&M","lat":33.8885217,"lng":-118.3531991,"hometown_city":"Lawndale","hometown_state":"CA"},{"name":"Ja'Michael Garrett","year":2026,"position":"LB","stars":null,"rating_247":88.0,"committed_to":"Mississippi","lat":31.0689,"lng":-91.9968,"hometown_city":"Baton Rouge","hometown_state":"LA"},{"name":"Kaden Carter","year":2026,"position":"LB","stars":3,"rating_247":88.0,"committed_to":"Maryland","lat":33.0545709,"lng":-84.1557496,"hometown_city":"Barnesville","hometown_state":"GA"},{"name":"I'Zayah Young","year":2026,"position":"LB","stars":null,"rating_247":87.0,"committed_to":"SMU","lat":31.4757,"lng":-99.3312,"hometown_city":"San Marcos","hometown_state":"TX"},{"name":"Rodney Colton Jr.","year":2026,"position":"LB","stars":null,"rating_247":87.0,"committed_to":"Colorado","lat":32.6415,"lng":-83.4426,"hometown_city":"Newnan","hometown_state":"GA"},{"name":"Jakore Smith","year":2026,"position":"LB","stars":3,"rating_247":87.0,"committed_to":"Arkansas","lat":34.5959265,"lng":-92.4890469,"hometown_city":"Bryant","hometown_state":"AR"},{"name":"Adam Balogoun-Ali","year":2026,"position":"LB","stars":4,"rating_247":87.0,"committed_to":"Auburn","lat":26.715364,"lng":-80.0532942,"hometown_city":"West Palm Beach","hometown_state":"FL"},{"name":"CJ Gamble","year":2026,"position":"LB","stars":3,"rating_247":87.0,"committed_to":"Georgia Tech","lat":33.5801103,"lng":-85.0766113,"hometown_city":"Carrollton","hometown_state":"GA"},{"name":"Colsen Gatten","year":2026,"position":"LB","stars":3,"rating_247":87.0,"committed_to":"Duke","lat":40.4416941,"lng":-79.9900861,"hometown_city":"Pittsburgh","hometown_state":"PA"},{"name":"Wassie Lugolobi","year":2026,"position":"LB","stars":3,"rating_247":87.0,"committed_to":"Stanford","lat":47.6088445,"lng":-122.0423067,"hometown_city":"Sammamish","hometown_state":"WA"},{"name":"Jayden McClure","year":2026,"position":"LB","stars":3,"rating_247":87.0,"committed_to":null,"lat":35.5342414,"lng":-87.206954,"hometown_city":"Mount Pleasant","hometown_state":"TN"},{"name":"Beau Jandreau","year":2026,"position":"LB","stars":3,"rating_247":86.0,"committed_to":"Oklahoma","lat":33.3062223,"lng":-111.8413317,"hometown_city":"Chandler","hometown_state":"AZ"},{"name":"Braylon Outlaw","year":2026,"position":"LB","stars":3,"rating_247":86.0,"committed_to":"Georgia Tech","lat":32.272931,"lng":-86.15018999518217,"hometown_city":"Pike Road","hometown_state":"AL"},{"name":"Dallas Brannon","year":2026,"position":"LB","stars":3,"rating_247":85.0,"committed_to":"Virginia","lat":35.2272,"lng":-80.843083,"hometown_city":"Charlotte","hometown_state":"NC"},{"name":"Jermaine Bishop","year":2026,"position":"CB","stars":4,"rating_247":98.0,"committed_to":"Texas","lat":30.4241219,"lng":-95.4796587,"hometown_city":"Willis","hometown_state":"TX"},{"name":"Jorden Edmonds","year":2026,"position":"CB","stars":5,"rating_247":98.0,"committed_to":"Alabama","lat":33.9528472,"lng":-84.5496148,"hometown_city":"Marietta","hometown_state":"GA"},{"name":"Khary Adams","year":2026,"position":"CB","stars":5,"rating_247":97.0,"committed_to":"Notre Dame","lat":39.4018552,"lng":-76.602388,"hometown_city":"Towson","hometown_state":"MD"},{"name":"Chuck Kennon","year":2026,"position":"CB","stars":null,"rating_247":97.0,"committed_to":"Florida State","lat":28.6305,"lng":-82.4497,"hometown_city":"Sarasota","hometown_state":"FL"},{"name":"Zyan Gibson","year":2026,"position":"CB","stars":4,"rating_247":96.0,"committed_to":"Alabama","lat":34.010929,"lng":-85.9989596,"hometown_city":"Gadsden","hometown_state":"AL"},{"name":"J'Zavien Currence","year":2026,"position":"CB","stars":4,"rating_247":96.0,"committed_to":"South Carolina","lat":34.9248667,"lng":-81.0250784,"hometown_city":"Rock Hill","hometown_state":"SC"},{"name":"Elbert Hill IV","year":2026,"position":"CB","stars":null,"rating_247":95.0,"committed_to":"Southern California","lat":40.2862,"lng":-82.7937,"hometown_city":"Akron","hometown_state":"OH"},{"name":"Caden Harris","year":2026,"position":"CB","stars":4,"rating_247":95.0,"committed_to":"Georgia","lat":35.5939671,"lng":-89.262291,"hometown_city":"Brownsville","hometown_state":"TN"},{"name":"Samari Matthews","year":2026,"position":"CB","stars":4,"rating_247":94.0,"committed_to":"Texas","lat":35.4817982,"lng":-80.8589501,"hometown_city":"Cornelius","hometown_state":"NC"},{"name":"Camdin Portis","year":2026,"position":"CB","stars":4,"rating_247":94.0,"committed_to":"Miami","lat":35.2272,"lng":-80.843083,"hometown_city":"Charlotte","hometown_state":"NC"},{"name":"Davon Benjamin","year":2026,"position":"CB","stars":4,"rating_247":94.0,"committed_to":"Oregon","lat":34.1460234,"lng":-118.8061794,"hometown_city":"Westlake Village","hometown_state":"CA"},{"name":"Jaelen Waters","year":2026,"position":"CB","stars":4,"rating_247":94.0,"committed_to":"Miami","lat":27.998541000000003,"lng":-82.27488400114905,"hometown_city":"Seffner","hometown_state":"FL"},{"name":"Nick Hankins Jr.","year":2026,"position":"CB","stars":null,"rating_247":93.0,"committed_to":"Illinois","lat":40.0417,"lng":-89.1965,"hometown_city":"Belleville","hometown_state":"IL"},{"name":"Camren Hamiel","year":2026,"position":"CB","stars":4,"rating_247":93.0,"committed_to":"Texas A&M","lat":33.4353672,"lng":-112.3576005,"hometown_city":"Goodyear","hometown_state":"AZ"},{"name":"Khmari Bing","year":2026,"position":"CB","stars":4,"rating_247":92.0,"committed_to":"Ohio State","lat":39.2908816,"lng":-76.610759,"hometown_city":"Baltimore","hometown_state":"MD"},{"name":"Jaydin Broadnax","year":2026,"position":"CB","stars":4,"rating_247":92.0,"committed_to":"Louisville","lat":26.3586885,"lng":-80.0830984,"hometown_city":"Boca Raton","hometown_state":"FL"},{"name":"Peyton Dyer","year":2026,"position":"CB","stars":4,"rating_247":91.0,"committed_to":"Southern California","lat":35.0457219,"lng":-85.3094883,"hometown_city":"Chattanooga","hometown_state":"TN"},{"name":"Havon Finney Jr.","year":2026,"position":"CB","stars":null,"rating_247":91.0,"committed_to":"Louisiana State","lat":37.1841,"lng":-119.4696,"hometown_city":"Chatsworth","hometown_state":"CA"},{"name":"Zech Fort","year":2026,"position":"CB","stars":4,"rating_247":91.0,"committed_to":"Georgia","lat":27.4989278,"lng":-82.5748194,"hometown_city":"Bradenton","hometown_state":"FL"},{"name":"Vic Singleton","year":2026,"position":"CB","stars":null,"rating_247":91.0,"committed_to":"Texas A&M","lat":40.2862,"lng":-82.7937,"hometown_city":"Toledo","hometown_state":"OH"},{"name":"Chaz Smith","year":2026,"position":"CB","stars":null,"rating_247":91.0,"committed_to":"Notre Dame","lat":35.858,"lng":-86.3505,"hometown_city":"Knoxville","hometown_state":"TN"},{"name":"Zay Anderson","year":2026,"position":"CB","stars":4,"rating_247":91.0,"committed_to":"Tennessee","lat":36.1631575,"lng":-82.8309861,"hometown_city":"Greeneville","hometown_state":"TN"},{"name":"Donovan Webb","year":2026,"position":"CB","stars":4,"rating_247":90.0,"committed_to":"Texas Tech","lat":33.1506744,"lng":-96.8236116,"hometown_city":"Frisco","hometown_state":"TX"},{"name":"Jeron Jones","year":2026,"position":"CB","stars":4,"rating_247":90.0,"committed_to":"Washington","lat":33.5965685,"lng":-117.659405,"hometown_city":"Mission Viejo","hometown_state":"CA"},{"name":"AJ Marks","year":2026,"position":"CB","stars":3,"rating_247":90.0,"committed_to":"Wake Forest","lat":27.4989278,"lng":-82.5748194,"hometown_city":"Bradenton","hometown_state":"FL"},{"name":"Dorian Barney","year":2026,"position":"CB","stars":4,"rating_247":90.0,"committed_to":"Mississippi","lat":33.5801103,"lng":-85.0766113,"hometown_city":"Carrollton","hometown_state":"GA"},{"name":"Andre Clarke Jr.","year":2026,"position":"CB","stars":4,"rating_247":90.0,"committed_to":"Kentucky","lat":37.5385087,"lng":-77.43428,"hometown_city":"Richmond","hometown_state":"VA"},{"name":"Brandon Lockhart","year":2026,"position":"CB","stars":4,"rating_247":89.0,"committed_to":"Southern California","lat":34.2595715,"lng":-118.6023247,"hometown_city":"Chatsworth","hometown_state":"CA"},{"name":"Justin Hopkins","year":2026,"position":"CB","stars":3,"rating_247":89.0,"committed_to":"Minnesota","lat":36.1622296,"lng":-86.7743531,"hometown_city":"Nashville","hometown_state":"TN"},{"name":"Sean Johnson","year":2026,"position":"CB","stars":3,"rating_247":89.0,"committed_to":"Maryland","lat":39.1278864,"lng":-76.6869128,"hometown_city":"Severn","hometown_state":"MD"},{"name":"Javonte Smith","year":2026,"position":"CB","stars":3,"rating_247":89.0,"committed_to":"Tennessee","lat":35.6144446,"lng":-88.8177418,"hometown_city":"Jackson","hometown_state":"TN"},{"name":"Preston Ashley","year":2026,"position":"CB","stars":4,"rating_247":88.0,"committed_to":"Colorado","lat":32.2731475,"lng":-89.9868058,"hometown_city":"Brandon","hometown_state":"MS"},{"name":"Madden Riordan","year":2026,"position":"CB","stars":3,"rating_247":88.0,"committed_to":"Southern California","lat":34.2595715,"lng":-118.6023247,"hometown_city":"Chatsworth","hometown_state":"CA"},{"name":"Hakim Satterwhite","year":2026,"position":"CB","stars":3,"rating_247":88.0,"committed_to":"Maryland","lat":39.2908816,"lng":-76.610759,"hometown_city":"Baltimore","hometown_state":"MD"},{"name":"CJ Lavender","year":2026,"position":"CB","stars":3,"rating_247":88.0,"committed_to":"UCLA","lat":33.7494951,"lng":-117.8732213,"hometown_city":"Santa Ana","hometown_state":"CA"},{"name":"Jayden Crowder","year":2026,"position":"CB","stars":3,"rating_247":87.0,"committed_to":"Southern California","lat":33.6408845,"lng":-117.6029341,"hometown_city":"Rancho Santa Margarita","hometown_state":"CA"},{"name":"Jaziel Hart","year":2026,"position":"CB","stars":3,"rating_247":87.0,"committed_to":"North Carolina","lat":37.270973,"lng":-79.9414313,"hometown_city":"Roanoke","hometown_state":"VA"},{"name":"Jamyan Theodore","year":2026,"position":"CB","stars":3,"rating_247":87.0,"committed_to":"Tennessee","lat":35.0457219,"lng":-85.3094883,"hometown_city":"Chattanooga","hometown_state":"TN"},{"name":"Trey Brown","year":2026,"position":"CB","stars":null,"rating_247":86.0,"committed_to":"Kansas","lat":37.1841,"lng":-119.4696,"hometown_city":"Chatsworth","hometown_state":"CA"},{"name":"Tylen Mathews","year":2026,"position":"CB","stars":3,"rating_247":86.0,"committed_to":"Nevada, Las Vegas","lat":34.9042635,"lng":-90.2145395,"hometown_city":"Lake Cormorant","hometown_state":"MS"},{"name":"Jalen Williams","year":2026,"position":"CB","stars":3,"rating_247":86.0,"committed_to":"Arizona State","lat":33.9528472,"lng":-84.5496148,"hometown_city":"Marietta","hometown_state":"GA"},{"name":"Jase Rhodes","year":2026,"position":"CB","stars":3,"rating_247":85.0,"committed_to":"James Madison","lat":37.270973,"lng":-79.9414313,"hometown_city":"Roanoke","hometown_state":"VA"},{"name":"Syncere Berry","year":2026,"position":"CB","stars":3,"rating_247":84.0,"committed_to":"Appalachian State","lat":33.7490987,"lng":-84.3901849,"hometown_city":"Atlanta","hometown_state":"GA"},{"name":"Jireh Edwards","year":2026,"position":"S","stars":5,"rating_247":97.0,"committed_to":"Alabama","lat":38.8165274,"lng":-76.7519753,"hometown_city":"Upper Marlboro","hometown_state":"MD"},{"name":"Joey O'Brien","year":2026,"position":"S","stars":5,"rating_247":97.0,"committed_to":"Notre Dame","lat":40.1023326,"lng":-75.1521195,"hometown_city":"Glenside","hometown_state":"PA"},{"name":"Bralan Womack","year":2026,"position":"S","stars":5,"rating_247":97.0,"committed_to":"Mississippi State","lat":32.3095903,"lng":-90.1389757,"hometown_city":"Flowood","hometown_state":"MS"},{"name":"Ayden Pouncey","year":2026,"position":"S","stars":4,"rating_247":96.0,"committed_to":"Notre Dame","lat":26.13784445,"lng":-81.75399813758739,"hometown_city":"Winter Park","hometown_state":"FL"},{"name":"JJ Dunnigan","year":2026,"position":"S","stars":4,"rating_247":95.0,"committed_to":"Miami","lat":39.1836082,"lng":-96.5716694,"hometown_city":"Manhattan","hometown_state":"KS"},{"name":"CJ Bronaugh","year":2026,"position":"S","stars":4,"rating_247":95.0,"committed_to":"Florida","lat":28.5656649,"lng":-81.5856742,"hometown_city":"Winter Garden","hometown_state":"FL"},{"name":"Jordan Smith","year":2026,"position":"S","stars":4,"rating_247":94.0,"committed_to":"Georgia","lat":32.6200973,"lng":-83.606568,"hometown_city":"Warner Robins","hometown_state":"GA"},{"name":"Blaine Bradford","year":2026,"position":"S","stars":4,"rating_247":94.0,"committed_to":"Ohio State","lat":30.4459596,"lng":-91.18738,"hometown_city":"Baton Rouge","hometown_state":"LA"},{"name":"Polo Anderson","year":2026,"position":"S","stars":null,"rating_247":93.0,"committed_to":"Clemson","lat":33.9169,"lng":-80.8964,"hometown_city":"Roebuck","hometown_state":"SC"},{"name":"Aiden Hall","year":2026,"position":"S","stars":4,"rating_247":92.0,"committed_to":"Louisiana State","lat":29.9499323,"lng":-90.0701156,"hometown_city":"New Orleans","hometown_state":"LA"},{"name":"Simeon Caldwell","year":2026,"position":"S","stars":4,"rating_247":91.0,"committed_to":"Ohio State","lat":30.3321838,"lng":-81.655651,"hometown_city":"Jacksonville","hometown_state":"FL"},{"name":"Xavier Lherisse","year":2026,"position":"S","stars":4,"rating_247":91.0,"committed_to":"Oregon","lat":28.0836269,"lng":-80.6081089,"hometown_city":"Melbourne","hometown_state":"FL"},{"name":"Kaden Gebhardt","year":2026,"position":"S","stars":3,"rating_247":90.0,"committed_to":"Ohio State","lat":40.1983958,"lng":-83.0101843,"hometown_city":"Lewis Center","hometown_state":"OH"},{"name":"Craig Tutt","year":2026,"position":"S","stars":4,"rating_247":90.0,"committed_to":"Mississippi","lat":35.845999,"lng":-86.3920452,"hometown_city":"Murfreesboro","hometown_state":"TN"},{"name":"Keenan Harris","year":2026,"position":"S","stars":3,"rating_247":89.0,"committed_to":"Missouri","lat":38.6268039,"lng":-90.1994097,"hometown_city":"St. Louis","hometown_state":"MO"},{"name":"Walker Bryson","year":2026,"position":"S","stars":3,"rating_247":89.0,"committed_to":"Wake Forest","lat":34.97479,"lng":-83.30549,"hometown_city":"Rabun Gap","hometown_state":"GA"},{"name":"Jowell Combay","year":2026,"position":"S","stars":3,"rating_247":89.0,"committed_to":"Tennessee","lat":33.9528472,"lng":-84.5496148,"hometown_city":"Marietta","hometown_state":"GA"},{"name":"Kaiden Hall","year":2026,"position":"S","stars":4,"rating_247":88.0,"committed_to":"Florida","lat":30.6324149,"lng":-87.0396881,"hometown_city":"Milton","hometown_state":"FL"},{"name":"Cortez Redding","year":2026,"position":"S","stars":4,"rating_247":88.0,"committed_to":"Miami","lat":33.5215013,"lng":-84.3538128,"hometown_city":"Jonesboro","hometown_state":"GA"},{"name":"Chace Calicut","year":2026,"position":"S","stars":4,"rating_247":88.0,"committed_to":"Georgia Southern","lat":29.7589382,"lng":-95.3676974,"hometown_city":"Houston","hometown_state":"TX"},{"name":"Nascar McCoy","year":2026,"position":"S","stars":3,"rating_247":88.0,"committed_to":"Mississippi","lat":34.1206564,"lng":-84.0043513,"hometown_city":"Buford","hometown_state":"GA"},{"name":"Darnell Collins","year":2026,"position":"S","stars":3,"rating_247":88.0,"committed_to":"Georgia Tech","lat":34.257038,"lng":-85.1646726,"hometown_city":"Rome","hometown_state":"GA"},{"name":"Julian Burns","year":2026,"position":"S","stars":3,"rating_247":88.0,"committed_to":"North Carolina","lat":32.5093109,"lng":-92.1193012,"hometown_city":"Monroe","hometown_state":"LA"},{"name":"Markel Ford","year":2026,"position":"S","stars":3,"rating_247":88.0,"committed_to":"Oklahoma","lat":32.7666103,"lng":-96.599472,"hometown_city":"Mesquite","hometown_state":"TX"},{"name":"KJ McClain","year":2026,"position":"S","stars":3,"rating_247":88.0,"committed_to":"Tennessee","lat":41.0467635,"lng":-74.0229173,"hometown_city":"Montvale","hometown_state":"NJ"},{"name":"Zaiden McDonald","year":2026,"position":"S","stars":3,"rating_247":88.0,"committed_to":"Stanford","lat":40.735657,"lng":-74.1723667,"hometown_city":"Newark","hometown_state":"NJ"},{"name":"D'Various Surratt","year":2026,"position":"S","stars":3,"rating_247":88.0,"committed_to":"North Carolina State","lat":35.2919489,"lng":-81.5402112,"hometown_city":"Shelby","hometown_state":"NC"},{"name":"Isaiah Williams","year":2026,"position":"S","stars":3,"rating_247":88.0,"committed_to":"Illinois","lat":38.6779591,"lng":-121.1760583,"hometown_city":"Folsom","hometown_state":"CA"},{"name":"Koby Sarkodie","year":2026,"position":"S","stars":3,"rating_247":88.0,"committed_to":"North Carolina State","lat":39.3265775,"lng":-76.7181764750945,"hometown_city":"Gwynn Oak","hometown_state":"MD"},{"name":"Nick Reddish","year":2026,"position":"S","stars":3,"rating_247":88.0,"committed_to":"Notre Dame","lat":35.2272,"lng":-80.843083,"hometown_city":"Charlotte","hometown_state":"NC"},{"name":"Zeth Thues","year":2026,"position":"S","stars":3,"rating_247":88.0,"committed_to":"Arizona State","lat":33.5806115,"lng":-112.2372942,"hometown_city":"Peoria","hometown_state":"AZ"},{"name":"Chino Aguirre","year":2026,"position":"S","stars":null,"rating_247":88.0,"committed_to":"North Carolina State","lat":32.6415,"lng":-83.4426,"hometown_city":"Locust Grove","hometown_state":"GA"},{"name":"Luke Thompson","year":2026,"position":"S","stars":3,"rating_247":88.0,"committed_to":"Tennessee","lat":35.925193,"lng":-86.8689365,"hometown_city":"Franklin","hometown_state":"TN"},{"name":"Jamar Owens","year":2026,"position":"S","stars":3,"rating_247":87.0,"committed_to":"Indiana","lat":33.7514966,"lng":-84.7477136,"hometown_city":"Douglasville","hometown_state":"GA"},{"name":"Amari Jones","year":2026,"position":"S","stars":3,"rating_247":86.0,"committed_to":"South Florida","lat":27.4989278,"lng":-82.5748194,"hometown_city":"Bradenton","hometown_state":"FL"},{"name":"Wayne Henry","year":2026,"position":"S","stars":3,"rating_247":86.0,"committed_to":"Auburn","lat":39.2908816,"lng":-76.610759,"hometown_city":"Baltimore","hometown_state":"MD"},{"name":"Xavier Griffin","year":2026,"position":"ATH","stars":5,"rating_247":98.0,"committed_to":"Alabama","lat":34.2978794,"lng":-83.8240663,"hometown_city":"Gainesville","hometown_state":"GA"},{"name":"Brandon Arrington","year":2026,"position":"ATH","stars":5,"rating_247":98.0,"committed_to":"Texas A&M","lat":32.7174209,"lng":-117.1627714,"hometown_city":"San Diego","hometown_state":"CA"},{"name":"Jett Washington","year":2026,"position":"ATH","stars":4,"rating_247":98.0,"committed_to":"Oregon","lat":36.1672559,"lng":-115.1485163,"hometown_city":"Las Vegas","hometown_state":"NV"},{"name":"Ian Premer","year":2026,"position":"ATH","stars":5,"rating_247":98.0,"committed_to":"Notre Dame","lat":38.3625063,"lng":-98.7804087,"hometown_city":"Great Bend","hometown_state":"KS"},{"name":"Jalen Lott","year":2026,"position":"ATH","stars":5,"rating_247":97.0,"committed_to":"Oregon","lat":33.1506744,"lng":-96.8236116,"hometown_city":"Frisco","hometown_state":"TX"},{"name":"Joel Wyatt","year":2026,"position":"ATH","stars":4,"rating_247":96.0,"committed_to":"Tennessee","lat":35.845999,"lng":-86.3920452,"hometown_city":"Murfreesboro","hometown_state":"TN"},{"name":"Mack Sutter","year":2026,"position":"ATH","stars":4,"rating_247":96.0,"committed_to":"Alabama","lat":40.8616513,"lng":-89.6777665,"hometown_city":"Dunlap","hometown_state":"IL"},{"name":"Salesi Moa","year":2026,"position":"ATH","stars":4,"rating_247":95.0,"committed_to":"Utah","lat":41.2230048,"lng":-111.9738429,"hometown_city":"Ogden","hometown_state":"UT"},{"name":"C.J. Sadler","year":2026,"position":"ATH","stars":null,"rating_247":93.0,"committed_to":"North Carolina","lat":44.3467,"lng":-85.4102,"hometown_city":"Detroit","hometown_state":"MI"},{"name":"Derrek Cooper","year":2026,"position":"ATH","stars":4,"rating_247":93.0,"committed_to":"Texas","lat":26.0112014,"lng":-80.1494901,"hometown_city":"Hollywood","hometown_state":"FL"},{"name":"Jordan Thomas","year":2026,"position":"ATH","stars":4,"rating_247":93.0,"committed_to":"Ohio State","lat":40.9543943,"lng":-74.0308504,"hometown_city":"Oradell","hometown_state":"NJ"},{"name":"Tyriq Green","year":2026,"position":"ATH","stars":4,"rating_247":93.0,"committed_to":"Georgia","lat":34.1206564,"lng":-84.0043513,"hometown_city":"Buford","hometown_state":"GA"},{"name":"Jaron Pula","year":2026,"position":"ATH","stars":4,"rating_247":91.0,"committed_to":"BYU","lat":40.3768954,"lng":-111.7957645,"hometown_city":"American Fork","hometown_state":"UT"},{"name":"Sequel Patterson","year":2026,"position":"ATH","stars":4,"rating_247":91.0,"committed_to":"South Carolina","lat":35.0073697,"lng":-80.9450759,"hometown_city":"Fort Mill","hometown_state":"SC"},{"name":"Trent Mosley","year":2026,"position":"ATH","stars":4,"rating_247":91.0,"committed_to":"Southern California","lat":33.6408845,"lng":-117.6029341,"hometown_city":"Rancho Santa Margarita","hometown_state":"CA"},{"name":"Nas Rankin","year":2026,"position":"ATH","stars":null,"rating_247":91.0,"committed_to":"Illinois","lat":40.0417,"lng":-89.1965,"hometown_city":"Chicago","hometown_state":"IL"},{"name":"Kaydon Finley","year":2026,"position":"ATH","stars":4,"rating_247":91.0,"committed_to":"Notre Dame","lat":32.69900905,"lng":-97.60396629774493,"hometown_city":"Aledo","hometown_state":"TX"},{"name":"Marcello Vitti","year":2026,"position":"ATH","stars":4,"rating_247":91.0,"committed_to":"Iowa","lat":42.3222599,"lng":-83.1763145,"hometown_city":"Dearborn","hometown_state":"MI"},{"name":"Messiah Mickens","year":2026,"position":"ATH","stars":4,"rating_247":90.0,"committed_to":"Virginia Tech","lat":40.2663107,"lng":-76.8861122,"hometown_city":"Harrisburg","hometown_state":"PA"},{"name":"London Smith","year":2026,"position":"ATH","stars":4,"rating_247":90.0,"committed_to":"Baylor","lat":31.549333,"lng":-97.1466695,"hometown_city":"Waco","hometown_state":"TX"},{"name":"EJ White","year":2026,"position":"ATH","stars":null,"rating_247":90.0,"committed_to":"Florida State","lat":28.6305,"lng":-82.4497,"hometown_city":"Vero Beach","hometown_state":"FL"},{"name":"Devin Carter","year":2026,"position":"ATH","stars":4,"rating_247":89.0,"committed_to":"Florida State","lat":33.7514966,"lng":-84.7477136,"hometown_city":"Douglasville","hometown_state":"GA"},{"name":"Jayden McGregory","year":2026,"position":"ATH","stars":4,"rating_247":89.0,"committed_to":"Missouri","lat":41.5910641,"lng":-93.6037149,"hometown_city":"Des Moines","hometown_state":"IA"},{"name":"David Davis","year":2026,"position":"ATH","stars":4,"rating_247":89.0,"committed_to":"North Carolina","lat":40.4416941,"lng":-79.9900861,"hometown_city":"Pittsburgh","hometown_state":"PA"},{"name":"Chris Hewitt Jr.","year":2026,"position":"ATH","stars":3,"rating_247":89.0,"committed_to":"Georgia Tech","lat":39.4018552,"lng":-76.602388,"hometown_city":"Towson","hometown_state":"MD"},{"name":"Jacob Eberhart","year":2026,"position":"ATH","stars":4,"rating_247":89.0,"committed_to":"Illinois","lat":38.6268039,"lng":-90.1994097,"hometown_city":"St. Louis","hometown_state":"MO"},{"name":"Javari Barnett","year":2026,"position":"ATH","stars":3,"rating_247":88.0,"committed_to":"Illinois","lat":27.9477595,"lng":-82.458444,"hometown_city":"Tampa","hometown_state":"FL"},{"name":"Jabari Brady","year":2026,"position":"ATH","stars":3,"rating_247":88.0,"committed_to":"Missouri","lat":26.2378597,"lng":-80.1247667,"hometown_city":"Pompano Beach","hometown_state":"FL"},{"name":"Shavar Young Jr.","year":2026,"position":"ATH","stars":3,"rating_247":88.0,"committed_to":"Clemson","lat":35.9603948,"lng":-83.9210261,"hometown_city":"Knoxville","hometown_state":"TN"},{"name":"Jontavius Wyman","year":2026,"position":"ATH","stars":4,"rating_247":88.0,"committed_to":"Miami","lat":33.5215013,"lng":-84.3538128,"hometown_city":"Jonesboro","hometown_state":"GA"},{"name":"Jamarrion Gordon","year":2026,"position":"ATH","stars":3,"rating_247":88.0,"committed_to":"North Carolina","lat":31.5090521,"lng":-87.8944435,"hometown_city":"Jackson","hometown_state":"AL"},{"name":"Amari Sabb","year":2026,"position":"ATH","stars":3,"rating_247":87.0,"committed_to":"Alabama","lat":39.7027677,"lng":-75.1119434,"hometown_city":"Glassboro","hometown_state":"NJ"},{"name":"Tay Lockett","year":2026,"position":"ATH","stars":3,"rating_247":87.0,"committed_to":"Arkansas","lat":32.7174209,"lng":-117.1627714,"hometown_city":"San Diego","hometown_state":"CA"},{"name":"Ansu Sanoe","year":2026,"position":"ATH","stars":3,"rating_247":87.0,"committed_to":"Washington","lat":45.4206749,"lng":-122.6706498,"hometown_city":"Lake Oswego","hometown_state":"OR"},{"name":"Sharroid Whitehead","year":2026,"position":"ATH","stars":3,"rating_247":86.0,"committed_to":null,"lat":30.4112904,"lng":-88.8279165,"hometown_city":"Ocean Springs","hometown_state":"MS"},{"name":"Markel Dabney","year":2026,"position":"ATH","stars":3,"rating_247":86.0,"committed_to":"Michigan","lat":37.5385087,"lng":-77.43428,"hometown_city":"Richmond","hometown_state":"VA"},{"name":"Elijah Moss-Williams","year":2026,"position":"ATH","stars":3,"rating_247":84.0,"committed_to":"James Madison","lat":36.8462923,"lng":-76.2929252,"hometown_city":"Norfolk","hometown_state":"VA"},{"name":"Allen Blaylock","year":2026,"position":"ATH","stars":3,"rating_247":83.0,"committed_to":null,"lat":30.671598,"lng":-97.65500660120435,"hometown_city":"Georgetown","hometown_state":"TX"},{"name":"Travis Wakefield","year":2026,"position":"LS","stars":3,"rating_247":80.0,"committed_to":"Auburn","lat":36.1622296,"lng":-86.7743531,"hometown_city":"Nashville","hometown_state":"TN"}],"2027":[{"name":"Trae Taylor","year":2027,"position":"QB","stars":null,"rating_247":98.0,"committed_to":"Nebraska","lat":41.5378,"lng":-99.7951,"hometown_city":"Omaha","hometown_state":"NE"},{"name":"Israel Abrams","year":2027,"position":"QB","stars":null,"rating_247":98.0,"committed_to":"Miami","lat":40.0417,"lng":-89.1965,"hometown_city":"Lombard","hometown_state":"IL"},{"name":"Kavian Bryant","year":2027,"position":"QB","stars":null,"rating_247":93.0,"committed_to":"Texas Tech","lat":31.4757,"lng":-99.3312,"hometown_city":"Palestine","hometown_state":"TX"},{"name":"Peyton Houston","year":2027,"position":"QB","stars":null,"rating_247":92.0,"committed_to":"Louisiana State","lat":31.0689,"lng":-91.9968,"hometown_city":"Shreveport","hometown_state":"LA"},{"name":"Keegan Croucher","year":2027,"position":"QB","stars":null,"rating_247":91.0,"committed_to":"Mississippi","lat":35.858,"lng":-86.3505,"hometown_city":"Chattanooga","hometown_state":"TN"},{"name":"Blake Roskopf","year":2027,"position":"QB","stars":null,"rating_247":90.0,"committed_to":"Washington","lat":34.2744,"lng":-111.6602,"hometown_city":"Goodyear","hometown_state":"AZ"},{"name":"Jayce Johnson","year":2027,"position":"QB","stars":null,"rating_247":90.0,"committed_to":"Texas A&M","lat":32.6415,"lng":-83.4426,"hometown_city":"Valdosta","hometown_state":"GA"},{"name":"Trent Seaborn","year":2027,"position":"QB","stars":null,"rating_247":90.0,"committed_to":"Alabama","lat":32.7794,"lng":-86.8287,"hometown_city":"Alabaster","hometown_state":"AL"},{"name":"Malachi Zeigler","year":2027,"position":"QB","stars":null,"rating_247":90.0,"committed_to":"SMU","lat":31.0689,"lng":-91.9968,"hometown_city":"Benton","hometown_state":"LA"},{"name":"Kamden Lopati","year":2027,"position":"QB","stars":null,"rating_247":89.0,"committed_to":"Michigan","lat":39.321,"lng":-111.0937,"hometown_city":"Salt Lake City","hometown_state":"UT"},{"name":"Wonderful Monds IV","year":2027,"position":"QB","stars":null,"rating_247":88.0,"committed_to":"Notre Dame","lat":28.6305,"lng":-82.4497,"hometown_city":"Vero Beach","hometown_state":"FL"},{"name":"Derrick Baker","year":2027,"position":"QB","stars":null,"rating_247":86.0,"committed_to":"Tennessee","lat":32.6415,"lng":-83.4426,"hometown_city":"Alpharetta","hometown_state":"GA"},{"name":"Kemon Spell","year":2027,"position":"RB","stars":null,"rating_247":98.0,"committed_to":"Georgia","lat":40.8781,"lng":-77.7996,"hometown_city":"McKeesport","hometown_state":"PA"},{"name":"David Gabriel Georges","year":2027,"position":"RB","stars":null,"rating_247":98.0,"committed_to":null,"lat":35.858,"lng":-86.3505,"hometown_city":"Chattanooga","hometown_state":"TN"},{"name":"Landen Williams-Callis","year":2027,"position":"RB","stars":null,"rating_247":95.0,"committed_to":null,"lat":31.4757,"lng":-99.3312,"hometown_city":"Richmond","hometown_state":"TX"},{"name":"Aiden Gibson","year":2027,"position":"RB","stars":null,"rating_247":93.0,"committed_to":"Penn State","lat":33.9169,"lng":-80.8964,"hometown_city":"Woodruff","hometown_state":"SC"},{"name":"David Segarra","year":2027,"position":"RB","stars":null,"rating_247":91.0,"committed_to":null,"lat":33.9169,"lng":-80.8964,"hometown_city":"Duncan","hometown_state":"SC"},{"name":"Gary Walker","year":2027,"position":"RB","stars":null,"rating_247":91.0,"committed_to":"Clemson","lat":32.6415,"lng":-83.4426,"hometown_city":"Fairburn","hometown_state":"GA"},{"name":"CaDarius McMiller","year":2027,"position":"RB","stars":null,"rating_247":90.0,"committed_to":"Oregon","lat":31.4757,"lng":-99.3312,"hometown_city":"Tyler","hometown_state":"TX"},{"name":"Andrew Beard","year":2027,"position":"RB","stars":null,"rating_247":90.0,"committed_to":"Florida","lat":32.6415,"lng":-83.4426,"hometown_city":"Bogart","hometown_state":"GA"},{"name":"Trey Martin","year":2027,"position":"RB","stars":null,"rating_247":90.0,"committed_to":null,"lat":31.0689,"lng":-91.9968,"hometown_city":"Winnsboro","hometown_state":"LA"},{"name":"Ty Keys","year":2027,"position":"RB","stars":null,"rating_247":90.0,"committed_to":"Miami","lat":32.7364,"lng":-89.6678,"hometown_city":"Poplarville","hometown_state":"MS"},{"name":"Kingston Miles","year":2027,"position":"RB","stars":null,"rating_247":90.0,"committed_to":"Auburn","lat":38.3566,"lng":-92.458,"hometown_city":"St. Louis","hometown_state":"MO"},{"name":"Tyson Robinson","year":2027,"position":"RB","stars":null,"rating_247":90.0,"committed_to":"Michigan","lat":32.7364,"lng":-89.6678,"hometown_city":"Brandon","hometown_state":"MS"},{"name":"Brayden Tyson","year":2027,"position":"RB","stars":null,"rating_247":90.0,"committed_to":"South Carolina","lat":32.6415,"lng":-83.4426,"hometown_city":"Snellville","hometown_state":"GA"},{"name":"Nigel Newkirk","year":2027,"position":"RB","stars":null,"rating_247":89.0,"committed_to":"Alabama","lat":32.6415,"lng":-83.4426,"hometown_city":"Gainesville","hometown_state":"GA"},{"name":"Khamoni Williams","year":2027,"position":"RB","stars":null,"rating_247":89.0,"committed_to":null,"lat":35.858,"lng":-86.3505,"hometown_city":"Memphis","hometown_state":"TN"},{"name":"Amarri Irvin","year":2027,"position":"RB","stars":null,"rating_247":89.0,"committed_to":"Notre Dame","lat":28.6305,"lng":-82.4497,"hometown_city":"Bradenton","hometown_state":"FL"},{"name":"Caden Waye","year":2027,"position":"RB","stars":null,"rating_247":89.0,"committed_to":null,"lat":32.6415,"lng":-83.4426,"hometown_city":"McDonough","hometown_state":"GA"},{"name":"Elijah Kimble","year":2027,"position":"RB","stars":null,"rating_247":89.0,"committed_to":null,"lat":42.9538,"lng":-75.5268,"hometown_city":"Buffalo","hometown_state":"NY"},{"name":"Quinterrius Gipson","year":2027,"position":"RB","stars":null,"rating_247":89.0,"committed_to":"Georgia Tech","lat":32.6415,"lng":-83.4426,"hometown_city":"Marietta","hometown_state":"GA"},{"name":"Noah Roberts","year":2027,"position":"RB","stars":null,"rating_247":88.0,"committed_to":"Texas","lat":34.2744,"lng":-111.6602,"hometown_city":"Chandler","hometown_state":"AZ"},{"name":"Tranard Roberts","year":2027,"position":"RB","stars":null,"rating_247":88.0,"committed_to":null,"lat":28.6305,"lng":-82.4497,"hometown_city":"The Villages","hometown_state":"FL"},{"name":"Amir Brown","year":2027,"position":"RB","stars":null,"rating_247":88.0,"committed_to":"Nebraska","lat":35.5557,"lng":-79.3877,"hometown_city":"Rolesville","hometown_state":"NC"},{"name":"Jaxsen Stokes","year":2027,"position":"RB","stars":null,"rating_247":88.0,"committed_to":"California","lat":37.1841,"lng":-119.4696,"hometown_city":"Chatsworth","hometown_state":"CA"},{"name":"Asa Barnes","year":2027,"position":"RB","stars":null,"rating_247":88.0,"committed_to":null,"lat":35.858,"lng":-86.3505,"hometown_city":"Martin","hometown_state":"TN"},{"name":"Kelvin Morrison","year":2027,"position":"RB","stars":null,"rating_247":88.0,"committed_to":"Virginia Tech","lat":40.8781,"lng":-77.7996,"hometown_city":"Hermitage","hometown_state":"PA"},{"name":"Terrance Grant Jr.","year":2027,"position":"RB","stars":null,"rating_247":87.0,"committed_to":"Maryland","lat":39.055,"lng":-76.7909,"hometown_city":"Hyattsville","hometown_state":"MD"},{"name":"Noah Parker","year":2027,"position":"RB","stars":null,"rating_247":87.0,"committed_to":"Georgia","lat":32.6415,"lng":-83.4426,"hometown_city":"Montezuma","hometown_state":"GA"},{"name":"Amos Bradford","year":2027,"position":"RB","stars":null,"rating_247":86.0,"committed_to":"Purdue","lat":28.6305,"lng":-82.4497,"hometown_city":"Hollywood","hometown_state":"FL"},{"name":"Jakoby Dixon","year":2027,"position":"RB","stars":null,"rating_247":86.0,"committed_to":"Oklahoma","lat":31.4757,"lng":-99.3312,"hometown_city":"Brenham","hometown_state":"TX"},{"name":"Caleb Mattison","year":2027,"position":"RB","stars":null,"rating_247":86.0,"committed_to":null,"lat":28.6305,"lng":-82.4497,"hometown_city":"Jacksonville","hometown_state":"FL"},{"name":"Deyon Smith","year":2027,"position":"RB","stars":null,"rating_247":null,"committed_to":null,"lat":38.9101,"lng":-77.0147,"hometown_city":"Washington","hometown_state":"DC"},{"name":"Easton Royal","year":2027,"position":"WR","stars":null,"rating_247":98.0,"committed_to":"Texas","lat":31.0689,"lng":-91.9968,"hometown_city":"New Orleans","hometown_state":"LA"},{"name":"Nick Lennear","year":2027,"position":"WR","stars":null,"rating_247":98.0,"committed_to":"Miami","lat":28.6305,"lng":-82.4497,"hometown_city":"Opa Locka","hometown_state":"FL"},{"name":"Dakota Guerrant","year":2027,"position":"WR","stars":null,"rating_247":98.0,"committed_to":null,"lat":44.3467,"lng":-85.4102,"hometown_city":"Harper Woods","hometown_state":"MI"},{"name":"Jamarin Simmons","year":2027,"position":"WR","stars":null,"rating_247":98.0,"committed_to":"Clemson","lat":28.6305,"lng":-82.4497,"hometown_city":"Tallahassee","hometown_state":"FL"},{"name":"Osani Gayles","year":2027,"position":"WR","stars":null,"rating_247":95.0,"committed_to":null,"lat":28.6305,"lng":-82.4497,"hometown_city":"Bradenton","hometown_state":"FL"},{"name":"Quentin Hale","year":2027,"position":"WR","stars":null,"rating_247":94.0,"committed_to":"Southern California","lat":37.1841,"lng":-119.4696,"hometown_city":"Corona","hometown_state":"CA"},{"name":"Jaden Upshaw","year":2027,"position":"WR","stars":null,"rating_247":94.0,"committed_to":"Texas A&M","lat":32.6415,"lng":-83.4426,"hometown_city":"Leesburg","hometown_state":"GA"},{"name":"Tae Walden Jr.","year":2027,"position":"WR","stars":null,"rating_247":94.0,"committed_to":null,"lat":35.858,"lng":-86.3505,"hometown_city":"Collierville","hometown_state":"TN"},{"name":"Eric McFarland III","year":2027,"position":"WR","stars":null,"rating_247":94.0,"committed_to":null,"lat":28.6305,"lng":-82.4497,"hometown_city":"Bradenton","hometown_state":"FL"},{"name":"Kesean Bowman","year":2027,"position":"WR","stars":null,"rating_247":93.0,"committed_to":"Tennessee","lat":35.858,"lng":-86.3505,"hometown_city":"Brentwood","hometown_state":"TN"},{"name":"Alvin Mosley","year":2027,"position":"WR","stars":null,"rating_247":92.0,"committed_to":null,"lat":31.4757,"lng":-99.3312,"hometown_city":"Rosharon","hometown_state":"TX"},{"name":"Deshawn Hall","year":2027,"position":"WR","stars":null,"rating_247":91.0,"committed_to":null,"lat":32.7794,"lng":-86.8287,"hometown_city":"Prattville","hometown_state":"AL"},{"name":"Briceson Thrower Jr.","year":2027,"position":"WR","stars":null,"rating_247":91.0,"committed_to":"Texas","lat":31.4757,"lng":-99.3312,"hometown_city":"Forney","hometown_state":"TX"},{"name":"Tre Moore","year":2027,"position":"WR","stars":null,"rating_247":90.0,"committed_to":"Washington","lat":31.4757,"lng":-99.3312,"hometown_city":"Pflugerville","hometown_state":"TX"},{"name":"Amare Patterson","year":2027,"position":"WR","stars":null,"rating_247":90.0,"committed_to":null,"lat":33.9169,"lng":-80.8964,"hometown_city":"Bluffton","hometown_state":"SC"},{"name":"Tramond Collins","year":2027,"position":"WR","stars":null,"rating_247":90.0,"committed_to":"Florida","lat":28.6305,"lng":-82.4497,"hometown_city":"Cottondale","hometown_state":"FL"},{"name":"Quentin Burrell","year":2027,"position":"WR","stars":null,"rating_247":90.0,"committed_to":"Michigan","lat":40.0417,"lng":-89.1965,"hometown_city":"Chicago","hometown_state":"IL"},{"name":"Trenton Yancey","year":2027,"position":"WR","stars":null,"rating_247":90.0,"committed_to":"Purdue","lat":31.4757,"lng":-99.3312,"hometown_city":"Duncanville","hometown_state":"TX"},{"name":"Julian Caldwell","year":2027,"position":"WR","stars":null,"rating_247":90.0,"committed_to":"Texas Tech","lat":31.4757,"lng":-99.3312,"hometown_city":"Argyle","hometown_state":"TX"},{"name":"Demare Dezeurn","year":2027,"position":"WR","stars":null,"rating_247":90.0,"committed_to":"California","lat":37.1841,"lng":-119.4696,"hometown_city":"Westlake Village","hometown_state":"CA"},{"name":"Carter Bonner","year":2027,"position":"WR","stars":null,"rating_247":90.0,"committed_to":"West Virginia","lat":39.055,"lng":-76.7909,"hometown_city":"Baltimore","hometown_state":"MD"},{"name":"Ah'Mari Stevens","year":2027,"position":"WR","stars":null,"rating_247":90.0,"committed_to":"Louisiana State","lat":28.6305,"lng":-82.4497,"hometown_city":"Hollywood","hometown_state":"FL"},{"name":"Dontay Tyson","year":2027,"position":"WR","stars":null,"rating_247":90.0,"committed_to":"Washington","lat":34.2744,"lng":-111.6602,"hometown_city":"Peoria","hometown_state":"AZ"},{"name":"Damani Warren","year":2027,"position":"WR","stars":null,"rating_247":89.0,"committed_to":null,"lat":39.3289,"lng":-116.6312,"hometown_city":"Las Vegas","hometown_state":"NV"},{"name":"Trey Haralson","year":2027,"position":"WR","stars":null,"rating_247":89.0,"committed_to":"SMU","lat":31.4757,"lng":-99.3312,"hometown_city":"Tyler","hometown_state":"TX"},{"name":"Iveon Lewis","year":2027,"position":"WR","stars":null,"rating_247":89.0,"committed_to":"Kentucky","lat":37.5215,"lng":-78.8537,"hometown_city":"Richmond","hometown_state":"VA"},{"name":"Jordan Christie","year":2027,"position":"WR","stars":null,"rating_247":89.0,"committed_to":null,"lat":32.6415,"lng":-83.4426,"hometown_city":"Decatur","hometown_state":"GA"},{"name":"Anthony Jennings","year":2027,"position":"WR","stars":null,"rating_247":88.0,"committed_to":"Florida","lat":28.6305,"lng":-82.4497,"hometown_city":"Fort Lauderdale","hometown_state":"FL"},{"name":"Miguel Whitley","year":2027,"position":"WR","stars":null,"rating_247":88.0,"committed_to":"Mississippi","lat":31.0689,"lng":-91.9968,"hometown_city":"New Orleans","hometown_state":"LA"},{"name":"Deshawn Dillon","year":2027,"position":"WR","stars":null,"rating_247":88.0,"committed_to":null,"lat":32.7364,"lng":-89.6678,"hometown_city":"Flowood","hometown_state":"MS"},{"name":"Gavin Honore","year":2027,"position":"WR","stars":null,"rating_247":88.0,"committed_to":null,"lat":39.3289,"lng":-116.6312,"hometown_city":"Las Vegas","hometown_state":"NV"},{"name":"Sheldon Isaac","year":2027,"position":"WR","stars":null,"rating_247":88.0,"committed_to":null,"lat":32.7364,"lng":-89.6678,"hometown_city":"McComb","hometown_state":"MS"},{"name":"Cam Wade","year":2027,"position":"WR","stars":null,"rating_247":88.0,"committed_to":"Virginia Tech","lat":37.5215,"lng":-78.8537,"hometown_city":"Leesburg","hometown_state":"VA"},{"name":"Zerek Sidney","year":2027,"position":"WR","stars":null,"rating_247":87.0,"committed_to":"Washington","lat":34.2744,"lng":-111.6602,"hometown_city":"Goodyear","hometown_state":"AZ"},{"name":"Brock Burrus","year":2027,"position":"WR","stars":null,"rating_247":87.0,"committed_to":null,"lat":32.6415,"lng":-83.4426,"hometown_city":"Marietta","hometown_state":"GA"},{"name":"Antayvious Ellis","year":2027,"position":"WR","stars":null,"rating_247":87.0,"committed_to":"Nebraska","lat":41.5378,"lng":-99.7951,"hometown_city":"Omaha","hometown_state":"NE"},{"name":"Ray'Quan Williams","year":2027,"position":"WR","stars":null,"rating_247":87.0,"committed_to":"Tulane","lat":31.0689,"lng":-91.9968,"hometown_city":"New Orleans","hometown_state":"LA"},{"name":"Carter Davis","year":2027,"position":"WR","stars":null,"rating_247":87.0,"committed_to":"West Virginia","lat":32.7794,"lng":-86.8287,"hometown_city":"Gulf Shores","hometown_state":"AL"},{"name":"Jacorrion Tramble","year":2027,"position":"WR","stars":null,"rating_247":87.0,"committed_to":null,"lat":35.858,"lng":-86.3505,"hometown_city":"Chattanooga","hometown_state":"TN"},{"name":"Eli Ferguson","year":2027,"position":"WR","stars":null,"rating_247":86.0,"committed_to":null,"lat":35.858,"lng":-86.3505,"hometown_city":"Brentwood","hometown_state":"TN"},{"name":"James Bethea","year":2027,"position":"WR","stars":null,"rating_247":86.0,"committed_to":null,"lat":28.6305,"lng":-82.4497,"hometown_city":"Ocala","hometown_state":"FL"},{"name":"Austin Busso","year":2027,"position":"WR","stars":null,"rating_247":86.0,"committed_to":"South Florida","lat":40.1907,"lng":-74.6728,"hometown_city":"Oradell","hometown_state":"NJ"},{"name":"Sean Thompson","year":2027,"position":"WR","stars":null,"rating_247":85.0,"committed_to":null,"lat":28.6305,"lng":-82.4497,"hometown_city":"Miami","hometown_state":"FL"},{"name":"Keyon Standifer","year":2027,"position":"WR","stars":null,"rating_247":85.0,"committed_to":null,"lat":32.6415,"lng":-83.4426,"hometown_city":"Covington","hometown_state":"GA"},{"name":"Chance McPike Jr.","year":2027,"position":"WR","stars":null,"rating_247":null,"committed_to":null,"lat":37.5347,"lng":-85.3021,"hometown_city":"Paducah","hometown_state":"KY"},{"name":"Raymond Liggins","year":2027,"position":"WR","stars":null,"rating_247":null,"committed_to":null,"lat":40.1907,"lng":-74.6728,"hometown_city":"Hightstown","hometown_state":"NJ"},{"name":"Ahmad Hudson","year":2027,"position":"TE","stars":null,"rating_247":98.0,"committed_to":"Louisiana State","lat":31.0689,"lng":-91.9968,"hometown_city":"Ruston","hometown_state":"LA"},{"name":"Jaxon Dollar","year":2027,"position":"TE","stars":null,"rating_247":98.0,"committed_to":"Georgia","lat":35.5557,"lng":-79.3877,"hometown_city":"Denver","hometown_state":"NC"},{"name":"Seneca Driver","year":2027,"position":"TE","stars":null,"rating_247":94.0,"committed_to":"Oklahoma","lat":37.5347,"lng":-85.3021,"hometown_city":"Danville","hometown_state":"KY"},{"name":"Jordan Karhoff","year":2027,"position":"TE","stars":null,"rating_247":93.0,"committed_to":"Virginia Tech","lat":40.2862,"lng":-82.7937,"hometown_city":"Columbus","hometown_state":"OH"},{"name":"Brock Williams","year":2027,"position":"TE","stars":null,"rating_247":93.0,"committed_to":"Texas","lat":40.0417,"lng":-89.1965,"hometown_city":"Libertyville","hometown_state":"IL"},{"name":"Jack Brown","year":2027,"position":"TE","stars":null,"rating_247":92.0,"committed_to":"Missouri","lat":38.3566,"lng":-92.458,"hometown_city":"St. Charles","hometown_state":"MO"},{"name":"Malik Howard","year":2027,"position":"TE","stars":null,"rating_247":90.0,"committed_to":"Tennessee","lat":35.858,"lng":-86.3505,"hometown_city":"Oak Ridge","hometown_state":"TN"},{"name":"Cooper Terwilliger","year":2027,"position":"TE","stars":null,"rating_247":90.0,"committed_to":"Penn State","lat":44.4443,"lng":-100.2263,"hometown_city":"Pierre","hometown_state":"SD"},{"name":"Parker Newman","year":2027,"position":"TE","stars":null,"rating_247":90.0,"committed_to":"Duke","lat":35.858,"lng":-86.3505,"hometown_city":"Sevierville","hometown_state":"TN"},{"name":"Rahzario Edwards","year":2027,"position":"TE","stars":null,"rating_247":90.0,"committed_to":"California","lat":37.1841,"lng":-119.4696,"hometown_city":"Sacramento","hometown_state":"CA"},{"name":"Tommy Douglas","year":2027,"position":"TE","stars":null,"rating_247":89.0,"committed_to":"Florida","lat":40.1907,"lng":-74.6728,"hometown_city":"Princeton","hometown_state":"NJ"},{"name":"Keysan Taylor","year":2027,"position":"TE","stars":null,"rating_247":89.0,"committed_to":"Mississippi","lat":40.0417,"lng":-89.1965,"hometown_city":"Rockford","hometown_state":"IL"},{"name":"Colton Johnson","year":2027,"position":"TE","stars":null,"rating_247":88.0,"committed_to":null,"lat":35.858,"lng":-86.3505,"hometown_city":"Baxter","hometown_state":"TN"},{"name":"Grant Haviland","year":2027,"position":"TE","stars":null,"rating_247":88.0,"committed_to":"Vanderbilt","lat":32.6415,"lng":-83.4426,"hometown_city":"Alpharetta","hometown_state":"GA"},{"name":"Anthony Cartwright","year":2027,"position":"TE","stars":null,"rating_247":88.0,"committed_to":null,"lat":44.3467,"lng":-85.4102,"hometown_city":"Franklin","hometown_state":"MI"},{"name":"Ben Kolar","year":2027,"position":"TE","stars":null,"rating_247":88.0,"committed_to":"Stanford","lat":35.5889,"lng":-97.4943,"hometown_city":"Norman","hometown_state":"OK"},{"name":"Christian Hanshaw","year":2027,"position":"TE","stars":null,"rating_247":88.0,"committed_to":null,"lat":39.321,"lng":-111.0937,"hometown_city":"American Fork","hometown_state":"UT"},{"name":"JT Geraci","year":2027,"position":"TE","stars":null,"rating_247":88.0,"committed_to":"Texas","lat":40.1907,"lng":-74.6728,"hometown_city":"Ramsey","hometown_state":"NJ"},{"name":"Zac Fares","year":2027,"position":"TE","stars":null,"rating_247":88.0,"committed_to":"UCLA","lat":39.3289,"lng":-116.6312,"hometown_city":"Las Vegas","hometown_state":"NV"},{"name":"Holden Niemi","year":2027,"position":"TE","stars":null,"rating_247":87.0,"committed_to":"Texas A&M","lat":44.3467,"lng":-85.4102,"hometown_city":"Dexter","hometown_state":"MI"},{"name":"Jeramie Cooper","year":2027,"position":"TE","stars":null,"rating_247":86.0,"committed_to":null,"lat":31.4757,"lng":-99.3312,"hometown_city":"Fort Worth","hometown_state":"TX"},{"name":"Ismael Camara","year":2027,"position":"OT","stars":null,"rating_247":98.0,"committed_to":null,"lat":31.4757,"lng":-99.3312,"hometown_city":"Gilmer","hometown_state":"TX"},{"name":"Oluwasemilore Olubobola","year":2027,"position":"OT","stars":null,"rating_247":98.0,"committed_to":"Notre Dame","lat":40.1907,"lng":-74.6728,"hometown_city":"Jersey City","hometown_state":"NJ"},