{"2026":[{"name":"DJ Bordeaux","year":2026,"position":"QB","stars":null,"rating_247":87.0,"committed_to":"UCLA","lat":38.9972,"lng":-105.5478,"hometown_city":"Parker","hometown_state":"CO"},{"name":"Tayden-Evan Kaawa","year":2026,"position":"QB","stars":null,"rating_247":86.0,"committed_to":"Alabama","lat":39.321,"lng":-111.0937,"hometown_city":"Orem","hometown_state":"UT"},{"name":"Semaj Beals","year":2026,"position":"QB","stars":3,"rating_247":86.0,"committed_to":"Akron","lat":39.9527237,"lng":-75.1635262,"hometown_city":"Philadelphia","hometown_state":"PA"},{"name":"Kaneal Sweetwyne","year":2026,"position":"QB","stars":3,"rating_247":85.0,"committed_to":"Colorado","lat":40.3880902,"lng":-111.8491619,"hometown_city":"Lehi","hometown_state":"UT"},{"name":"Nelson Peterson Jr.","year":2026,"position":"QB","stars":3,"rating_247":85.0,"committed_to":"Texas Southern","lat":32.747893,"lng":-96.4719289,"hometown_city":"Forney","hometown_state":"TX"},{"name":"Eric Perry","year":2026,"position":"QB","stars":3,"rating_247":85.0,"committed_to":"Memphis","lat":34.9889818,"lng":-90.0125913,"hometown_city":"Southaven","hometown_state":"MS"},{"name":"Kaleb Maryland","year":2026,"position":"QB","stars":3,"rating_247":84.0,"committed_to":"Utah State","lat":29.7589382,"lng":-95.3676974,"hometown_city":"Houston","hometown_state":"TX"},{"name":"Brady Goodman","year":2026,"position":"QB","stars":3,"rating_247":84.0,"committed_to":"Utah State","lat":33.4151117,"lng":-111.8314773,"hometown_city":"Mesa","hometown_state":"AZ"},{"name":"Blitz McCarty","year":2026,"position":"QB","stars":3,"rating_247":83.0,"committed_to":"Idaho","lat":39.729432,"lng":-104.8319196,"hometown_city":"Aurora","hometown_state":"CO"},{"name":"Reeve Slone","year":2026,"position":"QB","stars":3,"rating_247":82.0,"committed_to":"Nevada","lat":38.7907339,"lng":-121.2357828,"hometown_city":"Rocklin","hometown_state":"CA"},{"name":"Jett Taylor","year":2026,"position":"QB","stars":null,"rating_247":null,"committed_to":"Navy","lat":31.4757,"lng":-99.3312,"hometown_city":"Grand Saline","hometown_state":"TX"},{"name":"Devaughn Eka","year":2026,"position":"RB","stars":3,"rating_247":84.0,"committed_to":"BYU","lat":40.3880902,"lng":-111.8491619,"hometown_city":"Lehi","hometown_state":"UT"},{"name":"Jackson Regan","year":2026,"position":"RB","stars":3,"rating_247":82.0,"committed_to":"UTRGV","lat":29.7028266,"lng":-98.1257348,"hometown_city":"New Braunfels","hometown_state":"TX"},{"name":"Junior Curtis","year":2026,"position":"RB","stars":3,"rating_247":81.0,"committed_to":"Utah Tech","lat":32.7174209,"lng":-117.1627714,"hometown_city":"San Diego","hometown_state":"CA"},{"name":"Zion Robinson","year":2026,"position":"WR","stars":4,"rating_247":91.0,"committed_to":"Stanford","lat":32.5631924,"lng":-97.1416768,"hometown_city":"Mansfield","hometown_state":"TX"},{"name":"Rico Blassingame","year":2026,"position":"WR","stars":3,"rating_247":90.0,"committed_to":"Minnesota","lat":33.4500497,"lng":-112.2593093,"hometown_city":"Tolleson","hometown_state":"AZ"},{"name":"Kennan Pula","year":2026,"position":"WR","stars":3,"rating_247":90.0,"committed_to":"BYU","lat":40.3768954,"lng":-111.7957645,"hometown_city":"American Fork","hometown_state":"UT"},{"name":"Tatum Bell Jr.","year":2026,"position":"WR","stars":3,"rating_247":88.0,"committed_to":"Nevada, Las Vegas","lat":33.046233,"lng":-96.994174,"hometown_city":"Lewisville","hometown_state":"TX"},{"name":"Kai Meza","year":2026,"position":"WR","stars":3,"rating_247":88.0,"committed_to":"California","lat":40.5246711,"lng":-111.8638226,"hometown_city":"Draper","hometown_state":"UT"},{"name":"Xavier Green","year":2026,"position":"WR","stars":3,"rating_247":88.0,"committed_to":"Tulsa","lat":33.0890094,"lng":-96.8863922,"hometown_city":"The Colony","hometown_state":"TX"},{"name":"Graham Livingston","year":2026,"position":"WR","stars":3,"rating_247":87.0,"committed_to":"BYU","lat":41.6815987,"lng":-111.8229982,"hometown_city":"Millville","hometown_state":"UT"},{"name":"Troy Foster","year":2026,"position":"WR","stars":3,"rating_247":87.0,"committed_to":"Colorado State","lat":33.6783336,"lng":-118.0000166,"hometown_city":"Huntington Beach","hometown_state":"CA"},{"name":"Hudson Lewis","year":2026,"position":"WR","stars":3,"rating_247":86.0,"committed_to":"Oregon","lat":43.6166163,"lng":-116.200886,"hometown_city":"Boise","hometown_state":"ID"},{"name":"Kaina Watson","year":2026,"position":"WR","stars":3,"rating_247":85.0,"committed_to":"Utah State","lat":36.1672559,"lng":-115.1485163,"hometown_city":"Las Vegas","hometown_state":"NV"},{"name":"Imari Jehiel","year":2026,"position":"WR","stars":3,"rating_247":85.0,"committed_to":"Texas Tech","lat":32.747893,"lng":-96.4719289,"hometown_city":"Forney","hometown_state":"TX"},{"name":"Wyatt Villarreal","year":2026,"position":"WR","stars":3,"rating_247":85.0,"committed_to":"Pittsburgh","lat":33.3238976,"lng":-96.785342,"hometown_city":"Celina","hometown_state":"TX"},{"name":"Major Pride","year":2026,"position":"WR","stars":3,"rating_247":85.0,"committed_to":"UCLA","lat":33.8358492,"lng":-118.3406288,"hometown_city":"Torrance","hometown_state":"CA"},{"name":"Courtney Lewis Jr.","year":2026,"position":"WR","stars":null,"rating_247":84.0,"committed_to":"Tulsa","lat":31.4757,"lng":-99.3312,"hometown_city":"Katy","hometown_state":"TX"},{"name":"Elijah Otieno","year":2026,"position":"WR","stars":3,"rating_247":83.0,"committed_to":"Wake Forest","lat":32.747893,"lng":-96.4719289,"hometown_city":"Forney","hometown_state":"TX"},{"name":"Dezmyn Hardy","year":2026,"position":"WR","stars":3,"rating_247":83.0,"committed_to":"Sacramento State","lat":34.1446643,"lng":-118.6440973,"hometown_city":"Calabasas","hometown_state":"CA"},{"name":"Tripp Palmer","year":2026,"position":"WR","stars":null,"rating_247":83.0,"committed_to":"Utah State","lat":39.321,"lng":-111.0937,"hometown_city":"Blanding","hometown_state":"UT"},{"name":"Preston Jackson","year":2026,"position":"WR","stars":3,"rating_247":82.0,"committed_to":"Rice","lat":32.747893,"lng":-96.4719289,"hometown_city":"Forney","hometown_state":"TX"},{"name":"Isaiah Morris","year":2026,"position":"WR","stars":3,"rating_247":82.0,"committed_to":"Utah Tech","lat":40.5246711,"lng":-111.8638226,"hometown_city":"Draper","hometown_state":"UT"},{"name":"Cade McCall","year":2026,"position":"WR","stars":3,"rating_247":82.0,"committed_to":"Utah State","lat":29.7857853,"lng":-95.8243956,"hometown_city":"Katy","hometown_state":"TX"},{"name":"Gary Hill III","year":2026,"position":"WR","stars":null,"rating_247":null,"committed_to":null,"lat":38.3566,"lng":-92.458,"hometown_city":"Blue Springs","hometown_state":"MO"},{"name":"Ty Goettsche","year":2026,"position":"TE","stars":4,"rating_247":92.0,"committed_to":"BYU","lat":39.6482059,"lng":-104.9879641,"hometown_city":"Englewood","hometown_state":"CO"},{"name":"Keawe Browne","year":2026,"position":"TE","stars":3,"rating_247":88.0,"committed_to":"Boise State","lat":33.8752945,"lng":-117.5664449,"hometown_city":"Corona","hometown_state":"CA"},{"name":"Kai Wesley","year":2026,"position":"TE","stars":3,"rating_247":88.0,"committed_to":"Baylor","lat":40.2971825,"lng":-111.694943,"hometown_city":"Orem","hometown_state":"UT"},{"name":"Jude Nelson","year":2026,"position":"TE","stars":3,"rating_247":87.0,"committed_to":"Utah State","lat":33.7690164,"lng":-118.1916048,"hometown_city":"Long Beach","hometown_state":"CA"},{"name":"Parker Ord","year":2026,"position":"TE","stars":3,"rating_247":87.0,"committed_to":"BYU","lat":33.1506744,"lng":-96.8236116,"hometown_city":"Frisco","hometown_state":"TX"},{"name":"Kade Bush","year":2026,"position":"TE","stars":3,"rating_247":86.0,"committed_to":"West Virginia","lat":44.8618403,"lng":-93.5307207,"hometown_city":"Chanhassen","hometown_state":"MN"},{"name":"Preston McDaniel","year":2026,"position":"TE","stars":3,"rating_247":85.0,"committed_to":"Utah State","lat":43.4935245,"lng":-112.0400919,"hometown_city":"Idaho Falls","hometown_state":"ID"},{"name":"Andreas Diaz-Nicolaidis","year":2026,"position":"TE","stars":3,"rating_247":85.0,"committed_to":"Nevada, Las Vegas","lat":36.1672559,"lng":-115.1485163,"hometown_city":"Las Vegas","hometown_state":"NV"},{"name":"Bear Fisher","year":2026,"position":"TE","stars":3,"rating_247":85.0,"committed_to":"Utah","lat":33.2483858,"lng":-111.6341585,"hometown_city":"Queen Creek","hometown_state":"AZ"},{"name":"Shane Kiley","year":2026,"position":"TE","stars":null,"rating_247":84.0,"committed_to":"San Jose State","lat":37.1841,"lng":-119.4696,"hometown_city":"San Clemente","hometown_state":"CA"},{"name":"Bryton Niu","year":2026,"position":"TE","stars":3,"rating_247":84.0,"committed_to":"Utah Tech","lat":40.3880902,"lng":-111.8491619,"hometown_city":"Lehi","hometown_state":"UT"},{"name":"Ish Muhammad","year":2026,"position":"TE","stars":3,"rating_247":82.0,"committed_to":"Wyoming","lat":32.7762719,"lng":-96.7968559,"hometown_city":"Dallas","hometown_state":"TX"},{"name":"Kelvin Obot","year":2026,"position":"OT","stars":5,"rating_247":97.0,"committed_to":"Utah","lat":44.0076639,"lng":-116.9165461,"hometown_city":"Fruitland","hometown_state":"ID"},{"name":"Daniel McMorris","year":2026,"position":"OT","stars":4,"rating_247":95.0,"committed_to":"California","lat":35.2225717,"lng":-97.4394816,"hometown_city":"Norman","hometown_state":"OK"},{"name":"Mataalii Benjamin","year":2026,"position":"OT","stars":4,"rating_247":92.0,"committed_to":"Utah","lat":40.3880902,"lng":-111.8491619,"hometown_city":"Lehi","hometown_state":"UT"},{"name":"Malachi Joyner","year":2026,"position":"OT","stars":4,"rating_247":91.0,"committed_to":"Arizona","lat":33.3527632,"lng":-111.7890373,"hometown_city":"Gilbert","hometown_state":"AZ"},{"name":"Collin Campbell","year":2026,"position":"OT","stars":4,"rating_247":90.0,"committed_to":"Michigan State","lat":33.3527632,"lng":-111.7890373,"hometown_city":"Gilbert","hometown_state":"AZ"},{"name":"Buddy Wegdam","year":2026,"position":"OT","stars":3,"rating_247":88.0,"committed_to":"Virginia Tech","lat":35.1668118,"lng":-80.7514585,"hometown_city":"Woodberry Forest","hometown_state":"VA"},{"name":"Aaron Thomas","year":2026,"position":"OT","stars":3,"rating_247":88.0,"committed_to":"Minnesota","lat":33.4484367,"lng":-112.0741417,"hometown_city":"Phoenix","hometown_state":"AZ"},{"name":"TJ Taylor","year":2026,"position":"OT","stars":null,"rating_247":88.0,"committed_to":"Illinois","lat":37.1841,"lng":-119.4696,"hometown_city":"Valencia","hometown_state":"CA"},{"name":"Quinn Buckey","year":2026,"position":"OT","stars":3,"rating_247":87.0,"committed_to":"UCLA","lat":35.3738712,"lng":-119.0194639,"hometown_city":"Bakersfield","hometown_state":"CA"},{"name":"Tripp Skewes","year":2026,"position":"OT","stars":3,"rating_247":87.0,"committed_to":"Vanderbilt","lat":39.6482059,"lng":-104.9879641,"hometown_city":"Englewood","hometown_state":"CO"},{"name":"Chase Deniz","year":2026,"position":"OT","stars":3,"rating_247":86.0,"committed_to":"Southern California","lat":32.7174209,"lng":-117.1627714,"hometown_city":"San Diego","hometown_state":"CA"},{"name":"Siosaia Lapuaho","year":2026,"position":"OT","stars":null,"rating_247":86.0,"committed_to":"Arizona State","lat":38.4937,"lng":-98.3804,"hometown_city":"Garden City","hometown_state":"KS"},{"name":"Sekope Wallace","year":2026,"position":"OT","stars":null,"rating_247":86.0,"committed_to":"Texas-San Antonio","lat":39.321,"lng":-111.0937,"hometown_city":"Ephraim","hometown_state":"UT"},{"name":"Hakeim Smalls","year":2026,"position":"OT","stars":3,"rating_247":85.0,"committed_to":"Boise State","lat":47.9673056,"lng":-122.2013998,"hometown_city":"Everett","hometown_state":"WA"},{"name":"Jesus Garcia II","year":2026,"position":"OT","stars":null,"rating_247":85.0,"committed_to":"Nevada, Las Vegas","lat":37.1841,"lng":-119.4696,"hometown_city":"San Diego","hometown_state":"CA"},{"name":"Luke Baker","year":2026,"position":"OT","stars":3,"rating_247":85.0,"committed_to":"Utah State","lat":41.7313447,"lng":-111.8348631,"hometown_city":"Logan","hometown_state":"UT"},{"name":"Matekitonga Havea","year":2026,"position":"OT","stars":3,"rating_247":83.0,"committed_to":"Utah State","lat":40.3880902,"lng":-111.8491619,"hometown_city":"Lehi","hometown_state":"UT"},{"name":"Lucas Neidig","year":2026,"position":"OT","stars":null,"rating_247":83.0,"committed_to":"Utah State","lat":39.321,"lng":-111.0937,"hometown_city":"South Jordan","hometown_state":"UT"},{"name":"Omar Kaba","year":2026,"position":"OT","stars":3,"rating_247":82.0,"committed_to":"Idaho","lat":33.3527632,"lng":-111.7890373,"hometown_city":"Gilbert","hometown_state":"AZ"},{"name":"Jacob McRae","year":2026,"position":"OT","stars":3,"rating_247":81.0,"committed_to":"Louisiana Tech","lat":33.1031744,"lng":-96.6705503,"hometown_city":"Allen","hometown_state":"TX"},{"name":"Esun Tafa","year":2026,"position":"IOL","stars":4,"rating_247":94.0,"committed_to":"Southern California","lat":40.5246711,"lng":-111.8638226,"hometown_city":"Draper","hometown_state":"UT"},{"name":"Jax Tanner","year":2026,"position":"IOL","stars":4,"rating_247":89.0,"committed_to":"BYU","lat":43.6086295,"lng":-116.392326,"hometown_city":"Meridian","hometown_state":"ID"},{"name":"Toa Katoa","year":2026,"position":"IOL","stars":null,"rating_247":86.0,"committed_to":"SMU","lat":31.4757,"lng":-99.3312,"hometown_city":"Euless","hometown_state":"TX"},{"name":"Eli Rickell","year":2026,"position":"IOL","stars":3,"rating_247":86.0,"committed_to":null,"lat":33.9412127,"lng":-84.2135309,"hometown_city":"Norcross","hometown_state":"GA"},{"name":"Nathan Allen","year":2026,"position":"IOL","stars":3,"rating_247":85.0,"committed_to":"Arizona","lat":33.1580933,"lng":-117.3505966,"hometown_city":"Carlsbad","hometown_state":"CA"},{"name":"Derek Worden","year":2026,"position":"IOL","stars":3,"rating_247":85.0,"committed_to":"Iowa State","lat":33.2483858,"lng":-111.6341585,"hometown_city":"Queen Creek","hometown_state":"AZ"},{"name":"Easton Hammond","year":2026,"position":"IOL","stars":3,"rating_247":84.0,"committed_to":"Utah State","lat":41.6815987,"lng":-111.8229982,"hometown_city":"Millville","hometown_state":"UT"},{"name":"Chantz Chargualaf","year":2026,"position":"IOL","stars":3,"rating_247":82.0,"committed_to":"Utah State","lat":21.315603,"lng":-158.008804,"hometown_city":"Ewa Beach","hometown_state":"HI"},{"name":"Roderick Williams, Jr.","year":2026,"position":"IOL","stars":null,"rating_247":null,"committed_to":null,"lat":34.8938,"lng":-92.4426,"hometown_city":"Cherry Valley","hometown_state":"AR"},{"name":"Viliami Tapa'atoutai","year":2026,"position":"Edge","stars":3,"rating_247":86.0,"committed_to":"Utah State","lat":40.8716964,"lng":-111.8925775,"hometown_city":"Woods Cross","hometown_state":"UT"},{"name":"Noah Tishendorf","year":2026,"position":"Edge","stars":3,"rating_247":86.0,"committed_to":"West Virginia","lat":45.4206749,"lng":-122.6706498,"hometown_city":"Lake Oswego","hometown_state":"OR"},{"name":"Ifo Pili Jr.","year":2026,"position":"Edge","stars":3,"rating_247":85.0,"committed_to":"Utah State","lat":40.7596198,"lng":-111.8867975,"hometown_city":"Salt Lake City","hometown_state":"UT"},{"name":"Sinei Tengei","year":2026,"position":"Edge","stars":3,"rating_247":85.0,"committed_to":"Arizona State","lat":33.4151117,"lng":-111.8314773,"hometown_city":"Mesa","hometown_state":"AZ"},{"name":"Harvie Moeai","year":2026,"position":"Edge","stars":3,"rating_247":84.0,"committed_to":"Arizona","lat":40.3880902,"lng":-111.8491619,"hometown_city":"Lehi","hometown_state":"UT"},{"name":"Quincy Tchikou","year":2026,"position":"Edge","stars":3,"rating_247":83.0,"committed_to":"Rice","lat":29.9691116,"lng":-95.6971686,"hometown_city":"Cypress","hometown_state":"TX"},{"name":"Cooper Willoughby","year":2026,"position":"Edge","stars":3,"rating_247":83.0,"committed_to":"Fresno State","lat":40.8894611,"lng":-111.8804817,"hometown_city":"Bountiful","hometown_state":"UT"},{"name":"Cole Albrecht","year":2026,"position":"Edge","stars":3,"rating_247":82.0,"committed_to":"Nevada, Las Vegas","lat":40.5664878,"lng":-111.838904,"hometown_city":"Sandy","hometown_state":"UT"},{"name":"Khalid Feliz","year":2026,"position":"Edge","stars":3,"rating_247":82.0,"committed_to":"Georgia State","lat":28.5421109,"lng":-81.3790304,"hometown_city":"Orlando","hometown_state":"FL"},{"name":"Alex Brannigan","year":2026,"position":"Edge","stars":null,"rating_247":null,"committed_to":null,"lat":39.321,"lng":-111.0937,"hometown_city":"Park City","hometown_state":"UT"},{"name":"Viliami Moala","year":2026,"position":"DL","stars":3,"rating_247":88.0,"committed_to":"North Carolina","lat":33.2442813,"lng":-86.8163773,"hometown_city":"Alabaster","hometown_state":"AL"},{"name":"Ben Duncum","year":2026,"position":"DL","stars":3,"rating_247":87.0,"committed_to":"Kentucky","lat":30.2711286,"lng":-97.7436995,"hometown_city":"Austin","hometown_state":"TX"},{"name":"Jarvis Spires","year":2026,"position":"DL","stars":3,"rating_247":85.0,"committed_to":null,"lat":29.9691116,"lng":-95.6971686,"hometown_city":"Cypress","hometown_state":"TX"},{"name":"Rowan Rupp","year":2026,"position":"DL","stars":3,"rating_247":85.0,"committed_to":"Boise State","lat":43.6086295,"lng":-116.392326,"hometown_city":"Meridian","hometown_state":"ID"},{"name":"Trent Mapp","year":2026,"position":"DL","stars":null,"rating_247":85.0,"committed_to":"Arkansas State","lat":32.6415,"lng":-83.4426,"hometown_city":"Milledgeville","hometown_state":"GA"},{"name":"Xavier Waters","year":2026,"position":"DL","stars":3,"rating_247":84.0,"committed_to":"Louisiana","lat":29.7589382,"lng":-95.3676974,"hometown_city":"Houston","hometown_state":"TX"},{"name":"Poe Purcell","year":2026,"position":"DL","stars":3,"rating_247":84.0,"committed_to":"Nevada, Las Vegas","lat":36.1672559,"lng":-115.1485163,"hometown_city":"Las Vegas","hometown_state":"NV"},{"name":"Jussiah Ali","year":2026,"position":"DL","stars":null,"rating_247":84.0,"committed_to":"Texas State","lat":31.4757,"lng":-99.3312,"hometown_city":"Athens","hometown_state":"TX"},{"name":"Jeremiah Nonu","year":2026,"position":"DL","stars":3,"rating_247":83.0,"committed_to":"Nevada","lat":47.6038321,"lng":-122.3300624,"hometown_city":"Seattle","hometown_state":"WA"},{"name":"Jesse King","year":2026,"position":"DL","stars":3,"rating_247":83.0,"committed_to":"Utah State","lat":40.2971825,"lng":-111.694943,"hometown_city":"Orem","hometown_state":"UT"},{"name":"Tiki Bell","year":2026,"position":"DL","stars":3,"rating_247":82.0,"committed_to":"Utah State","lat":38.8051095,"lng":-77.0470229,"hometown_city":"Alexandria","hometown_state":"VA"},{"name":"Adam Bywater","year":2026,"position":"LB","stars":3,"rating_247":94.0,"committed_to":"BYU","lat":40.7596198,"lng":-111.8867975,"hometown_city":"Salt Lake City","hometown_state":"UT"},{"name":"Braylon Hodge","year":2026,"position":"LB","stars":4,"rating_247":91.0,"committed_to":"Oregon","lat":39.6482059,"lng":-104.9879641,"hometown_city":"Englewood","hometown_state":"CO"},{"name":"Jeremiah Brown","year":2026,"position":"LB","stars":3,"rating_247":87.0,"committed_to":"Oregon State","lat":33.7839664,"lng":-116.9589086,"hometown_city":"San Jacinto","hometown_state":"CA"},{"name":"Brody Flores","year":2026,"position":"LB","stars":3,"rating_247":86.0,"committed_to":"Utah State","lat":39.729432,"lng":-104.8319196,"hometown_city":"Aurora","hometown_state":"CO"},{"name":"Colby Johnson","year":2026,"position":"LB","stars":3,"rating_247":86.0,"committed_to":"Colorado","lat":47.6088445,"lng":-122.0423067,"hometown_city":"Sammamish","hometown_state":"WA"},{"name":"Rocky Dunn","year":2026,"position":"LB","stars":3,"rating_247":85.0,"committed_to":"Boise State","lat":33.2860549,"lng":-96.5725952,"hometown_city":"Melissa","hometown_state":"TX"},{"name":"John McClellan","year":2026,"position":"LB","stars":3,"rating_247":85.0,"committed_to":"Utah State","lat":38.3396367,"lng":-122.7010984,"hometown_city":"Rohnert Park","hometown_state":"CA"},{"name":"Tayson Reid","year":2026,"position":"LB","stars":null,"rating_247":85.0,"committed_to":"Utah","lat":39.321,"lng":-111.0937,"hometown_city":"Ephraim","hometown_state":"UT"},{"name":"Ayden Combs","year":2026,"position":"LB","stars":3,"rating_247":84.0,"committed_to":"Louisiana Tech","lat":29.9691116,"lng":-95.6971686,"hometown_city":"Cypress","hometown_state":"TX"},{"name":"Raderrion Daniels","year":2026,"position":"CB","stars":3,"rating_247":87.0,"committed_to":"Purdue","lat":34.9042635,"lng":-90.2145395,"hometown_city":"Lake Cormorant","hometown_state":"MS"},{"name":"Isaiah McMillian","year":2026,"position":"CB","stars":3,"rating_247":87.0,"committed_to":"Kentucky","lat":29.7857853,"lng":-95.8243956,"hometown_city":"Katy","hometown_state":"TX"},{"name":"Kris Brunson","year":2026,"position":"CB","stars":3,"rating_247":86.0,"committed_to":"Louisville","lat":33.857328,"lng":-84.0199108,"hometown_city":"Snellville","hometown_state":"GA"},{"name":"Dontae Dyson","year":2026,"position":"CB","stars":3,"rating_247":86.0,"committed_to":"Utah State","lat":41.0751048,"lng":-111.9741925,"hometown_city":"Layton","hometown_state":"UT"},{"name":"O'Shea Jackson-Webb","year":2026,"position":"CB","stars":3,"rating_247":86.0,"committed_to":"Utah State","lat":36.8252277,"lng":-119.7029194,"hometown_city":"Clovis","hometown_state":"CA"},{"name":"Davin Hill","year":2026,"position":"CB","stars":null,"rating_247":86.0,"committed_to":"Boise State","lat":31.4757,"lng":-99.3312,"hometown_city":"Arlington","hometown_state":"TX"},{"name":"Major Hinchen","year":2026,"position":"CB","stars":3,"rating_247":86.0,"committed_to":"Utah","lat":33.66365425,"lng":-116.27770251129584,"hometown_city":"La Quinta","hometown_state":"CA"},{"name":"Brandon Ford","year":2026,"position":"CB","stars":3,"rating_247":85.0,"committed_to":"Arkansas","lat":32.5782835,"lng":-97.3609829,"hometown_city":"Crowley","hometown_state":"TX"},{"name":"Marrel Davis III","year":2026,"position":"CB","stars":null,"rating_247":83.0,"committed_to":"Oklahoma State","lat":31.4757,"lng":-99.3312,"hometown_city":"Humble","hometown_state":"TX"},{"name":"Michael Knight","year":2026,"position":"CB","stars":3,"rating_247":83.0,"committed_to":"Coastal Carolina","lat":33.4473361,"lng":-84.1468616,"hometown_city":"McDonough","hometown_state":"GA"},{"name":"Israel Nabors","year":2026,"position":"CB","stars":3,"rating_247":82.0,"committed_to":"Eastern Washington","lat":47.22131,"lng":-122.2326539,"hometown_city":"Sumner","hometown_state":"WA"},{"name":"Damyon Pearson","year":2026,"position":"CB","stars":3,"rating_247":82.0,"committed_to":"Western Kentucky","lat":33.857328,"lng":-84.0199108,"hometown_city":"Snellville","hometown_state":"GA"},{"name":"Evin McDowell","year":2026,"position":"CB","stars":null,"rating_247":null,"committed_to":null,"lat":32.6415,"lng":-83.4426,"hometown_city":"Snellville","hometown_state":"GA"},{"name":"Gavin Day","year":2026,"position":"S","stars":4,"rating_247":95.0,"committed_to":"Washington","lat":36.1672559,"lng":-115.1485163,"hometown_city":"Las Vegas","hometown_state":"NV"},{"name":"Aisa Galea'i","year":2026,"position":"S","stars":3,"rating_247":89.0,"committed_to":"Utah","lat":40.2971825,"lng":-111.694943,"hometown_city":"Orem","hometown_state":"UT"},{"name":"Markell Taylor","year":2026,"position":"S","stars":3,"rating_247":88.0,"committed_to":"Cincinnati","lat":33.9237141,"lng":-84.8407732,"hometown_city":"Dallas","hometown_state":"GA"},{"name":"Matthew Mason","year":2026,"position":"S","stars":3,"rating_247":87.0,"committed_to":"BYU","lat":36.1672559,"lng":-115.1485163,"hometown_city":"Las Vegas","hometown_state":"NV"},{"name":"Archie Chambers","year":2026,"position":"S","stars":null,"rating_247":87.0,"committed_to":"Texas-San Antonio","lat":32.7364,"lng":-89.6678,"hometown_city":"Wesson","hometown_state":"MS"},{"name":"Austin Engroff","year":2026,"position":"S","stars":null,"rating_247":null,"committed_to":"Southern California","lat":44.3509,"lng":-114.613,"hometown_city":"Boise","hometown_state":"ID"},{"name":"Jaden Rodgers","year":2026,"position":"S","stars":null,"rating_247":null,"committed_to":"Idaho State","lat":34.2744,"lng":-111.6602,"hometown_city":"Coronado Ntl Forest","hometown_state":"AZ"},{"name":"Jaron Pula","year":2026,"position":"ATH","stars":4,"rating_247":91.0,"committed_to":"BYU","lat":40.3768954,"lng":-111.7957645,"hometown_city":"American Fork","hometown_state":"UT"},{"name":"Kaue Akana","year":2026,"position":"ATH","stars":3,"rating_247":87.0,"committed_to":"BYU","lat":40.2971825,"lng":-111.694943,"hometown_city":"Orem","hometown_state":"UT"},{"name":"Jalen Ford","year":2026,"position":"ATH","stars":3,"rating_247":87.0,"committed_to":"Utah Tech","lat":35.3738712,"lng":-119.0194639,"hometown_city":"Bakersfield","hometown_state":"CA"},{"name":"Legend Glasker","year":2026,"position":"ATH","stars":3,"rating_247":87.0,"committed_to":"BYU","lat":40.3880902,"lng":-111.8491619,"hometown_city":"Lehi","hometown_state":"UT"},{"name":"Matthew McClain","year":2026,"position":"ATH","stars":3,"rating_247":86.0,"committed_to":"Iowa State","lat":33.1506744,"lng":-96.8236116,"hometown_city":"Frisco","hometown_state":"TX"},{"name":"Sefanaia Alatini","year":2026,"position":"ATH","stars":3,"rating_247":86.0,"committed_to":"BYU","lat":37.3893889,"lng":-122.0832101,"hometown_city":"Mountain View","hometown_state":"CA"},{"name":"Jacob Swain","year":2026,"position":"ATH","stars":null,"rating_247":84.0,"committed_to":"Colorado","lat":31.4757,"lng":-99.3312,"hometown_city":"Melissa","hometown_state":"TX"},{"name":"Cammeron Purnell","year":2026,"position":"ATH","stars":3,"rating_247":84.0,"committed_to":"San Diego State","lat":32.7174209,"lng":-117.1627714,"hometown_city":"San Diego","hometown_state":"CA"},{"name":"Jack Tuenge","year":2026,"position":"ATH","stars":3,"rating_247":83.0,"committed_to":"Harvard","lat":45.5202471,"lng":-122.6741949,"hometown_city":"Portland","hometown_state":"OR"},{"name":"Isaiah Nickels","year":2026,"position":"ATH","stars":3,"rating_247":82.0,"committed_to":"Hawaii","lat":36.1672559,"lng":-115.1485163,"hometown_city":"Las Vegas","hometown_state":"NV"},{"name":"Landon Kalsbeck","year":2026,"position":"ATH","stars":3,"rating_247":82.0,"committed_to":"Iowa State","lat":39.613321,"lng":-105.0166498,"hometown_city":"Littleton","hometown_state":"CO"},{"name":"Jaleal Allen","year":2026,"position":"ATH","stars":null,"rating_247":null,"committed_to":"Houston Christian","lat":31.4757,"lng":-99.3312,"hometown_city":"Crowley","hometown_state":"TX"},{"name":"Joaquin Rodriguez","year":2026,"position":"ATH","stars":null,"rating_247":null,"committed_to":null,"lat":39.321,"lng":-111.0937,"hometown_city":"Draper","hometown_state":"UT"}],"2027":[{"name":"Kamden Lopati","year":2027,"position":"QB","stars":null,"rating_247":89.0,"committed_to":"Michigan","lat":39.321,"lng":-111.0937,"hometown_city":"Salt Lake City","hometown_state":"UT"},{"name":"Kael Snyder","year":2027,"position":"QB","stars":null,"rating_247":87.0,"committed_to":"Boise State","lat":34.2744,"lng":-111.6602,"hometown_city":"Gilbert","hometown_state":"AZ"},{"name":"Ryan Harrington","year":2027,"position":"QB","stars":null,"rating_247":83.0,"committed_to":"Washington State","lat":47.3826,"lng":-120.4472,"hometown_city":"Anacortes","hometown_state":"WA"},{"name":"Joshua Douthard","year":2027,"position":"WR","stars":null,"rating_247":87.0,"committed_to":null,"lat":32.7794,"lng":-86.8287,"hometown_city":"Odenville","hometown_state":"AL"},{"name":"Gianni Haynes","year":2027,"position":"WR","stars":null,"rating_247":87.0,"committed_to":null,"lat":37.1841,"lng":-119.4696,"hometown_city":"Los Angeles","hometown_state":"CA"},{"name":"Gunnar Larsen","year":2027,"position":"WR","stars":null,"rating_247":87.0,"committed_to":null,"lat":47.0527,"lng":-109.6333,"hometown_city":"Billings","hometown_state":"MT"},{"name":"Isaac Cook","year":2027,"position":"WR","stars":null,"rating_247":86.0,"committed_to":"San Diego State","lat":37.1841,"lng":-119.4696,"hometown_city":"San Diego","hometown_state":"CA"},{"name":"Ayden Payne","year":2027,"position":"WR","stars":null,"rating_247":86.0,"committed_to":"San Diego State","lat":37.1841,"lng":-119.4696,"hometown_city":"Anaheim","hometown_state":"CA"},{"name":"Landon White","year":2027,"position":"WR","stars":null,"rating_247":84.0,"committed_to":"Oregon State","lat":37.1841,"lng":-119.4696,"hometown_city":"Rancho Cucamonga","hometown_state":"CA"},{"name":"Maxwell Nichols","year":2027,"position":"WR","stars":null,"rating_247":null,"committed_to":null,"lat":31.4757,"lng":-99.3312,"hometown_city":"Arlington","hometown_state":"TX"},{"name":"Landon Wolny","year":2027,"position":"TE","stars":null,"rating_247":84.0,"committed_to":null,"lat":28.6305,"lng":-82.4497,"hometown_city":"Naples","hometown_state":"FL"},{"name":"Braylen Ross","year":2027,"position":"TE","stars":null,"rating_247":84.0,"committed_to":"Arizona","lat":37.1841,"lng":-119.4696,"hometown_city":"Irvine","hometown_state":"CA"},{"name":"Mason Joshua","year":2027,"position":"OT","stars":null,"rating_247":89.0,"committed_to":null,"lat":31.4757,"lng":-99.3312,"hometown_city":"Forney","hometown_state":"TX"},{"name":"Amaziah Siale","year":2027,"position":"OT","stars":null,"rating_247":89.0,"committed_to":"California","lat":37.1841,"lng":-119.4696,"hometown_city":"Mission Viejo","hometown_state":"CA"},{"name":"Sean Scott","year":2027,"position":"OT","stars":null,"rating_247":null,"committed_to":null,"lat":37.1841,"lng":-119.4696,"hometown_city":"Valencia","hometown_state":"CA"},{"name":"Dakota Calverley","year":2027,"position":"OT","stars":null,"rating_247":null,"committed_to":"Utah State","lat":39.321,"lng":-111.0937,"hometown_city":"Logan","hometown_state":"UT"},{"name":"Isaac Coughran","year":2027,"position":"IOL","stars":null,"rating_247":88.0,"committed_to":"Oklahoma","lat":31.4757,"lng":-99.3312,"hometown_city":"Katy","hometown_state":"TX"},{"name":"Johnny Fortune","year":2027,"position":"IOL","stars":null,"rating_247":85.0,"committed_to":"San Diego State","lat":37.1841,"lng":-119.4696,"hometown_city":"Rancho Cucamonga","hometown_state":"CA"},{"name":"Jackson Koeppel","year":2027,"position":"IOL","stars":null,"rating_247":null,"committed_to":"Rice","lat":31.4757,"lng":-99.3312,"hometown_city":"Austin","hometown_state":"TX"},{"name":"Uhila Wolfgramm","year":2027,"position":"Edge","stars":null,"rating_247":93.0,"committed_to":null,"lat":39.321,"lng":-111.0937,"hometown_city":"Spanish Fork","hometown_state":"UT"},{"name":"Manase Brown","year":2027,"position":"Edge","stars":null,"rating_247":89.0,"committed_to":null,"lat":39.321,"lng":-111.0937,"hometown_city":"Draper","hometown_state":"UT"},{"name":"Godschoice Eboigbodin","year":2027,"position":"Edge","stars":null,"rating_247":89.0,"committed_to":"UCLA","lat":37.1841,"lng":-119.4696,"hometown_city":"San Juan Capistrano","hometown_state":"CA"},{"name":"Alexander Coey","year":2027,"position":"Edge","stars":null,"rating_247":87.0,"committed_to":null,"lat":31.4757,"lng":-99.3312,"hometown_city":"Conroe","hometown_state":"TX"},{"name":"Jeron Allen II","year":2027,"position":"Edge","stars":null,"rating_247":86.0,"committed_to":null,"lat":31.4757,"lng":-99.3312,"hometown_city":"Cedar Hill","hometown_state":"TX"},{"name":"Ma'atoe Moe","year":2027,"position":"Edge","stars":null,"rating_247":86.0,"committed_to":"Nebraska","lat":39.321,"lng":-111.0937,"hometown_city":"Provo","hometown_state":"UT"},{"name":"Jag Ioane","year":2027,"position":"Edge","stars":null,"rating_247":85.0,"committed_to":null,"lat":39.321,"lng":-111.0937,"hometown_city":"Orem","hometown_state":"UT"},{"name":"Dieter Lotulelei","year":2027,"position":"Edge","stars":null,"rating_247":84.0,"committed_to":null,"lat":39.321,"lng":-111.0937,"hometown_city":"Salt Lake City","hometown_state":"UT"},{"name":"Kemper Castro","year":2027,"position":"Edge","stars":null,"rating_247":84.0,"committed_to":"San Diego State","lat":39.321,"lng":-111.0937,"hometown_city":"Herriman","hometown_state":"UT"},{"name":"Tautai Meredith","year":2027,"position":"Edge","stars":null,"rating_247":null,"committed_to":"Washington State","lat":39.321,"lng":-111.0937,"hometown_city":"Lehi","hometown_state":"UT"},{"name":"Monson Tukuafu","year":2027,"position":"Edge","stars":null,"rating_247":null,"committed_to":null,"lat":39.321,"lng":-111.0937,"hometown_city":"South Jordan","hometown_state":"UT"},{"name":"George Toia","year":2027,"position":"DL","stars":null,"rating_247":90.0,"committed_to":"UCLA","lat":31.4757,"lng":-99.3312,"hometown_city":"Trophy Club","hometown_state":"TX"},{"name":"Finn Walker","year":2027,"position":"DL","stars":null,"rating_247":88.0,"committed_to":null,"lat":31.4757,"lng":-99.3312,"hometown_city":"Conroe","hometown_state":"TX"},{"name":"Maa'imoa Havili","year":2027,"position":"DL","stars":null,"rating_247":87.0,"committed_to":"BYU","lat":39.321,"lng":-111.0937,"hometown_city":"Salt Lake City","hometown_state":"UT"},{"name":"Aniti Paiva","year":2027,"position":"DL","stars":null,"rating_247":87.0,"committed_to":"Penn State","lat":39.321,"lng":-111.0937,"hometown_city":"Salt Lake City","hometown_state":"UT"},{"name":"Tiki Teeples","year":2027,"position":"DL","stars":null,"rating_247":86.0,"committed_to":"Utah","lat":34.2744,"lng":-111.6602,"hometown_city":"Waddell","hometown_state":"AZ"},{"name":"Ilivai Taiese","year":2027,"position":"DL","stars":null,"rating_247":null,"committed_to":null,"lat":39.321,"lng":-111.0937,"hometown_city":"Salt Lake City","hometown_state":"UT"},{"name":"Aroson Randle Jr.","year":2027,"position":"LB","stars":null,"rating_247":94.0,"committed_to":"Miami","lat":35.5557,"lng":-79.3877,"hometown_city":"Garner","hometown_state":"NC"},{"name":"Braylon Williams","year":2027,"position":"LB","stars":null,"rating_247":88.0,"committed_to":"SMU","lat":31.4757,"lng":-99.3312,"hometown_city":"Arlington","hometown_state":"TX"},{"name":"Brayden Hanks","year":2027,"position":"LB","stars":null,"rating_247":null,"committed_to":"Utah State","lat":42.0751,"lng":-93.496,"hometown_city":"Cedar Falls","hometown_state":"IA"},{"name":"Michael Pulalasi","year":2027,"position":"LB","stars":null,"rating_247":null,"committed_to":"Eastern Washington","lat":47.3826,"lng":-120.4472,"hometown_city":"Puyallup","hometown_state":"WA"},{"name":"Samuel Weary","year":2027,"position":"LB","stars":null,"rating_247":null,"committed_to":null,"lat":31.4757,"lng":-99.3312,"hometown_city":"Manvel","hometown_state":"TX"},{"name":"Bryce Woods","year":2027,"position":"CB","stars":null,"rating_247":88.0,"committed_to":"Virginia Tech","lat":32.6415,"lng":-83.4426,"hometown_city":"College Park","hometown_state":"GA"},{"name":"Jernaro Gilford Jr.","year":2027,"position":"CB","stars":null,"rating_247":88.0,"committed_to":null,"lat":39.321,"lng":-111.0937,"hometown_city":"Lehi","hometown_state":"UT"},{"name":"Jaden Walk-Green","year":2027,"position":"CB","stars":null,"rating_247":88.0,"committed_to":null,"lat":37.1841,"lng":-119.4696,"hometown_city":"Corona","hometown_state":"CA"},{"name":"John Catlin IV","year":2027,"position":"CB","stars":null,"rating_247":87.0,"committed_to":null,"lat":31.4757,"lng":-99.3312,"hometown_city":"Denton","hometown_state":"TX"},{"name":"Logan Davis","year":2027,"position":"CB","stars":null,"rating_247":87.0,"committed_to":"Kansas State","lat":31.4757,"lng":-99.3312,"hometown_city":"Missouri City","hometown_state":"TX"},{"name":"Sa Rex","year":2027,"position":"CB","stars":null,"rating_247":86.0,"committed_to":null,"lat":37.5215,"lng":-78.8537,"hometown_city":"Richmond","hometown_state":"VA"},{"name":"Jacquari Parks","year":2027,"position":"CB","stars":null,"rating_247":86.0,"committed_to":null,"lat":28.6305,"lng":-82.4497,"hometown_city":"Jacksonville","hometown_state":"FL"},{"name":"Logan Debose","year":2027,"position":"CB","stars":null,"rating_247":86.0,"committed_to":"Houston","lat":31.4757,"lng":-99.3312,"hometown_city":"Houston","hometown_state":"TX"},{"name":"Nathaniel Mensah","year":2027,"position":"CB","stars":null,"rating_247":86.0,"committed_to":null,"lat":37.1841,"lng":-119.4696,"hometown_city":"Rancho Cucamonga","hometown_state":"CA"},{"name":"Nasim Eason","year":2027,"position":"CB","stars":null,"rating_247":85.0,"committed_to":"San Diego State","lat":34.2744,"lng":-111.6602,"hometown_city":"Gilbert","hometown_state":"AZ"},{"name":"Jamel Griffin","year":2027,"position":"CB","stars":null,"rating_247":85.0,"committed_to":"Syracuse","lat":32.7794,"lng":-86.8287,"hometown_city":"Opelika","hometown_state":"AL"},{"name":"Azavier McDaniel","year":2027,"position":"CB","stars":null,"rating_247":84.0,"committed_to":null,"lat":39.3289,"lng":-116.6312,"hometown_city":"Las Vegas","hometown_state":"NV"},{"name":"Demarcus Mathes","year":2027,"position":"CB","stars":null,"rating_247":null,"committed_to":"Air Force","lat":31.4757,"lng":-99.3312,"hometown_city":"Wylie","hometown_state":"TX"},{"name":"Hassan Smith","year":2027,"position":"CB","stars":null,"rating_247":null,"committed_to":"Boise State","lat":34.2744,"lng":-111.6602,"hometown_city":"Scottsdale","hometown_state":"AZ"},{"name":"Caryell Brown","year":2027,"position":"CB","stars":null,"rating_247":null,"committed_to":null,"lat":31.4757,"lng":-99.3312,"hometown_city":"Arlington","hometown_state":"TX"},{"name":"Jordan White","year":2027,"position":"CB","stars":null,"rating_247":null,"committed_to":null,"lat":31.4757,"lng":-99.3312,"hometown_city":"The Woodlands","hometown_state":"TX"},{"name":"Kevin Grant","year":2027,"position":"S","stars":null,"rating_247":89.0,"committed_to":null,"lat":31.4757,"lng":-99.3312,"hometown_city":"Arlington","hometown_state":"TX"},{"name":"Chayce Davis","year":2027,"position":"S","stars":null,"rating_247":87.0,"committed_to":null,"lat":31.4757,"lng":-99.3312,"hometown_city":"Euless","hometown_state":"TX"},{"name":"Kye Cooper","year":2027,"position":"S","stars":null,"rating_247":85.0,"committed_to":"San Diego State","lat":37.1841,"lng":-119.4696,"hometown_city":"San Diego","hometown_state":"CA"},{"name":"Brett Smith","year":2027,"position":"S","stars":null,"rating_247":84.0,"committed_to":null,"lat":37.1841,"lng":-119.4696,"hometown_city":"Corona","hometown_state":"CA"},{"name":"Grant Moser","year":2027,"position":"S","stars":null,"rating_247":84.0,"committed_to":null,"lat":37.1841,"lng":-119.4696,"hometown_city":"Clovis","hometown_state":"CA"},{"name":"Shahariam Thurston","year":2027,"position":"S","stars":null,"rating_247":null,"committed_to":null,"lat":31.4757,"lng":-99.3312,"hometown_city":"Arlington","hometown_state":"TX"},{"name":"Kaleb Hall","year":2027,"position":"S","stars":null,"rating_247":null,"committed_to":null,"lat":39.321,"lng":-111.0937,"hometown_city":"Saratoga Springs","hometown_state":"UT"},{"name":"Ashton Jones","year":2027,"position":"S","stars":null,"rating_247":null,"committed_to":"Colorado State","lat":34.8938,"lng":-92.4426,"hometown_city":"Centerton","hometown_state":"AR"},{"name":"Krew Jones","year":2027,"position":"ATH","stars":null,"rating_247":90.0,"committed_to":"Oklahoma","lat":39.321,"lng":-111.0937,"hometown_city":"Orem","hometown_state":"UT"},{"name":"Jaxton Itaaehau","year":2027,"position":"ATH","stars":null,"rating_247":90.0,"committed_to":null,"lat":39.321,"lng":-111.0937,"hometown_city":"Kaysville","hometown_state":"UT"},{"name":"Steele Harris","year":2027,"position":"ATH","stars":null,"rating_247":88.0,"committed_to":"Wisconsin","lat":47.0527,"lng":-109.6333,"hometown_city":"Great Falls","hometown_state":"MT"},{"name":"Blaise Burwell","year":2027,"position":"ATH","stars":null,"rating_247":87.0,"committed_to":"Colorado State","lat":37.1841,"lng":-119.4696,"hometown_city":"Huntington Beach","hometown_state":"CA"},{"name":"Jackson West","year":2027,"position":"ATH","stars":null,"rating_247":87.0,"committed_to":null,"lat":39.321,"lng":-111.0937,"hometown_city":"Draper","hometown_state":"UT"},{"name":"Peyton Higginson","year":2027,"position":"ATH","stars":null,"rating_247":86.0,"committed_to":null,"lat":39.321,"lng":-111.0937,"hometown_city":"Salem","hometown_state":"UT"},{"name":"Lakepa Satuala","year":2027,"position":"ATH","stars":null,"rating_247":86.0,"committed_to":null,"lat":39.321,"lng":-111.0937,"hometown_city":"Bountiful","hometown_state":"UT"},{"name":"Special Henry","year":2027,"position":"ATH","stars":null,"rating_247":86.0,"committed_to":"Iowa State","lat":31.4757,"lng":-99.3312,"hometown_city":"Melissa","hometown_state":"TX"},{"name":"Diesel Dart","year":2027,"position":"ATH","stars":null,"rating_247":85.0,"committed_to":null,"lat":39.321,"lng":-111.0937,"hometown_city":"Draper","hometown_state":"UT"},{"name":"Titus Osterman","year":2027,"position":"ATH","stars":null,"rating_247":85.0,"committed_to":"Washington","lat":44.3509,"lng":-114.613,"hometown_city":"Kimberly","hometown_state":"ID"},{"name":"Jaxson Rex","year":2027,"position":"ATH","stars":null,"rating_247":85.0,"committed_to":null,"lat":37.1841,"lng":-119.4696,"hometown_city":"San Clemente","hometown_state":"CA"},{"name":"Tytan DeJong","year":2027,"position":"ATH","stars":null,"rating_247":84.0,"committed_to":"BYU","lat":39.321,"lng":-111.0937,"hometown_city":"Herriman","hometown_state":"UT"},{"name":"Xavior Jones","year":2027,"position":"ATH","stars":null,"rating_247":84.0,"committed_to":null,"lat":37.1841,"lng":-119.4696,"hometown_city":"Fresno","hometown_state":"CA"},{"name":"Zy'Aire Conaway","year":2027,"position":"ATH","stars":null,"rating_247":null,"committed_to":null,"lat":32.6415,"lng":-83.4426,"hometown_city":"Snellville","hometown_state":"GA"},{"name":"Jeremiah Salvant","year":2027,"position":"ATH","stars":null,"rating_247":null,"committed_to":"Colorado State","lat":37.1841,"lng":-119.4696,"hometown_city":"Tustin","hometown_state":"CA"}],"2028":[{"name":"Carter Payne","year":2028,"position":"QB","stars":null,"rating_247":null,"committed_to":null,"lat":39.321,"lng":-111.0937,"hometown_city":"Ogden","hometown_state":"UT"},{"name":"Eli Mortensen","year":2028,"position":"WR","stars":null,"rating_247":null,"committed_to":null,"lat":39.321,"lng":-111.0937,"hometown_city":"Lehi","hometown_state":"UT"},{"name":"Cash Taiese","year":2028,"position":"WR","stars":null,"rating_247":null,"committed_to":null,"lat":39.321,"lng":-111.0937,"hometown_city":"American Fork","hometown_state":"UT"},{"name":"Toa Feinga","year":2028,"position":"OT","stars":null,"rating_247":90.0,"committed_to":null,"lat":39.321,"lng":-111.0937,"hometown_city":"Herriman","hometown_state":"UT"},{"name":"Major Stokes","year":2028,"position":"Edge","stars":null,"rating_247":90.0,"committed_to":null,"lat":39.321,"lng":-111.0937,"hometown_city":"Orem","hometown_state":"UT"},{"name":"Tucker Hess","year":2028,"position":"DL","stars":null,"rating_247":null,"committed_to":null,"lat":31.4757,"lng":-99.3312,"hometown_city":"Fulshear","hometown_state":"TX"}]}