{"2026":[{"name":"Keisean Henderson","year":2026,"position":"QB","stars":5,"rating_247":100.0,"committed_to":"Houston","lat":30.0798826,"lng":-95.4172549,"hometown_city":"Spring","hometown_state":"TX"},{"name":"Bowe Bentley","year":2026,"position":"QB","stars":4,"rating_247":95.0,"committed_to":"Oklahoma","lat":33.3238976,"lng":-96.785342,"hometown_city":"Celina","hometown_state":"TX"},{"name":"Legend Bey","year":2026,"position":"QB","stars":4,"rating_247":93.0,"committed_to":"Ohio State","lat":32.747893,"lng":-96.4719289,"hometown_city":"Forney","hometown_state":"TX"},{"name":"Corey Dailey","year":2026,"position":"QB","stars":3,"rating_247":91.0,"committed_to":"Pittsburgh","lat":29.5688411,"lng":-97.9647269,"hometown_city":"Seguin","hometown_state":"TX"},{"name":"KK Johnson","year":2026,"position":"QB","stars":null,"rating_247":90.0,"committed_to":"Texas A&M","lat":31.4757,"lng":-99.3312,"hometown_city":"Missouri City","hometown_state":"TX"},{"name":"Hank Hendrix","year":2026,"position":"QB","stars":null,"rating_247":88.0,"committed_to":"Arkansas","lat":34.8938,"lng":-92.4426,"hometown_city":"Fayetteville","hometown_state":"AR"},{"name":"Jack Daulton","year":2026,"position":"QB","stars":3,"rating_247":87.0,"committed_to":"Texas Christian","lat":30.1734194,"lng":-95.504686,"hometown_city":"The Woodlands","hometown_state":"TX"},{"name":"Miles Teodecki","year":2026,"position":"QB","stars":3,"rating_247":87.0,"committed_to":"Pennsylvania","lat":30.2711286,"lng":-97.7436995,"hometown_city":"Austin","hometown_state":"TX"},{"name":"Kase Evans","year":2026,"position":"QB","stars":3,"rating_247":86.0,"committed_to":"Penn State","lat":30.415222,"lng":-97.0097922,"hometown_city":"Lexington","hometown_state":"TX"},{"name":"Rees Wise","year":2026,"position":"QB","stars":3,"rating_247":86.0,"committed_to":"Mississippi","lat":30.2711286,"lng":-97.7436995,"hometown_city":"Austin","hometown_state":"TX"},{"name":"Tre Guerra","year":2026,"position":"QB","stars":null,"rating_247":86.0,"committed_to":"Coastal Carolina","lat":31.4757,"lng":-99.3312,"hometown_city":"Tyler","hometown_state":"TX"},{"name":"Quinn Murphy","year":2026,"position":"QB","stars":3,"rating_247":85.0,"committed_to":"Baylor","lat":33.110156,"lng":-97.17940980147037,"hometown_city":"Argyle","hometown_state":"TX"},{"name":"Angelo Renda","year":2026,"position":"QB","stars":3,"rating_247":85.0,"committed_to":"Pittsburgh","lat":32.9412363,"lng":-97.1341783,"hometown_city":"Southlake","hometown_state":"TX"},{"name":"Nelson Peterson Jr.","year":2026,"position":"QB","stars":3,"rating_247":85.0,"committed_to":"Texas Southern","lat":32.747893,"lng":-96.4719289,"hometown_city":"Forney","hometown_state":"TX"},{"name":"Kaleb Maryland","year":2026,"position":"QB","stars":3,"rating_247":84.0,"committed_to":"Utah State","lat":29.7589382,"lng":-95.3676974,"hometown_city":"Houston","hometown_state":"TX"},{"name":"Noah Schuback","year":2026,"position":"QB","stars":3,"rating_247":84.0,"committed_to":null,"lat":32.9628234,"lng":-117.0358646,"hometown_city":"Poway","hometown_state":"CA"},{"name":"Maguire Gasperson","year":2026,"position":"QB","stars":3,"rating_247":83.0,"committed_to":"Texas-San Antonio","lat":33.110156,"lng":-97.17940980147037,"hometown_city":"Argyle","hometown_state":"TX"},{"name":"Romin Seymour","year":2026,"position":"QB","stars":3,"rating_247":83.0,"committed_to":null,"lat":29.6185669,"lng":-95.5377215,"hometown_city":"Missouri City","hometown_state":"TX"},{"name":"Jett Surratt","year":2026,"position":"QB","stars":3,"rating_247":81.0,"committed_to":null,"lat":32.1570412,"lng":-94.338114,"hometown_city":"Carthage","hometown_state":"TX"},{"name":"Jacob Janecek","year":2026,"position":"QB","stars":null,"rating_247":null,"committed_to":"Stephen F. Austin","lat":31.4757,"lng":-99.3312,"hometown_city":"Lucas","hometown_state":"TX"},{"name":"Darius Clark-James","year":2026,"position":"QB","stars":null,"rating_247":null,"committed_to":null,"lat":37.1841,"lng":-119.4696,"hometown_city":"San Francisco","hometown_state":"CA"},{"name":"KJ Edwards","year":2026,"position":"RB","stars":4,"rating_247":97.0,"committed_to":"Texas A&M","lat":32.1570412,"lng":-94.338114,"hometown_city":"Carthage","hometown_state":"TX"},{"name":"Tradarian Ball","year":2026,"position":"RB","stars":4,"rating_247":96.0,"committed_to":"Oregon","lat":33.44628645,"lng":-94.07638067493534,"hometown_city":"Texarkana","hometown_state":"TX"},{"name":"Jonathan Hatton Jr.","year":2026,"position":"RB","stars":4,"rating_247":95.0,"committed_to":"Oklahoma","lat":29.5707831,"lng":-98.2330927,"hometown_city":"Cibolo","hometown_state":"TX"},{"name":"John Hebert","year":2026,"position":"RB","stars":4,"rating_247":94.0,"committed_to":"Houston","lat":29.7589382,"lng":-95.3676974,"hometown_city":"Houston","hometown_state":"TX"},{"name":"Javian Osborne","year":2026,"position":"RB","stars":4,"rating_247":92.0,"committed_to":"Notre Dame","lat":32.747893,"lng":-96.4719289,"hometown_city":"Forney","hometown_state":"TX"},{"name":"Kaegan Ash","year":2026,"position":"RB","stars":3,"rating_247":92.0,"committed_to":"Texas Tech","lat":31.9179473,"lng":-94.6810439,"hometown_city":"Mount Enterprise","hometown_state":"TX"},{"name":"Cardae Mack","year":2026,"position":"RB","stars":4,"rating_247":90.0,"committed_to":"Arizona State","lat":29.9988312,"lng":-95.2621553,"hometown_city":"Humble","hometown_state":"TX"},{"name":"Ace Martin","year":2026,"position":"RB","stars":null,"rating_247":90.0,"committed_to":"Texas Christian","lat":31.4757,"lng":-99.3312,"hometown_city":"Port Arthur","hometown_state":"TX"},{"name":"Ryan Estrada","year":2026,"position":"RB","stars":4,"rating_247":89.0,"committed_to":"Minnesota","lat":31.7754152,"lng":-106.4646348,"hometown_city":"El Paso","hometown_state":"TX"},{"name":"Edward Kelly Jr.","year":2026,"position":"RB","stars":4,"rating_247":88.0,"committed_to":"SMU","lat":30.0798826,"lng":-95.4172549,"hometown_city":"Spring","hometown_state":"TX"},{"name":"Ashton Rowden","year":2026,"position":"RB","stars":4,"rating_247":87.0,"committed_to":"Texas Tech","lat":33.4598415,"lng":-94.4154787,"hometown_city":"New Boston","hometown_state":"TX"},{"name":"Jett Walker","year":2026,"position":"RB","stars":3,"rating_247":86.0,"committed_to":"Texas","lat":30.671598,"lng":-97.65500660120435,"hometown_city":"Georgetown","hometown_state":"TX"},{"name":"Josiah Lucas","year":2026,"position":"RB","stars":3,"rating_247":86.0,"committed_to":"San Diego State","lat":32.657368000000005,"lng":-97.02846624175038,"hometown_city":"Grand Prairie","hometown_state":"TX"},{"name":"Martavious Boswell","year":2026,"position":"RB","stars":null,"rating_247":86.0,"committed_to":"West Virginia","lat":32.7364,"lng":-89.6678,"hometown_city":"Wesson","hometown_state":"MS"},{"name":"Rayshun Hurt","year":2026,"position":"RB","stars":null,"rating_247":85.0,"committed_to":"Louisiana Tech","lat":31.4757,"lng":-99.3312,"hometown_city":"San Antonio","hometown_state":"TX"},{"name":"Dionne Sims","year":2026,"position":"RB","stars":3,"rating_247":85.0,"committed_to":"Rice","lat":29.7589382,"lng":-95.3676974,"hometown_city":"Houston","hometown_state":"TX"},{"name":"Mykha Green","year":2026,"position":"RB","stars":null,"rating_247":85.0,"committed_to":"Texas-San Antonio","lat":31.4757,"lng":-99.3312,"hometown_city":"Sinton","hometown_state":"TX"},{"name":"Juntavious Harris","year":2026,"position":"RB","stars":3,"rating_247":85.0,"committed_to":"Texas State","lat":32.8457865,"lng":-97.0667142473263,"hometown_city":"Euless","hometown_state":"TX"},{"name":"Rawls Patterson","year":2026,"position":"RB","stars":3,"rating_247":85.0,"committed_to":"Furman","lat":36.1622296,"lng":-86.7743531,"hometown_city":"Nashville","hometown_state":"TN"},{"name":"Caleb Crenshaw","year":2026,"position":"RB","stars":3,"rating_247":84.0,"committed_to":"Stephen F. Austin","lat":30.2711286,"lng":-97.7436995,"hometown_city":"Austin","hometown_state":"TX"},{"name":"Samaritan Cunningham","year":2026,"position":"RB","stars":null,"rating_247":null,"committed_to":null,"lat":31.4757,"lng":-99.3312,"hometown_city":"Houston","hometown_state":"TX"},{"name":"Trae Hill","year":2026,"position":"RB","stars":null,"rating_247":null,"committed_to":null,"lat":31.4757,"lng":-99.3312,"hometown_city":"Cedar Park","hometown_state":"TX"},{"name":"Jermaine Brown","year":2026,"position":"RB","stars":null,"rating_247":null,"committed_to":null,"lat":32.6415,"lng":-83.4426,"hometown_city":"Cuthbert","hometown_state":"GA"},{"name":"CJ Johnson","year":2026,"position":"RB","stars":null,"rating_247":null,"committed_to":null,"lat":32.7794,"lng":-86.8287,"hometown_city":"Opelika","hometown_state":"AL"},{"name":"TK Keys","year":2026,"position":"WR","stars":null,"rating_247":98.0,"committed_to":"Tennessee","lat":32.7364,"lng":-89.6678,"hometown_city":"Hattiesburg","hometown_state":"MS"},{"name":"Calvin Russell III","year":2026,"position":"WR","stars":null,"rating_247":98.0,"committed_to":"Syracuse","lat":28.6305,"lng":-82.4497,"hometown_city":"Miami","hometown_state":"FL"},{"name":"Milan Parris","year":2026,"position":"WR","stars":4,"rating_247":96.0,"committed_to":"Miami","lat":41.1596261,"lng":-81.4406258,"hometown_city":"Stow","hometown_state":"OH"},{"name":"Paris Melvin Jr.","year":2026,"position":"WR","stars":4,"rating_247":94.0,"committed_to":"Houston","lat":29.9691116,"lng":-95.6971686,"hometown_city":"Cypress","hometown_state":"TX"},{"name":"Jordan Clay","year":2026,"position":"WR","stars":4,"rating_247":94.0,"committed_to":"Washington","lat":29.4246002,"lng":-98.4951405,"hometown_city":"San Antonio","hometown_state":"TX"},{"name":"Trez Davis","year":2026,"position":"WR","stars":4,"rating_247":92.0,"committed_to":"Washington","lat":32.5184775,"lng":-92.1476353,"hometown_city":"West Monroe","hometown_state":"LA"},{"name":"Jayden Warren","year":2026,"position":"WR","stars":4,"rating_247":92.0,"committed_to":"Texas A&M","lat":29.3521203,"lng":-95.460341,"hometown_city":"Rosharon","hometown_state":"TX"},{"name":"Devin Fitzgerald","year":2026,"position":"WR","stars":4,"rating_247":92.0,"committed_to":"Notre Dame","lat":33.4484367,"lng":-112.0741417,"hometown_city":"Phoenix","hometown_state":"AZ"},{"name":"Jabari Mack","year":2026,"position":"WR","stars":4,"rating_247":91.0,"committed_to":"Louisiana State","lat":29.960933,"lng":-90.3705407077716,"hometown_city":"Destrehan","hometown_state":"LA"},{"name":"Jeremiah Bushnell","year":2026,"position":"WR","stars":3,"rating_247":90.0,"committed_to":"Houston","lat":30.2368772,"lng":-93.0137569,"hometown_city":"Iowa","hometown_state":"LA"},{"name":"Kohen Brown","year":2026,"position":"WR","stars":3,"rating_247":90.0,"committed_to":"Texas","lat":32.3944908,"lng":-96.8439365,"hometown_city":"Waxahachie","hometown_state":"TX"},{"name":"Aljour Miles II","year":2026,"position":"WR","stars":null,"rating_247":90.0,"committed_to":"SMU","lat":31.4757,"lng":-99.3312,"hometown_city":"Kaufman","hometown_state":"TX"},{"name":"Brayden Robinson","year":2026,"position":"WR","stars":4,"rating_247":90.0,"committed_to":"Notre Dame","lat":32.5117104,"lng":-96.80836332870047,"hometown_city":"Red Oak","hometown_state":"TX"},{"name":"Zayion Cotton","year":2026,"position":"WR","stars":4,"rating_247":90.0,"committed_to":"Mississippi State","lat":33.7690049,"lng":-89.8084192,"hometown_city":"Grenada","hometown_state":"MS"},{"name":"Roderick Tezeno","year":2026,"position":"WR","stars":3,"rating_247":89.0,"committed_to":"Southern California","lat":30.5335302,"lng":-92.081509,"hometown_city":"Opelousas","hometown_state":"LA"},{"name":"Chris Stewart","year":2026,"position":"WR","stars":4,"rating_247":89.0,"committed_to":"Texas","lat":29.5639758,"lng":-95.2864299,"hometown_city":"Pearland","hometown_state":"TX"},{"name":"Jesse Harden","year":2026,"position":"WR","stars":3,"rating_247":88.0,"committed_to":"Nevada, Las Vegas","lat":27.871197,"lng":-82.3269883,"hometown_city":"Riverview","hometown_state":"FL"},{"name":"Khamill Pruitt","year":2026,"position":"WR","stars":3,"rating_247":88.0,"committed_to":"Texas Christian","lat":32.701938999999996,"lng":-97.10562379033699,"hometown_city":"Arlington","hometown_state":"TX"},{"name":"Mike Brown","year":2026,"position":"WR","stars":3,"rating_247":88.0,"committed_to":"Texas A&M","lat":30.0798826,"lng":-95.4172549,"hometown_city":"Spring","hometown_state":"TX"},{"name":"Brady Marchese","year":2026,"position":"WR","stars":4,"rating_247":88.0,"committed_to":"Auburn","lat":34.1650972,"lng":-84.7999383,"hometown_city":"Cartersville","hometown_state":"GA"},{"name":"Keymian Henderson Jr.","year":2026,"position":"WR","stars":3,"rating_247":88.0,"committed_to":"Mississippi State","lat":32.1570412,"lng":-94.338114,"hometown_city":"Carthage","hometown_state":"TX"},{"name":"Daylen Sharper","year":2026,"position":"WR","stars":3,"rating_247":88.0,"committed_to":"Stanford","lat":33.4484367,"lng":-112.0741417,"hometown_city":"Phoenix","hometown_state":"AZ"},{"name":"Derrick Salley Jr.","year":2026,"position":"WR","stars":null,"rating_247":88.0,"committed_to":"Kansas State","lat":38.4937,"lng":-98.3804,"hometown_city":"Hutchinson","hometown_state":"KS"},{"name":"Derek Straughn","year":2026,"position":"WR","stars":null,"rating_247":87.0,"committed_to":"Texas-San Antonio","lat":35.5889,"lng":-97.4943,"hometown_city":"Mustang","hometown_state":"OK"},{"name":"Christian Dupree","year":2026,"position":"WR","stars":null,"rating_247":87.0,"committed_to":"Texas-San Antonio","lat":31.4757,"lng":-99.3312,"hometown_city":"Schertz","hometown_state":"TX"},{"name":"James Scott","year":2026,"position":"WR","stars":3,"rating_247":87.0,"committed_to":"Texas Christian","lat":30.3118769,"lng":-95.4560512,"hometown_city":"Conroe","hometown_state":"TX"},{"name":"Brock Boyd","year":2026,"position":"WR","stars":3,"rating_247":87.0,"committed_to":"Ohio State","lat":32.9412363,"lng":-97.1341783,"hometown_city":"Southlake","hometown_state":"TX"},{"name":"Cooper Reid","year":2026,"position":"WR","stars":3,"rating_247":87.0,"committed_to":"Texas Christian","lat":30.1902067,"lng":-98.0866781,"hometown_city":"Dripping Springs","hometown_state":"TX"},{"name":"Henry Harris","year":2026,"position":"WR","stars":3,"rating_247":87.0,"committed_to":null,"lat":29.8826436,"lng":-97.9405828,"hometown_city":"San Marcos","hometown_state":"TX"},{"name":"Kaden Cole","year":2026,"position":"WR","stars":3,"rating_247":87.0,"committed_to":"Montana State","lat":29.7589382,"lng":-95.3676974,"hometown_city":"Houston","hometown_state":"TX"},{"name":"Zikhere Leaks","year":2026,"position":"WR","stars":3,"rating_247":87.0,"committed_to":"Connecticut","lat":40.2663107,"lng":-76.8861122,"hometown_city":"Harrisburg","hometown_state":"PA"},{"name":"Troy Foster","year":2026,"position":"WR","stars":3,"rating_247":87.0,"committed_to":"Colorado State","lat":33.6783336,"lng":-118.0000166,"hometown_city":"Huntington Beach","hometown_state":"CA"},{"name":"Kedrick Triplett","year":2026,"position":"WR","stars":null,"rating_247":87.0,"committed_to":"West Virginia","lat":32.7364,"lng":-89.6678,"hometown_city":"Poplarville","hometown_state":"MS"},{"name":"Cael Meisman","year":2026,"position":"WR","stars":null,"rating_247":87.0,"committed_to":"Texas-San Antonio","lat":37.1841,"lng":-119.4696,"hometown_city":"Victorville","hometown_state":"CA"},{"name":"H'eij Jackson","year":2026,"position":"WR","stars":null,"rating_247":86.0,"committed_to":"Cincinnati","lat":31.0689,"lng":-91.9968,"hometown_city":"New Orleans","hometown_state":"LA"},{"name":"Hayden Moore","year":2026,"position":"WR","stars":3,"rating_247":86.0,"committed_to":"Minnesota","lat":29.6463535,"lng":-82.6065023,"hometown_city":"Newberry","hometown_state":"FL"},{"name":"Jiwaun Brock","year":2026,"position":"WR","stars":3,"rating_247":86.0,"committed_to":"Southeastern Louisiana","lat":30.4754702,"lng":-90.1009108,"hometown_city":"Covington","hometown_state":"LA"},{"name":"Corbin Glasco","year":2026,"position":"WR","stars":3,"rating_247":86.0,"committed_to":"Kansas","lat":33.2150386,"lng":-97.1330516,"hometown_city":"Denton","hometown_state":"TX"},{"name":"Antione Baker","year":2026,"position":"WR","stars":3,"rating_247":86.0,"committed_to":"Vanderbilt","lat":30.2711286,"lng":-97.7436995,"hometown_city":"Austin","hometown_state":"TX"},{"name":"Davis McCray","year":2026,"position":"WR","stars":3,"rating_247":86.0,"committed_to":"Kentucky","lat":29.4246002,"lng":-98.4951405,"hometown_city":"San Antonio","hometown_state":"TX"},{"name":"JD Wallace","year":2026,"position":"WR","stars":null,"rating_247":86.0,"committed_to":"Texas-El Paso","lat":31.4757,"lng":-99.3312,"hometown_city":"Houston","hometown_state":"TX"},{"name":"Tyler Henderson","year":2026,"position":"WR","stars":null,"rating_247":86.0,"committed_to":"Alabama","lat":32.7364,"lng":-89.6678,"hometown_city":"Perkinston","hometown_state":"MS"},{"name":"JJ Harrell","year":2026,"position":"WR","stars":null,"rating_247":86.0,"committed_to":"Old Dominion","lat":32.7364,"lng":-89.6678,"hometown_city":"Goodman","hometown_state":"MS"},{"name":"Camden Capehart","year":2026,"position":"WR","stars":null,"rating_247":85.0,"committed_to":"Mississippi State","lat":31.4757,"lng":-99.3312,"hometown_city":"Winnsboro","hometown_state":"TX"},{"name":"Mason Williams","year":2026,"position":"WR","stars":3,"rating_247":85.0,"committed_to":null,"lat":33.0318031,"lng":-94.7219895,"hometown_city":"Daingerfield","hometown_state":"TX"},{"name":"Imari Jehiel","year":2026,"position":"WR","stars":3,"rating_247":85.0,"committed_to":"Texas Tech","lat":32.747893,"lng":-96.4719289,"hometown_city":"Forney","hometown_state":"TX"},{"name":"Benny Okwura","year":2026,"position":"WR","stars":3,"rating_247":85.0,"committed_to":"Texas-El Paso","lat":29.690292,"lng":-95.8996261,"hometown_city":"Fulshear","hometown_state":"TX"},{"name":"Wyatt Villarreal","year":2026,"position":"WR","stars":3,"rating_247":85.0,"committed_to":"Pittsburgh","lat":33.3238976,"lng":-96.785342,"hometown_city":"Celina","hometown_state":"TX"},{"name":"Keidric Osunde-Brown","year":2026,"position":"WR","stars":3,"rating_247":84.0,"committed_to":"Louisiana-Monroe","lat":32.701938999999996,"lng":-97.10562379033699,"hometown_city":"Arlington","hometown_state":"TX"},{"name":"Joshua Rushing","year":2026,"position":"WR","stars":3,"rating_247":84.0,"committed_to":"Tulsa","lat":34.6086854,"lng":-98.3903305,"hometown_city":"Lawton","hometown_state":"OK"},{"name":"Greg Wilfred","year":2026,"position":"WR","stars":3,"rating_247":84.0,"committed_to":"West Virginia","lat":29.9499323,"lng":-90.0701156,"hometown_city":"New Orleans","hometown_state":"LA"},{"name":"TK Keyes","year":2026,"position":"WR","stars":null,"rating_247":84.0,"committed_to":"Troy","lat":32.7364,"lng":-89.6678,"hometown_city":"Ellisville","hometown_state":"MS"},{"name":"Elijah Otieno","year":2026,"position":"WR","stars":3,"rating_247":83.0,"committed_to":"Wake Forest","lat":32.747893,"lng":-96.4719289,"hometown_city":"Forney","hometown_state":"TX"},{"name":"Dameon Crowe","year":2026,"position":"WR","stars":3,"rating_247":83.0,"committed_to":"Texas State","lat":32.9481789,"lng":-96.7297206,"hometown_city":"Richardson","hometown_state":"TX"},{"name":"Prince Hall","year":2026,"position":"WR","stars":3,"rating_247":83.0,"committed_to":"Texas-San Antonio","lat":31.1171441,"lng":-97.727796,"hometown_city":"Killeen","hometown_state":"TX"},{"name":"Jarell Gary Jr.","year":2026,"position":"WR","stars":null,"rating_247":83.0,"committed_to":"Wyoming","lat":31.4757,"lng":-99.3312,"hometown_city":"Austin","hometown_state":"TX"},{"name":"Joshua Parker","year":2026,"position":"WR","stars":null,"rating_247":83.0,"committed_to":"Coastal Carolina","lat":39.055,"lng":-76.7909,"hometown_city":"Hyattsville","hometown_state":"MD"},{"name":"Cade McCall","year":2026,"position":"WR","stars":3,"rating_247":82.0,"committed_to":"Utah State","lat":29.7857853,"lng":-95.8243956,"hometown_city":"Katy","hometown_state":"TX"},{"name":"Kevin Davis III","year":2026,"position":"WR","stars":3,"rating_247":81.0,"committed_to":"Texas-San Antonio","lat":29.7589382,"lng":-95.3676974,"hometown_city":"Houston","hometown_state":"TX"},{"name":"Jeremiah Nash","year":2026,"position":"WR","stars":null,"rating_247":80.0,"committed_to":"Texas-El Paso","lat":37.1841,"lng":-119.4696,"hometown_city":"San Francisco","hometown_state":"CA"},{"name":"Dominic Saidu","year":2026,"position":"WR","stars":null,"rating_247":null,"committed_to":null,"lat":31.4757,"lng":-99.3312,"hometown_city":"Kaufman","hometown_state":"TX"},{"name":"Malachi Augustus","year":2026,"position":"WR","stars":null,"rating_247":null,"committed_to":null,"lat":31.4757,"lng":-99.3312,"hometown_city":"Houston","hometown_state":"TX"},{"name":"Jayden Riley","year":2026,"position":"WR","stars":null,"rating_247":null,"committed_to":null,"lat":31.4757,"lng":-99.3312,"hometown_city":"Atlanta","hometown_state":"TX"},{"name":"Dacorian Johnson","year":2026,"position":"WR","stars":null,"rating_247":null,"committed_to":null,"lat":31.4757,"lng":-99.3312,"hometown_city":"Timpson","hometown_state":"TX"},{"name":"Raja Garza-Adams","year":2026,"position":"WR","stars":null,"rating_247":null,"committed_to":null,"lat":31.4757,"lng":-99.3312,"hometown_city":"Jasper","hometown_state":"TX"},{"name":"Aiden Whitmore","year":2026,"position":"WR","stars":null,"rating_247":null,"committed_to":null,"lat":31.4757,"lng":-99.3312,"hometown_city":"Fort Worth","hometown_state":"TX"},{"name":"Zack Turner","year":2026,"position":"TE","stars":null,"rating_247":88.0,"committed_to":"SMU","lat":31.4757,"lng":-99.3312,"hometown_city":"Duncanville","hometown_state":"TX"},{"name":"Ryder Mix","year":2026,"position":"TE","stars":3,"rating_247":87.0,"committed_to":"Oklahoma","lat":33.1506744,"lng":-96.8236116,"hometown_city":"Frisco","hometown_state":"TX"},{"name":"Jackson Mangham","year":2026,"position":"TE","stars":null,"rating_247":87.0,"committed_to":"Connecticut","lat":40.2862,"lng":-82.7937,"hometown_city":"Lewis Center","hometown_state":"OH"},{"name":"Arley Morrell","year":2026,"position":"TE","stars":3,"rating_247":87.0,"committed_to":"Kansas State","lat":37.6439071,"lng":-98.7375911,"hometown_city":"Pratt","hometown_state":"KS"},{"name":"Parker Ord","year":2026,"position":"TE","stars":3,"rating_247":87.0,"committed_to":"BYU","lat":33.1506744,"lng":-96.8236116,"hometown_city":"Frisco","hometown_state":"TX"},{"name":"Landon Cook","year":2026,"position":"TE","stars":3,"rating_247":83.0,"committed_to":"Oregon State","lat":37.9768525,"lng":-122.0335624,"hometown_city":"Concord","hometown_state":"CA"},{"name":"Trysten Laughlin","year":2026,"position":"TE","stars":3,"rating_247":83.0,"committed_to":"Texas-San Antonio","lat":29.9988312,"lng":-95.2621553,"hometown_city":"Humble","hometown_state":"TX"},{"name":"Felix Ojo","year":2026,"position":"OT","stars":5,"rating_247":98.0,"committed_to":"Texas Tech","lat":32.5631924,"lng":-97.1416768,"hometown_city":"Mansfield","hometown_state":"TX"},{"name":"Daniel McMorris","year":2026,"position":"OT","stars":4,"rating_247":95.0,"committed_to":"California","lat":35.2225717,"lng":-97.4394816,"hometown_city":"Norman","hometown_state":"OK"},{"name":"Bryce Gilmore","year":2026,"position":"OT","stars":4,"rating_247":93.0,"committed_to":"Texas Tech","lat":33.2385763,"lng":-96.7866058,"hometown_city":"Prosper","hometown_state":"TX"},{"name":"John Turntine III","year":2026,"position":"OT","stars":4,"rating_247":93.0,"committed_to":"Texas","lat":32.753177,"lng":-97.3327459,"hometown_city":"Fort Worth","hometown_state":"TX"},{"name":"Nicholas Howard","year":2026,"position":"OT","stars":4,"rating_247":90.0,"committed_to":"Pittsburgh","lat":29.5639758,"lng":-95.2864299,"hometown_city":"Pearland","hometown_state":"TX"},{"name":"Zaden Krempin","year":2026,"position":"OT","stars":4,"rating_247":90.0,"committed_to":"Texas A&M","lat":33.2385763,"lng":-96.7866058,"hometown_city":"Prosper","hometown_state":"TX"},{"name":"Kole Seaton","year":2026,"position":"OT","stars":3,"rating_247":88.0,"committed_to":"Oklahoma State","lat":32.7666103,"lng":-96.599472,"hometown_city":"Mesquite","hometown_state":"TX"},{"name":"Max Wright","year":2026,"position":"OT","stars":3,"rating_247":88.0,"committed_to":"SMU","lat":33.2860549,"lng":-96.5725952,"hometown_city":"Melissa","hometown_state":"TX"},{"name":"Keegan Collins","year":2026,"position":"OT","stars":3,"rating_247":88.0,"committed_to":"Kansas State","lat":34.9798392,"lng":-101.9193395,"hometown_city":"Canyon","hometown_state":"TX"},{"name":"Duncan McGhee","year":2026,"position":"OT","stars":3,"rating_247":87.0,"committed_to":"Texas Christian","lat":33.44628645,"lng":-94.07638067493534,"hometown_city":"Texarkana","hometown_state":"TX"},{"name":"Avery Morcho","year":2026,"position":"OT","stars":3,"rating_247":87.0,"committed_to":"Texas A&M","lat":29.6185669,"lng":-95.5377215,"hometown_city":"Missouri City","hometown_state":"TX"},{"name":"Rhett Gray","year":2026,"position":"OT","stars":3,"rating_247":87.0,"committed_to":"Houston","lat":32.7589648,"lng":-97.7970748,"hometown_city":"Weatherford","hometown_state":"TX"},{"name":"Aiden Martin","year":2026,"position":"OT","stars":3,"rating_247":87.0,"committed_to":"Tulane","lat":36.1556805,"lng":-95.9929113,"hometown_city":"Tulsa","hometown_state":"OK"},{"name":"Braylon Reado","year":2026,"position":"OT","stars":3,"rating_247":87.0,"committed_to":"Tarleton State","lat":29.7860643,"lng":-95.9510661,"hometown_city":"Brookshire","hometown_state":"TX"},{"name":"Esaiah Wong","year":2026,"position":"OT","stars":3,"rating_247":87.0,"committed_to":"California","lat":21.394833,"lng":-157.72989134661873,"hometown_city":"Kailua","hometown_state":"HI"},{"name":"Dylan Durbin","year":2026,"position":"OT","stars":3,"rating_247":87.0,"committed_to":"Wake Forest","lat":27.7477253,"lng":-97.4014129,"hometown_city":"Corpus Christi","hometown_state":"TX"},{"name":"Jordan Burnett","year":2026,"position":"OT","stars":3,"rating_247":86.0,"committed_to":"Texas Christian","lat":29.6185669,"lng":-95.5377215,"hometown_city":"Missouri City","hometown_state":"TX"},{"name":"Troy Pless","year":2026,"position":"OT","stars":3,"rating_247":86.0,"committed_to":"Houston","lat":31.1171441,"lng":-97.727796,"hometown_city":"Killeen","hometown_state":"TX"},{"name":"Jayden Ross","year":2026,"position":"OT","stars":3,"rating_247":86.0,"committed_to":"Mississippi State","lat":30.4112904,"lng":-88.8279165,"hometown_city":"Ocean Springs","hometown_state":"MS"},{"name":"Siosaia Lapuaho","year":2026,"position":"OT","stars":null,"rating_247":86.0,"committed_to":"Arizona State","lat":38.4937,"lng":-98.3804,"hometown_city":"Garden City","hometown_state":"KS"},{"name":"Alfred Washington","year":2026,"position":"OT","stars":null,"rating_247":86.0,"committed_to":"Illinois","lat":32.7364,"lng":-89.6678,"hometown_city":"Booneville","hometown_state":"MS"},{"name":"Barrett Maddox","year":2026,"position":"OT","stars":null,"rating_247":86.0,"committed_to":"UAB","lat":32.7364,"lng":-89.6678,"hometown_city":"Fulton","hometown_state":"MS"},{"name":"J.T. Fagan","year":2026,"position":"OT","stars":null,"rating_247":86.0,"committed_to":"Marshall","lat":32.7364,"lng":-89.6678,"hometown_city":"Booneville","hometown_state":"MS"},{"name":"Steven Moore","year":2026,"position":"OT","stars":null,"rating_247":86.0,"committed_to":"Florida State","lat":38.4937,"lng":-98.3804,"hometown_city":"Garden City","hometown_state":"KS"},{"name":"Sekope Wallace","year":2026,"position":"OT","stars":null,"rating_247":86.0,"committed_to":"Texas-San Antonio","lat":39.321,"lng":-111.0937,"hometown_city":"Ephraim","hometown_state":"UT"},{"name":"Eric Perkins","year":2026,"position":"OT","stars":3,"rating_247":85.0,"committed_to":"Texas State","lat":32.5447756,"lng":-94.3661004,"hometown_city":"Marshall","hometown_state":"TX"},{"name":"Eli Holbrook","year":2026,"position":"OT","stars":3,"rating_247":85.0,"committed_to":"Oklahoma State","lat":32.701938999999996,"lng":-97.10562379033699,"hometown_city":"Arlington","hometown_state":"TX"},{"name":"Noah Abebe","year":2026,"position":"OT","stars":3,"rating_247":85.0,"committed_to":"Houston","lat":29.5293998,"lng":-95.2010447,"hometown_city":"Friendswood","hometown_state":"TX"},{"name":"Packs Ahovelo","year":2026,"position":"OT","stars":3,"rating_247":85.0,"committed_to":"Colorado State","lat":21.394833,"lng":-157.72989134661873,"hometown_city":"Kailua","hometown_state":"HI"},{"name":"Uluaki Tatafu","year":2026,"position":"OT","stars":3,"rating_247":85.0,"committed_to":"Colorado State","lat":21.394833,"lng":-157.72989134661873,"hometown_city":"Kailua","hometown_state":"HI"},{"name":"Leyonte Chandler","year":2026,"position":"OT","stars":3,"rating_247":84.0,"committed_to":"Rice","lat":32.8457865,"lng":-97.0667142473263,"hometown_city":"Euless","hometown_state":"TX"},{"name":"Josiah Evans","year":2026,"position":"OT","stars":3,"rating_247":84.0,"committed_to":"Texas-San Antonio","lat":29.299328,"lng":-94.7945882,"hometown_city":"Galveston","hometown_state":"TX"},{"name":"JaKolby Jones","year":2026,"position":"OT","stars":null,"rating_247":84.0,"committed_to":"Louisiana State","lat":32.7364,"lng":-89.6678,"hometown_city":"Wesson","hometown_state":"MS"},{"name":"Kison Shepard","year":2026,"position":"OT","stars":null,"rating_247":84.0,"committed_to":"Mississippi State","lat":32.7364,"lng":-89.6678,"hometown_city":"Scooba","hometown_state":"MS"},{"name":"Nick Anciaux","year":2026,"position":"OT","stars":3,"rating_247":84.0,"committed_to":"Tulsa","lat":37.6922361,"lng":-97.3375448,"hometown_city":"Wichita","hometown_state":"KS"},{"name":"Teagan Lindsey","year":2026,"position":"OT","stars":3,"rating_247":83.0,"committed_to":"Texas State","lat":33.6978844,"lng":-97.0088971,"hometown_city":"Callisburg","hometown_state":"TX"},{"name":"KC Ekwu","year":2026,"position":"OT","stars":3,"rating_247":83.0,"committed_to":"North Texas","lat":32.7965165,"lng":-96.5608242,"hometown_city":"Sunnyvale","hometown_state":"TX"},{"name":"Amar Harper","year":2026,"position":"OT","stars":null,"rating_247":83.0,"committed_to":"Charlotte","lat":32.7364,"lng":-89.6678,"hometown_city":"Fulton","hometown_state":"MS"},{"name":"Jamie Johnson","year":2026,"position":"OT","stars":null,"rating_247":null,"committed_to":"Prairie View A&M","lat":42.0751,"lng":-93.496,"hometown_city":"Fort Dodge","hometown_state":"IA"},{"name":"Jarmaine Mitchell","year":2026,"position":"IOL","stars":null,"rating_247":90.0,"committed_to":"Arizona State","lat":32.7364,"lng":-89.6678,"hometown_city":"Wesson","hometown_state":"MS"},{"name":"Vincent Johnson Jr.","year":2026,"position":"IOL","stars":4,"rating_247":89.0,"committed_to":"Texas Christian","lat":33.1384886,"lng":-95.6010143,"hometown_city":"Sulphur Springs","hometown_state":"TX"},{"name":"Pulelei'ite Primus","year":2026,"position":"IOL","stars":3,"rating_247":89.0,"committed_to":"Vanderbilt","lat":31.9973662,"lng":-102.0779482,"hometown_city":"Midland","hometown_state":"TX"},{"name":"Day'Jon Moore","year":2026,"position":"IOL","stars":3,"rating_247":87.0,"committed_to":"Maryland","lat":30.4241219,"lng":-95.4796587,"hometown_city":"Willis","hometown_state":"TX"},{"name":"Koloi Keli","year":2026,"position":"IOL","stars":3,"rating_247":87.0,"committed_to":"Oregon","lat":21.304547,"lng":-157.8556764,"hometown_city":"Honolulu","hometown_state":"HI"},{"name":"Marcus Page Jr.","year":2026,"position":"IOL","stars":3,"rating_247":87.0,"committed_to":"Rice","lat":32.747893,"lng":-96.4719289,"hometown_city":"Forney","hometown_state":"TX"},{"name":"Jalan Chapman","year":2026,"position":"IOL","stars":3,"rating_247":87.0,"committed_to":"Mississippi","lat":29.9499323,"lng":-90.0701156,"hometown_city":"New Orleans","hometown_state":"LA"},{"name":"Jerald Mays","year":2026,"position":"IOL","stars":3,"rating_247":87.0,"committed_to":"Texas Tech","lat":30.4393696,"lng":-97.6200043,"hometown_city":"Pflugerville","hometown_state":"TX"},{"name":"Marques Uini","year":2026,"position":"IOL","stars":3,"rating_247":87.0,"committed_to":"Arizona State","lat":31.124062,"lng":-97.9030785,"hometown_city":"Copperas Cove","hometown_state":"TX"},{"name":"Alan Pond","year":2026,"position":"IOL","stars":null,"rating_247":87.0,"committed_to":"Tulsa","lat":42.0751,"lng":-93.496,"hometown_city":"Fort Dodge","hometown_state":"IA"},{"name":"Rowdy Pearce","year":2026,"position":"IOL","stars":3,"rating_247":86.0,"committed_to":"Utah","lat":31.9973662,"lng":-102.0779482,"hometown_city":"Midland","hometown_state":"TX"},{"name":"Toa Katoa","year":2026,"position":"IOL","stars":null,"rating_247":86.0,"committed_to":"SMU","lat":31.4757,"lng":-99.3312,"hometown_city":"Euless","hometown_state":"TX"},{"name":"Trey Shaw","year":2026,"position":"IOL","stars":3,"rating_247":86.0,"committed_to":"Louisiana","lat":31.3271189,"lng":-89.2903392,"hometown_city":"Hattiesburg","hometown_state":"MS"},{"name":"Myles Joseph","year":2026,"position":"IOL","stars":null,"rating_247":85.0,"committed_to":"Sam Houston","lat":31.0689,"lng":-91.9968,"hometown_city":"Lake Charles","hometown_state":"LA"},{"name":"Jadyn Rhodes","year":2026,"position":"IOL","stars":3,"rating_247":84.0,"committed_to":"McNeese","lat":30.0929879,"lng":-93.7365549,"hometown_city":"Orange","hometown_state":"TX"},{"name":"Damien Chisum","year":2026,"position":"IOL","stars":3,"rating_247":83.0,"committed_to":"Southern Arkansas","lat":33.44628645,"lng":-94.07638067493534,"hometown_city":"Texarkana","hometown_state":"TX"},{"name":"Payton Williams","year":2026,"position":"IOL","stars":3,"rating_247":83.0,"committed_to":"Texas-San Antonio","lat":32.69900905,"lng":-97.60396629774493,"hometown_city":"Aledo","hometown_state":"TX"},{"name":"Edarius Green","year":2026,"position":"IOL","stars":null,"rating_247":83.0,"committed_to":"Louisiana-Monroe","lat":32.7364,"lng":-89.6678,"hometown_city":"Wesson","hometown_state":"MS"},{"name":"Jordan Jensen","year":2026,"position":"IOL","stars":null,"rating_247":80.0,"committed_to":"Kansas State","lat":42.0751,"lng":-93.496,"hometown_city":"Fort Dodge","hometown_state":"IA"},{"name":"Jamon Lee Jr.","year":2026,"position":"IOL","stars":null,"rating_247":79.0,"committed_to":"Louisiana Tech","lat":31.4757,"lng":-99.3312,"hometown_city":"Tyler","hometown_state":"TX"},{"name":"Cape Johnson","year":2026,"position":"IOL","stars":null,"rating_247":79.0,"committed_to":"Arkansas State","lat":38.4937,"lng":-98.3804,"hometown_city":"El Dorado","hometown_state":"KS"},{"name":"Landon Barnes","year":2026,"position":"Edge","stars":4,"rating_247":94.0,"committed_to":"Mississippi","lat":32.6518004,"lng":-96.9083366,"hometown_city":"Duncanville","hometown_state":"TX"},{"name":"Julian Hugo","year":2026,"position":"Edge","stars":4,"rating_247":91.0,"committed_to":"Arizona State","lat":29.5707831,"lng":-98.2330927,"hometown_city":"Cibolo","hometown_state":"TX"},{"name":"Jalen Anderson","year":2026,"position":"Edge","stars":null,"rating_247":90.0,"committed_to":"Florida State","lat":32.7364,"lng":-89.6678,"hometown_city":"Poplarville","hometown_state":"MS"},{"name":"Colton Yarbrough","year":2026,"position":"Edge","stars":3,"rating_247":89.0,"committed_to":"Arkansas","lat":33.9958945,"lng":-96.3814259,"hometown_city":"Durant","hometown_state":"OK"},{"name":"Hudson Woods","year":2026,"position":"Edge","stars":3,"rating_247":89.0,"committed_to":"SMU","lat":29.885073249999998,"lng":-98.4196833729311,"hometown_city":"Spring Branch","hometown_state":"TX"},{"name":"Cullen Thompson","year":2026,"position":"Edge","stars":3,"rating_247":88.0,"committed_to":"Texas State","lat":30.0798826,"lng":-95.4172549,"hometown_city":"Spring","hometown_state":"TX"},{"name":"Cory House","year":2026,"position":"Edge","stars":3,"rating_247":87.0,"committed_to":"Michigan State","lat":35.1490215,"lng":-90.0516285,"hometown_city":"Memphis","hometown_state":"TN"},{"name":"Jacob Lopez-Veasey","year":2026,"position":"Edge","stars":3,"rating_247":87.0,"committed_to":"Texas-San Antonio","lat":29.4246002,"lng":-98.4951405,"hometown_city":"San Antonio","hometown_state":"TX"},{"name":"Alijah Lash","year":2026,"position":"Edge","stars":3,"rating_247":87.0,"committed_to":"San Diego State","lat":32.96116000000001,"lng":-97.34228157049023,"hometown_city":"Haslet","hometown_state":"TX"},{"name":"Tyrone Morgan","year":2026,"position":"Edge","stars":3,"rating_247":86.0,"committed_to":"Baylor","lat":30.4459596,"lng":-91.18738,"hometown_city":"Baton Rouge","hometown_state":"LA"},{"name":"Jeremiah Johnson","year":2026,"position":"Edge","stars":null,"rating_247":86.0,"committed_to":"West Virginia","lat":37.1841,"lng":-119.4696,"hometown_city":"Oroville","hometown_state":"CA"},{"name":"Douglas Adams III","year":2026,"position":"Edge","stars":null,"rating_247":86.0,"committed_to":"Mississippi State","lat":37.1841,"lng":-119.4696,"hometown_city":"Los Altos","hometown_state":"CA"},{"name":"Rashad Jones","year":2026,"position":"Edge","stars":null,"rating_247":86.0,"committed_to":null,"lat":38.4937,"lng":-98.3804,"hometown_city":"Garden City","hometown_state":"KS"},{"name":"Jamaun Thompson","year":2026,"position":"Edge","stars":null,"rating_247":85.0,"committed_to":"New Mexico State","lat":28.6305,"lng":-82.4497,"hometown_city":"Sarasota","hometown_state":"FL"},{"name":"Brooks Hall","year":2026,"position":"Edge","stars":3,"rating_247":85.0,"committed_to":"UCF","lat":39.3703535,"lng":-94.781086,"hometown_city":"Platte City","hometown_state":"MO"},{"name":"Mickey Williams","year":2026,"position":"Edge","stars":3,"rating_247":85.0,"committed_to":"Colorado State","lat":37.7790262,"lng":-122.4199061,"hometown_city":"San Francisco","hometown_state":"CA"},{"name":"Dycin Davis","year":2026,"position":"Edge","stars":3,"rating_247":85.0,"committed_to":"Texas-El Paso","lat":32.44645,"lng":-99.7475905,"hometown_city":"Abilene","hometown_state":"TX"},{"name":"J'Lynn Allen","year":2026,"position":"Edge","stars":null,"rating_247":85.0,"committed_to":"Arkansas","lat":38.4937,"lng":-98.3804,"hometown_city":"Hutchinson","hometown_state":"KS"},{"name":"Lonnie Smith","year":2026,"position":"Edge","stars":null,"rating_247":85.0,"committed_to":"Troy","lat":32.7364,"lng":-89.6678,"hometown_city":"Wesson","hometown_state":"MS"},{"name":"Jerious Singletary","year":2026,"position":"Edge","stars":3,"rating_247":83.0,"committed_to":"North Texas","lat":30.7235263,"lng":-95.5507771,"hometown_city":"Huntsville","hometown_state":"TX"},{"name":"Paul Kouame","year":2026,"position":"Edge","stars":null,"rating_247":82.0,"committed_to":"New Mexico State","lat":37.1841,"lng":-119.4696,"hometown_city":"Long Beach","hometown_state":"CA"},{"name":"Jayson Cannon","year":2026,"position":"Edge","stars":null,"rating_247":null,"committed_to":null,"lat":31.4757,"lng":-99.3312,"hometown_city":"Denison","hometown_state":"TX"},{"name":"Jace Johnson","year":2026,"position":"Edge","stars":null,"rating_247":null,"committed_to":null,"lat":31.4757,"lng":-99.3312,"hometown_city":"Allen","hometown_state":"TX"},{"name":"Javonte Williams","year":2026,"position":"Edge","stars":3,"rating_247":null,"committed_to":null,"lat":39.1731621,"lng":-77.2716502,"hometown_city":"Germantown","hometown_state":"MD"},{"name":"Brayden Ellis","year":2026,"position":"Edge","stars":null,"rating_247":null,"committed_to":"New Mexico","lat":37.1841,"lng":-119.4696,"hometown_city":"San Mateo","hometown_state":"CA"},{"name":"Jaimeon Winfield","year":2026,"position":"DL","stars":4,"rating_247":98.0,"committed_to":"Southern California","lat":32.9481789,"lng":-96.7297206,"hometown_city":"Richardson","hometown_state":"TX"},{"name":"Dylan Berymon","year":2026,"position":"DL","stars":4,"rating_247":94.0,"committed_to":"Nebraska","lat":32.5093109,"lng":-92.1193012,"hometown_city":"Monroe","hometown_state":"LA"},{"name":"Kevontay Hugan","year":2026,"position":"DL","stars":4,"rating_247":93.0,"committed_to":"Indiana","lat":27.3364347,"lng":-82.5306527,"hometown_city":"Sarasota","hometown_state":"FL"},{"name":"Anthony Kennedy Jr.","year":2026,"position":"DL","stars":3,"rating_247":90.0,"committed_to":"Arkansas","lat":34.7464809,"lng":-92.2895948,"hometown_city":"Little Rock","hometown_state":"AR"},{"name":"Jimmy-Phrisco Alo-Suliafu","year":2026,"position":"DL","stars":3,"rating_247":90.0,"committed_to":"North Carolina","lat":29.690292,"lng":-95.8996261,"hometown_city":"Fulshear","hometown_state":"TX"},{"name":"David Chukwuemeka","year":2026,"position":"DL","stars":null,"rating_247":90.0,"committed_to":"SMU","lat":37.1841,"lng":-119.4696,"hometown_city":"Monterey Park","hometown_state":"CA"},{"name":"Daryl Campbell","year":2026,"position":"DL","stars":3,"rating_247":88.0,"committed_to":"Vanderbilt","lat":29.7857853,"lng":-95.8243956,"hometown_city":"Katy","hometown_state":"TX"},{"name":"Tiki Hola","year":2026,"position":"DL","stars":4,"rating_247":88.0,"committed_to":"Notre Dame","lat":30.1104947,"lng":-97.3152701,"hometown_city":"Bastrop","hometown_state":"TX"},{"name":"Isaiah Broughton","year":2026,"position":"DL","stars":3,"rating_247":88.0,"committed_to":"Houston","lat":29.7589382,"lng":-95.3676974,"hometown_city":"Houston","hometown_state":"TX"},{"name":"Ayden Johnson","year":2026,"position":"DL","stars":3,"rating_247":88.0,"committed_to":"Texas Tech","lat":33.1570582,"lng":-94.9694007,"hometown_city":"Mount Pleasant","hometown_state":"TX"},{"name":"Kirt Vakalahi","year":2026,"position":"DL","stars":null,"rating_247":88.0,"committed_to":"Arizona State","lat":34.4071,"lng":-106.1126,"hometown_city":"Roswell","hometown_state":"NM"},{"name":"Jake Johnson","year":2026,"position":"DL","stars":3,"rating_247":87.0,"committed_to":"Southern California","lat":33.2385763,"lng":-96.7866058,"hometown_city":"Prosper","hometown_state":"TX"},{"name":"Xavier Fleming","year":2026,"position":"DL","stars":3,"rating_247":86.0,"committed_to":"Houston","lat":33.046233,"lng":-96.994174,"hometown_city":"Lewisville","hometown_state":"TX"},{"name":"Kaden Scherer","year":2026,"position":"DL","stars":3,"rating_247":86.0,"committed_to":"Texas","lat":30.671598,"lng":-97.65500660120435,"hometown_city":"Georgetown","hometown_state":"TX"},{"name":"Deuce Alailefaleula","year":2026,"position":"DL","stars":3,"rating_247":86.0,"committed_to":"Boise State","lat":61.2163129,"lng":-149.8948523,"hometown_city":"Anchorage","hometown_state":"AK"},{"name":"Uzziah Warmate","year":2026,"position":"DL","stars":3,"rating_247":86.0,"committed_to":"Sam Houston","lat":33.2150386,"lng":-97.1330516,"hometown_city":"Denton","hometown_state":"TX"},{"name":"Tavion Atkinson","year":2026,"position":"DL","stars":null,"rating_247":86.0,"committed_to":"SMU","lat":31.4757,"lng":-99.3312,"hometown_city":"Athens","hometown_state":"TX"},{"name":"Maddox Flynt","year":2026,"position":"DL","stars":3,"rating_247":85.0,"committed_to":"Texas Christian","lat":30.2711286,"lng":-97.7436995,"hometown_city":"Austin","hometown_state":"TX"},{"name":"Jeffrey Manns","year":2026,"position":"DL","stars":null,"rating_247":85.0,"committed_to":"Arizona State","lat":38.4937,"lng":-98.3804,"hometown_city":"Hutchinson","hometown_state":"KS"},{"name":"Cason Applewhite","year":2026,"position":"DL","stars":3,"rating_247":84.0,"committed_to":"North Texas","lat":31.7621153,"lng":-95.6307891,"hometown_city":"Palestine","hometown_state":"TX"},{"name":"Cam Christian","year":2026,"position":"DL","stars":null,"rating_247":84.0,"committed_to":"Texas State","lat":31.4757,"lng":-99.3312,"hometown_city":"Kilgore","hometown_state":"TX"},{"name":"Courage Osawe Jr.","year":2026,"position":"DL","stars":null,"rating_247":84.0,"committed_to":"North Texas","lat":37.1841,"lng":-119.4696,"hometown_city":"Oroville","hometown_state":"CA"},{"name":"Tyler Hagler","year":2026,"position":"DL","stars":3,"rating_247":83.0,"committed_to":null,"lat":32.7312256,"lng":-94.9469309,"hometown_city":"Gilmer","hometown_state":"TX"},{"name":"Carson Dempsey","year":2026,"position":"DL","stars":3,"rating_247":83.0,"committed_to":"Tulsa","lat":32.69900905,"lng":-97.60396629774493,"hometown_city":"Aledo","hometown_state":"TX"},{"name":"Micah Hampton","year":2026,"position":"DL","stars":null,"rating_247":81.0,"committed_to":"Louisiana-Monroe","lat":32.7364,"lng":-89.6678,"hometown_city":"Raymond","hometown_state":"MS"},{"name":"Willis Alexander","year":2026,"position":"DL","stars":null,"rating_247":null,"committed_to":null,"lat":35.5889,"lng":-97.4943,"hometown_city":"Oklahoma City","hometown_state":"OK"},{"name":"Brysen Maxwell-Steele","year":2026,"position":"DL","stars":null,"rating_247":null,"committed_to":"Stephen F. Austin","lat":31.4757,"lng":-99.3312,"hometown_city":"Marlin","hometown_state":"TX"},{"name":"DeMorey Beasley","year":2026,"position":"DL","stars":null,"rating_247":null,"committed_to":null,"lat":31.4757,"lng":-99.3312,"hometown_city":"Fort Worth","hometown_state":"TX"},{"name":"Carson Crawford","year":2026,"position":"LB","stars":3,"rating_247":92.0,"committed_to":"Colorado","lat":32.1570412,"lng":-94.338114,"hometown_city":"Carthage","hometown_state":"TX"},{"name":"Tank King","year":2026,"position":"LB","stars":4,"rating_247":91.0,"committed_to":"Texas A&M","lat":29.8988618,"lng":-93.9288723,"hometown_city":"Port Arthur","hometown_state":"TX"},{"name":"Ja'Michael Garrett","year":2026,"position":"LB","stars":null,"rating_247":88.0,"committed_to":"Mississippi","lat":31.0689,"lng":-91.9968,"hometown_city":"Baton Rouge","hometown_state":"LA"},{"name":"Reilarean Phillips","year":2026,"position":"LB","stars":3,"rating_247":87.0,"committed_to":"Tulsa","lat":29.7589382,"lng":-95.3676974,"hometown_city":"Houston","hometown_state":"TX"},{"name":"Bryson Castile","year":2026,"position":"LB","stars":3,"rating_247":87.0,"committed_to":"Houston","lat":32.701938999999996,"lng":-97.10562379033699,"hometown_city":"Arlington","hometown_state":"TX"},{"name":"Jamarion Phillips","year":2026,"position":"LB","stars":3,"rating_247":86.0,"committed_to":"Baylor","lat":32.7762719,"lng":-96.7968559,"hometown_city":"Dallas","hometown_state":"TX"},{"name":"Preston Hall","year":2026,"position":"LB","stars":3,"rating_247":86.0,"committed_to":"UCF","lat":29.6185669,"lng":-95.5377215,"hometown_city":"Missouri City","hometown_state":"TX"},{"name":"Tieson Ejiawoko","year":2026,"position":"LB","stars":3,"rating_247":86.0,"committed_to":null,"lat":30.671598,"lng":-97.65500660120435,"hometown_city":"Georgetown","hometown_state":"TX"},{"name":"Jahiem Porter","year":2026,"position":"LB","stars":null,"rating_247":86.0,"committed_to":"Baylor","lat":31.4757,"lng":-99.3312,"hometown_city":"Cedar Park","hometown_state":"TX"},{"name":"Tyray Darensburg","year":2026,"position":"LB","stars":3,"rating_247":85.0,"committed_to":"South Alabama","lat":29.9427892,"lng":-89.9629372,"hometown_city":"Chalmette","hometown_state":"LA"},{"name":"Michael McClenton","year":2026,"position":"LB","stars":3,"rating_247":85.0,"committed_to":"Appalachian State","lat":28.5421109,"lng":-81.3790304,"hometown_city":"Orlando","hometown_state":"FL"},{"name":"Braeden Lott","year":2026,"position":"LB","stars":3,"rating_247":85.0,"committed_to":"Texas-San Antonio","lat":30.2711286,"lng":-97.7436995,"hometown_city":"Austin","hometown_state":"TX"},{"name":"Darius Davis","year":2026,"position":"LB","stars":3,"rating_247":85.0,"committed_to":"Texas State","lat":29.8826436,"lng":-97.9405828,"hometown_city":"San Marcos","hometown_state":"TX"},{"name":"Demitris Mincey","year":2026,"position":"LB","stars":3,"rating_247":84.0,"committed_to":"Florida International","lat":26.1223084,"lng":-80.1433786,"hometown_city":"Fort Lauderdale","hometown_state":"FL"},{"name":"Japrei Wafer","year":2026,"position":"LB","stars":3,"rating_247":84.0,"committed_to":"Texas-El Paso","lat":33.1031744,"lng":-96.6705503,"hometown_city":"Allen","hometown_state":"TX"},{"name":"Brandon Brown","year":2026,"position":"LB","stars":3,"rating_247":84.0,"committed_to":"Texas-San Antonio","lat":30.6743643,"lng":-96.3699632,"hometown_city":"Bryan","hometown_state":"TX"},{"name":"Dylan Brasher","year":2026,"position":"LB","stars":null,"rating_247":84.0,"committed_to":"Tulane","lat":31.4757,"lng":-99.3312,"hometown_city":"Dripping Springs","hometown_state":"TX"},{"name":"Chris Thomas","year":2026,"position":"LB","stars":null,"rating_247":83.0,"committed_to":"Florida State","lat":32.7364,"lng":-89.6678,"hometown_city":"Senatobia","hometown_state":"MS"},{"name":"Jermar McCarter","year":2026,"position":"LB","stars":null,"rating_247":82.0,"committed_to":"Western Michigan","lat":32.7364,"lng":-89.6678,"hometown_city":"Raymond","hometown_state":"MS"},{"name":"Jamarri Vinson","year":2026,"position":"LB","stars":null,"rating_247":82.0,"committed_to":"Texas-San Antonio","lat":32.7364,"lng":-89.6678,"hometown_city":"Scooba","hometown_state":"MS"},{"name":"Justyce Betts","year":2026,"position":"LB","stars":null,"rating_247":82.0,"committed_to":"Western Michigan","lat":38.4937,"lng":-98.3804,"hometown_city":"El Dorado","hometown_state":"KS"},{"name":"Colton Hornsby","year":2026,"position":"LB","stars":null,"rating_247":82.0,"committed_to":"Abilene Christian","lat":31.4757,"lng":-99.3312,"hometown_city":"Spring Branch","hometown_state":"TX"},{"name":"Michael Dent III","year":2026,"position":"LB","stars":null,"rating_247":null,"committed_to":"Lafayette","lat":31.4757,"lng":-99.3312,"hometown_city":"Pflugerville","hometown_state":"TX"},{"name":"Kenneth Youngblood Jr.","year":2026,"position":"LB","stars":null,"rating_247":null,"committed_to":"Weber State","lat":31.4757,"lng":-99.3312,"hometown_city":"Cedar Hill","hometown_state":"TX"},{"name":"Alonzo Welch","year":2026,"position":"LB","stars":null,"rating_247":null,"committed_to":null,"lat":31.4757,"lng":-99.3312,"hometown_city":"Mesquite","hometown_state":"TX"},{"name":"Jermaine Bishop","year":2026,"position":"CB","stars":4,"rating_247":98.0,"committed_to":"Texas","lat":30.4241219,"lng":-95.4796587,"hometown_city":"Willis","hometown_state":"TX"},{"name":"Asaad Chapman","year":2026,"position":"CB","stars":null,"rating_247":90.0,"committed_to":"Texas-San Antonio","lat":37.1841,"lng":-119.4696,"hometown_city":"San Bernardino","hometown_state":"CA"},{"name":"Iverson McCoy","year":2026,"position":"CB","stars":3,"rating_247":90.0,"committed_to":"Mississippi","lat":34.2576067,"lng":-88.7033859,"hometown_city":"Tupelo","hometown_state":"MS"},{"name":"Almirian Thomas","year":2026,"position":"CB","stars":3,"rating_247":89.0,"committed_to":"Illinois","lat":26.6059432,"lng":-81.9806771,"hometown_city":"Cape Coral","hometown_state":"FL"},{"name":"Zach Taylor","year":2026,"position":"CB","stars":null,"rating_247":89.0,"committed_to":"Texas Christian","lat":31.4757,"lng":-99.3312,"hometown_city":"Fulshear","hometown_state":"TX"},{"name":"Deuce Gilbert","year":2026,"position":"CB","stars":null,"rating_247":88.0,"committed_to":"SMU","lat":31.4757,"lng":-99.3312,"hometown_city":"Forney","hometown_state":"TX"},{"name":"Isaiah Williams","year":2026,"position":"CB","stars":3,"rating_247":88.0,"committed_to":"Illinois","lat":38.6779591,"lng":-121.1760583,"hometown_city":"Folsom","hometown_state":"CA"},{"name":"Jakwon Morris","year":2026,"position":"CB","stars":null,"rating_247":88.0,"committed_to":"Illinois","lat":32.7364,"lng":-89.6678,"hometown_city":"Senatobia","hometown_state":"MS"},{"name":"Marcell Gipson Jr.","year":2026,"position":"CB","stars":null,"rating_247":87.0,"committed_to":"Clemson","lat":31.4757,"lng":-99.3312,"hometown_city":"Dallas","hometown_state":"TX"},{"name":"Isaiah McMillian","year":2026,"position":"CB","stars":3,"rating_247":87.0,"committed_to":"Kentucky","lat":29.7857853,"lng":-95.8243956,"hometown_city":"Katy","hometown_state":"TX"},{"name":"DaQuwan Dunn","year":2026,"position":"CB","stars":3,"rating_247":87.0,"committed_to":"Arizona State","lat":32.9481789,"lng":-96.7297206,"hometown_city":"Richardson","hometown_state":"TX"},{"name":"Bradley Brown","year":2026,"position":"CB","stars":3,"rating_247":87.0,"committed_to":"Vanderbilt","lat":33.0136764,"lng":-96.6925096,"hometown_city":"Plano","hometown_state":"TX"},{"name":"Brock King","year":2026,"position":"CB","stars":3,"rating_247":86.0,"committed_to":"Texas Christian","lat":29.8988618,"lng":-93.9288723,"hometown_city":"Port Arthur","hometown_state":"TX"},{"name":"Davin Hill","year":2026,"position":"CB","stars":null,"rating_247":86.0,"committed_to":"Boise State","lat":31.4757,"lng":-99.3312,"hometown_city":"Arlington","hometown_state":"TX"},{"name":"Tre Webb III","year":2026,"position":"CB","stars":null,"rating_247":86.0,"committed_to":"South Alabama","lat":32.7364,"lng":-89.6678,"hometown_city":"Wesson","hometown_state":"MS"},{"name":"Brandon Holmes","year":2026,"position":"CB","stars":null,"rating_247":86.0,"committed_to":"Utah","lat":37.1841,"lng":-119.4696,"hometown_city":"Fresno","hometown_state":"CA"},{"name":"Mojo Williams Jr.","year":2026,"position":"CB","stars":null,"rating_247":85.0,"committed_to":"Colorado","lat":31.0689,"lng":-91.9968,"hometown_city":"New Orleans","hometown_state":"LA"},{"name":"Jeremy Garner II","year":2026,"position":"CB","stars":3,"rating_247":85.0,"committed_to":"Vanderbilt","lat":29.3521203,"lng":-95.460341,"hometown_city":"Rosharon","hometown_state":"TX"},{"name":"Brandon Ford","year":2026,"position":"CB","stars":3,"rating_247":85.0,"committed_to":"Arkansas","lat":32.5782835,"lng":-97.3609829,"hometown_city":"Crowley","hometown_state":"TX"},{"name":"Jayden Flournoy","year":2026,"position":"CB","stars":3,"rating_247":85.0,"committed_to":"Texas State","lat":32.5420821,"lng":-97.3208492,"hometown_city":"Burleson","hometown_state":"TX"},{"name":"DJ Hairston","year":2026,"position":"CB","stars":null,"rating_247":85.0,"committed_to":"Arkansas","lat":32.7364,"lng":-89.6678,"hometown_city":"Raymond","hometown_state":"MS"},{"name":"Syncere Berry","year":2026,"position":"CB","stars":3,"rating_247":84.0,"committed_to":"Appalachian State","lat":33.7490987,"lng":-84.3901849,"hometown_city":"Atlanta","hometown_state":"GA"},{"name":"Jordan Turner","year":2026,"position":"CB","stars":null,"rating_247":84.0,"committed_to":"Troy","lat":32.6415,"lng":-83.4426,"hometown_city":"Milledgeville","hometown_state":"GA"},{"name":"Daniel Pickens","year":2026,"position":"CB","stars":null,"rating_247":84.0,"committed_to":"Old Dominion","lat":32.7364,"lng":-89.6678,"hometown_city":"Poplarville","hometown_state":"MS"},{"name":"Tai Terrell","year":2026,"position":"CB","stars":null,"rating_247":83.0,"committed_to":"Troy","lat":32.7364,"lng":-89.6678,"hometown_city":"Decatur","hometown_state":"MS"},{"name":"Janard Lockhardt","year":2026,"position":"CB","stars":null,"rating_247":83.0,"committed_to":"Louisiana Tech","lat":31.4757,"lng":-99.3312,"hometown_city":"Tyler","hometown_state":"TX"},{"name":"Marc Gouldsby Jr.","year":2026,"position":"CB","stars":null,"rating_247":82.0,"committed_to":null,"lat":35.5889,"lng":-97.4943,"hometown_city":"Miami","hometown_state":"OK"},{"name":"Tradarius Smith","year":2026,"position":"CB","stars":null,"rating_247":82.0,"committed_to":"Charlotte","lat":32.7364,"lng":-89.6678,"hometown_city":"Poplarville","hometown_state":"MS"},{"name":"Shareef Jackson","year":2026,"position":"CB","stars":null,"rating_247":82.0,"committed_to":"Mercer","lat":28.6305,"lng":-82.4497,"hometown_city":"Jacksonville","hometown_state":"FL"},{"name":"Jamison Starks","year":2026,"position":"CB","stars":null,"rating_247":null,"committed_to":null,"lat":37.1841,"lng":-119.4696,"hometown_city":"Los Altos","hometown_state":"CA"},{"name":"Janard Lockhart","year":2026,"position":"CB","stars":null,"rating_247":null,"committed_to":null,"lat":31.4757,"lng":-99.3312,"hometown_city":"Tyler","hometown_state":"TX"},{"name":"Chance Collins","year":2026,"position":"S","stars":4,"rating_247":91.0,"committed_to":"Texas A&M","lat":32.701938999999996,"lng":-97.10562379033699,"hometown_city":"Arlington","hometown_state":"TX"},{"name":"Jordan Deck","year":2026,"position":"S","stars":4,"rating_247":90.0,"committed_to":"Michigan","lat":33.1506744,"lng":-96.8236116,"hometown_city":"Frisco","hometown_state":"TX"},{"name":"Chace Calicut","year":2026,"position":"S","stars":4,"rating_247":88.0,"committed_to":"Georgia Southern","lat":29.7589382,"lng":-95.3676974,"hometown_city":"Houston","hometown_state":"TX"},{"name":"Darnell Collins","year":2026,"position":"S","stars":3,"rating_247":88.0,"committed_to":"Georgia Tech","lat":34.257038,"lng":-85.1646726,"hometown_city":"Rome","hometown_state":"GA"},{"name":"Jakai Anderson","year":2026,"position":"S","stars":4,"rating_247":88.0,"committed_to":"SMU","lat":29.9499323,"lng":-90.0701156,"hometown_city":"New Orleans","hometown_state":"LA"},{"name":"Markel Ford","year":2026,"position":"S","stars":3,"rating_247":88.0,"committed_to":"Oklahoma","lat":32.7666103,"lng":-96.599472,"hometown_city":"Mesquite","hometown_state":"TX"},{"name":"Archie Chambers","year":2026,"position":"S","stars":null,"rating_247":87.0,"committed_to":"Texas-San Antonio","lat":32.7364,"lng":-89.6678,"hometown_city":"Wesson","hometown_state":"MS"},{"name":"Karaijus Hayes","year":2026,"position":"S","stars":3,"rating_247":86.0,"committed_to":"Florida International","lat":27.3364347,"lng":-82.5306527,"hometown_city":"Sarasota","hometown_state":"FL"},{"name":"Kah'ni Watts","year":2026,"position":"S","stars":null,"rating_247":86.0,"committed_to":"Wisconsin","lat":31.4757,"lng":-99.3312,"hometown_city":"Iowa Colony","hometown_state":"TX"},{"name":"Tylen Mathews","year":2026,"position":"S","stars":3,"rating_247":86.0,"committed_to":"Nevada, Las Vegas","lat":34.9042635,"lng":-90.2145395,"hometown_city":"Lake Cormorant","hometown_state":"MS"},{"name":"Jarvse Dickerson","year":2026,"position":"S","stars":null,"rating_247":86.0,"committed_to":"Texas-San Antonio","lat":31.4757,"lng":-99.3312,"hometown_city":"Wallis","hometown_state":"TX"},{"name":"Kane White-Tinsley","year":2026,"position":"S","stars":3,"rating_247":86.0,"committed_to":"Texas-El Paso","lat":34.9798392,"lng":-101.9193395,"hometown_city":"Canyon","hometown_state":"TX"},{"name":"Doug Nelson","year":2026,"position":"S","stars":null,"rating_247":86.0,"committed_to":"Troy","lat":32.7364,"lng":-89.6678,"hometown_city":"Wesson","hometown_state":"MS"},{"name":"Dre Riley","year":2026,"position":"S","stars":null,"rating_247":86.0,"committed_to":"Mississippi State","lat":32.7364,"lng":-89.6678,"hometown_city":"Senatobia","hometown_state":"MS"},{"name":"Aaron Edwards","year":2026,"position":"S","stars":null,"rating_247":86.0,"committed_to":null,"lat":35.5889,"lng":-97.4943,"hometown_city":"Miami","hometown_state":"OK"},{"name":"Kyle Hall","year":2026,"position":"S","stars":null,"rating_247":86.0,"committed_to":"Boise State","lat":37.1841,"lng":-119.4696,"hometown_city":"San Mateo","hometown_state":"CA"},{"name":"Rocky Dunn","year":2026,"position":"S","stars":3,"rating_247":85.0,"committed_to":"Boise State","lat":33.2860549,"lng":-96.5725952,"hometown_city":"Melissa","hometown_state":"TX"},{"name":"Braylon Edwards","year":2026,"position":"S","stars":3,"rating_247":85.0,"committed_to":"Colorado","lat":32.6518004,"lng":-96.9083366,"hometown_city":"Duncanville","hometown_state":"TX"},{"name":"Rickey Giles Jr.","year":2026,"position":"S","stars":null,"rating_247":85.0,"committed_to":"West Virginia","lat":31.4757,"lng":-99.3312,"hometown_city":"Dallas","hometown_state":"TX"},{"name":"Willie Nelson","year":2026,"position":"S","stars":null,"rating_247":85.0,"committed_to":"Texas-San Antonio","lat":31.4757,"lng":-99.3312,"hometown_city":"Tyler","hometown_state":"TX"},{"name":"Griffin Tillis","year":2026,"position":"S","stars":3,"rating_247":84.0,"committed_to":null,"lat":30.0798826,"lng":-95.4172549,"hometown_city":"Spring","hometown_state":"TX"},{"name":"Carter Stewart","year":2026,"position":"S","stars":3,"rating_247":84.0,"committed_to":"Missouri","lat":29.5639758,"lng":-95.2864299,"hometown_city":"Pearland","hometown_state":"TX"},{"name":"Hayden West","year":2026,"position":"S","stars":3,"rating_247":84.0,"committed_to":null,"lat":32.8809603,"lng":-97.155012,"hometown_city":"Colleyville","hometown_state":"TX"},{"name":"Orel Gray","year":2026,"position":"S","stars":null,"rating_247":83.0,"committed_to":"Temple","lat":32.7364,"lng":-89.6678,"hometown_city":"Fulton","hometown_state":"MS"},{"name":"Jakalen Sheffield","year":2026,"position":"S","stars":null,"rating_247":82.0,"committed_to":"Stephen F. Austin","lat":31.4757,"lng":-99.3312,"hometown_city":"Kilgore","hometown_state":"TX"},{"name":"Jamarion Keyes","year":2026,"position":"S","stars":null,"rating_247":82.0,"committed_to":"Troy","lat":32.7364,"lng":-89.6678,"hometown_city":"Senatobia","hometown_state":"MS"},{"name":"Kam Robinson","year":2026,"position":"S","stars":null,"rating_247":82.0,"committed_to":"South Alabama","lat":32.7364,"lng":-89.6678,"hometown_city":"Goodman","hometown_state":"MS"},{"name":"Keondre Ponton","year":2026,"position":"S","stars":null,"rating_247":null,"committed_to":null,"lat":28.6305,"lng":-82.4497,"hometown_city":"Miami","hometown_state":"FL"},{"name":"Jalen Lott","year":2026,"position":"ATH","stars":5,"rating_247":97.0,"committed_to":"Oregon","lat":33.1506744,"lng":-96.8236116,"hometown_city":"Frisco","hometown_state":"TX"},{"name":"Davian Groce","year":2026,"position":"ATH","stars":4,"rating_247":96.0,"committed_to":"Florida","lat":33.1506744,"lng":-96.8236116,"hometown_city":"Frisco","hometown_state":"TX"},{"name":"Ryelan Morris","year":2026,"position":"ATH","stars":4,"rating_247":91.0,"committed_to":"Baylor","lat":33.5834377,"lng":-95.9099681,"hometown_city":"Honey Grove","hometown_state":"TX"},{"name":"London Smith","year":2026,"position":"ATH","stars":4,"rating_247":90.0,"committed_to":"Baylor","lat":31.549333,"lng":-97.1466695,"hometown_city":"Waco","hometown_state":"TX"},{"name":"La'Keyleon Graves","year":2026,"position":"ATH","stars":null,"rating_247":90.0,"committed_to":"Texas State","lat":31.4757,"lng":-99.3312,"hometown_city":"Kilgore","hometown_state":"TX"},{"name":"X'Zavier Barnett","year":2026,"position":"ATH","stars":3,"rating_247":89.0,"committed_to":"SMU","lat":29.289352,"lng":-97.1492978,"hometown_city":"Yoakum","hometown_state":"TX"},{"name":"Dequane Prevo","year":2026,"position":"ATH","stars":4,"rating_247":89.0,"committed_to":"Arkansas","lat":36.3728538,"lng":-94.2088172,"hometown_city":"Bentonville","hometown_state":"AR"},{"name":"Kentrell White","year":2026,"position":"ATH","stars":3,"rating_247":88.0,"committed_to":"Bowling Green","lat":33.7490987,"lng":-84.3901849,"hometown_city":"Atlanta","hometown_state":"GA"},{"name":"I'Zayah Young","year":2026,"position":"ATH","stars":null,"rating_247":87.0,"committed_to":"SMU","lat":31.4757,"lng":-99.3312,"hometown_city":"San Marcos","hometown_state":"TX"},{"name":"G'Ivori Graham","year":2026,"position":"ATH","stars":3,"rating_247":87.0,"committed_to":"Texas Christian","lat":29.4246002,"lng":-98.4951405,"hometown_city":"San Antonio","hometown_state":"TX"},{"name":"Jaden Parker","year":2026,"position":"ATH","stars":3,"rating_247":87.0,"committed_to":"Arizona","lat":33.34928,"lng":-96.54938,"hometown_city":"Anna","hometown_state":"TX"},{"name":"Aaron Bradshaw","year":2026,"position":"ATH","stars":3,"rating_247":87.0,"committed_to":"Texas Tech","lat":32.753177,"lng":-97.3327459,"hometown_city":"Fort Worth","hometown_state":"TX"},{"name":"Kaedyn Cobbs","year":2026,"position":"ATH","stars":3,"rating_247":86.0,"committed_to":"Illinois","lat":33.2150386,"lng":-97.1330516,"hometown_city":"Denton","hometown_state":"TX"},{"name":"Chantz Babineaux","year":2026,"position":"ATH","stars":3,"rating_247":86.0,"committed_to":"Nicholls","lat":30.2240897,"lng":-92.0198427,"hometown_city":"Lafayette","hometown_state":"LA"},{"name":"Jorden Prince","year":2026,"position":"ATH","stars":null,"rating_247":86.0,"committed_to":null,"lat":31.4757,"lng":-99.3312,"hometown_city":"Beckville","hometown_state":"TX"},{"name":"Ziondre Williams","year":2026,"position":"ATH","stars":3,"rating_247":85.0,"committed_to":"North Texas","lat":33.34928,"lng":-96.54938,"hometown_city":"Anna","hometown_state":"TX"},{"name":"Cedric Ross","year":2026,"position":"ATH","stars":3,"rating_247":84.0,"committed_to":"Colorado State","lat":33.5635206,"lng":-101.879336,"hometown_city":"Lubbock","hometown_state":"TX"},{"name":"Kenny Golston","year":2026,"position":"ATH","stars":null,"rating_247":84.0,"committed_to":"Idaho","lat":35.5889,"lng":-97.4943,"hometown_city":"Valliant","hometown_state":"OK"},{"name":"Nicholas Tramble","year":2026,"position":"ATH","stars":3,"rating_247":83.0,"committed_to":"Prairie View A&M","lat":29.7589382,"lng":-95.3676974,"hometown_city":"Houston","hometown_state":"TX"},{"name":"Jerrod Williams","year":2026,"position":"ATH","stars":3,"rating_247":83.0,"committed_to":null,"lat":35.4729886,"lng":-97.5170536,"hometown_city":"Oklahoma City","hometown_state":"OK"},{"name":"Camen Upshaw","year":2026,"position":"ATH","stars":3,"rating_247":83.0,"committed_to":"South Alabama","lat":30.8327022,"lng":-83.2784851,"hometown_city":"Valdosta","hometown_state":"GA"},{"name":"Mason Manning","year":2026,"position":"ATH","stars":null,"rating_247":82.0,"committed_to":"Lamar","lat":31.4757,"lng":-99.3312,"hometown_city":"Orange","hometown_state":"TX"},{"name":"Quincy Shelton","year":2026,"position":"ATH","stars":null,"rating_247":null,"committed_to":null,"lat":35.5889,"lng":-97.4943,"hometown_city":"Hugo","hometown_state":"OK"},{"name":"Braylon Johnson","year":2026,"position":"ATH","stars":null,"rating_247":null,"committed_to":"Air Force","lat":31.4757,"lng":-99.3312,"hometown_city":"Falls City","hometown_state":"TX"},{"name":"Cade Wallace","year":2026,"position":"ATH","stars":null,"rating_247":null,"committed_to":"Stephen F. Austin","lat":31.4757,"lng":-99.3312,"hometown_city":"Grand Prairie","hometown_state":"TX"},{"name":"Stryker Reed","year":2026,"position":"ATH","stars":null,"rating_247":null,"committed_to":"Air Force","lat":31.4757,"lng":-99.3312,"hometown_city":"Gordon","hometown_state":"TX"},{"name":"Trey Mosley","year":2026,"position":"ATH","stars":null,"rating_247":null,"committed_to":null,"lat":31.4757,"lng":-99.3312,"hometown_city":"Fort Worth","hometown_state":"TX"},{"name":"Jovan Freeney","year":2026,"position":"ATH","stars":null,"rating_247":null,"committed_to":null,"lat":32.6415,"lng":-83.4426,"hometown_city":"Fairburn","hometown_state":"GA"},{"name":"Zachary Hays","year":2026,"position":"P","stars":3,"rating_247":82.0,"committed_to":"Texas Christian","lat":32.9412363,"lng":-97.1341783,"hometown_city":"Southlake","hometown_state":"TX"},{"name":"William Hodges","year":2026,"position":"LS","stars":null,"rating_247":79.0,"committed_to":"Texas-San Antonio","lat":32.7364,"lng":-89.6678,"hometown_city":"Ellisville","hometown_state":"MS"}],"2027":[{"name":"Kavian Bryant","year":2027,"position":"QB","stars":null,"rating_247":93.0,"committed_to":"Texas Tech","lat":31.4757,"lng":-99.3312,"hometown_city":"Palestine","hometown_state":"TX"},{"name":"Weston Nielsen","year":2027,"position":"QB","stars":null,"rating_247":89.0,"committed_to":"Arizona State","lat":31.4757,"lng":-99.3312,"hometown_city":"Bastrop","hometown_state":"TX"},{"name":"Luke Babin","year":2027,"position":"QB","stars":null,"rating_247":88.0,"committed_to":"Baylor","lat":31.4757,"lng":-99.3312,"hometown_city":"Woodville","hometown_state":"TX"},{"name":"Braden Baker","year":2027,"position":"QB","stars":null,"rating_247":88.0,"committed_to":"Houston","lat":31.4757,"lng":-99.3312,"hometown_city":"Cypress","hometown_state":"TX"},{"name":"Greydon Howell","year":2027,"position":"QB","stars":null,"rating_247":88.0,"committed_to":"Oklahoma","lat":35.5889,"lng":-97.4943,"hometown_city":"Broken Bow","hometown_state":"OK"},{"name":"Ty Knutson","year":2027,"position":"QB","stars":null,"rating_247":87.0,"committed_to":"Texas","lat":31.4757,"lng":-99.3312,"hometown_city":"Spring Branch","hometown_state":"TX"},{"name":"Grant Sweeney","year":2027,"position":"QB","stars":null,"rating_247":86.0,"committed_to":null,"lat":31.4757,"lng":-99.3312,"hometown_city":"Boerne","hometown_state":"TX"},{"name":"Brice McCurdy","year":2027,"position":"QB","stars":null,"rating_247":86.0,"committed_to":"Texas Christian","lat":31.4757,"lng":-99.3312,"hometown_city":"Robinson","hometown_state":"TX"},{"name":"Sladen Shack","year":2027,"position":"QB","stars":null,"rating_247":86.0,"committed_to":"Illinois","lat":32.7364,"lng":-89.6678,"hometown_city":"Brandon","hometown_state":"MS"},{"name":"Jerry Meyer III","year":2027,"position":"QB","stars":null,"rating_247":85.0,"committed_to":"South Carolina","lat":31.4757,"lng":-99.3312,"hometown_city":"Waxahachie","hometown_state":"TX"},{"name":"Camden Hughes","year":2027,"position":"QB","stars":null,"rating_247":85.0,"committed_to":"Cincinnati","lat":31.4757,"lng":-99.3312,"hometown_city":"The Woodlands","hometown_state":"TX"},{"name":"Tammeron Anderson","year":2027,"position":"QB","stars":null,"rating_247":85.0,"committed_to":"Louisiana","lat":31.4757,"lng":-99.3312,"hometown_city":"Beaumont","hometown_state":"TX"},{"name":"Jack Devine","year":2027,"position":"QB","stars":null,"rating_247":84.0,"committed_to":"San Diego State","lat":31.4757,"lng":-99.3312,"hometown_city":"Austin","hometown_state":"TX"},{"name":"Noah Spinks","year":2027,"position":"QB","stars":null,"rating_247":83.0,"committed_to":"North Carolina","lat":31.4757,"lng":-99.3312,"hometown_city":"Humble","hometown_state":"TX"},{"name":"Julian Navarrete","year":2027,"position":"QB","stars":null,"rating_247":null,"committed_to":"Southern Mississippi","lat":31.4757,"lng":-99.3312,"hometown_city":"Boerne","hometown_state":"TX"},{"name":"Rogan Parson","year":2027,"position":"QB","stars":null,"rating_247":null,"committed_to":null,"lat":31.4757,"lng":-99.3312,"hometown_city":"San Antonio","hometown_state":"TX"},{"name":"Wynter Smith","year":2027,"position":"QB","stars":null,"rating_247":null,"committed_to":null,"lat":31.4757,"lng":-99.3312,"hometown_city":"San Antonio","hometown_state":"TX"},{"name":"Nolan Mitchell","year":2027,"position":"QB","stars":null,"rating_247":null,"committed_to":null,"lat":31.4757,"lng":-99.3312,"hometown_city":"Lumberton","hometown_state":"TX"},{"name":"Zephyr Kreye","year":2027,"position":"QB","stars":null,"rating_247":null,"committed_to":null,"lat":31.4757,"lng":-99.3312,"hometown_city":"Anna","hometown_state":"TX"},{"name":"Maximus The Great Denson","year":2027,"position":"QB","stars":null,"rating_247":null,"committed_to":null,"lat":31.4757,"lng":-99.3312,"hometown_city":"Duncanville","hometown_state":"TX"},{"name":"Zavion Deshazier","year":2027,"position":"QB","stars":null,"rating_247":null,"committed_to":null,"lat":32.6415,"lng":-83.4426,"hometown_city":"Macon","hometown_state":"GA"},{"name":"Khylan Davis","year":2027,"position":"QB","stars":null,"rating_247":null,"committed_to":"Texas-San Antonio","lat":31.4757,"lng":-99.3312,"hometown_city":"Houston","hometown_state":"TX"},{"name":"Buck Randall","year":2027,"position":"QB","stars":null,"rating_247":null,"committed_to":null,"lat":31.4757,"lng":-99.3312,"hometown_city":"Dallas","hometown_state":"TX"},{"name":"Landen Williams-Callis","year":2027,"position":"RB","stars":null,"rating_247":95.0,"committed_to":null,"lat":31.4757,"lng":-99.3312,"hometown_city":"Richmond","hometown_state":"TX"},{"name":"SaRod Baker","year":2027,"position":"RB","stars":null,"rating_247":94.0,"committed_to":"Texas Tech","lat":31.4757,"lng":-99.3312,"hometown_city":"DeSoto","hometown_state":"TX"},{"name":"Aiden Gibson","year":2027,"position":"RB","stars":null,"rating_247":93.0,"committed_to":"Penn State","lat":33.9169,"lng":-80.8964,"hometown_city":"Woodruff","hometown_state":"SC"},{"name":"CaDarius McMiller","year":2027,"position":"RB","stars":null,"rating_247":90.0,"committed_to":"Oregon","lat":31.4757,"lng":-99.3312,"hometown_city":"Tyler","hometown_state":"TX"},{"name":"Lathan Whisenton","year":2027,"position":"RB","stars":null,"rating_247":90.0,"committed_to":"Notre Dame","lat":31.4757,"lng":-99.3312,"hometown_city":"Waco","hometown_state":"TX"},{"name":"Daylon Gordon","year":2027,"position":"RB","stars":null,"rating_247":90.0,"committed_to":"Texas State","lat":31.4757,"lng":-99.3312,"hometown_city":"Wylie","hometown_state":"TX"},{"name":"Keldrid Ben","year":2027,"position":"RB","stars":null,"rating_247":90.0,"committed_to":"Oklahoma","lat":31.4757,"lng":-99.3312,"hometown_city":"Montgomery","hometown_state":"TX"},{"name":"Ty Keys","year":2027,"position":"RB","stars":null,"rating_247":90.0,"committed_to":"Miami","lat":32.7364,"lng":-89.6678,"hometown_city":"Poplarville","hometown_state":"MS"},{"name":"Elijah Kimble","year":2027,"position":"RB","stars":null,"rating_247":89.0,"committed_to":null,"lat":42.9538,"lng":-75.5268,"hometown_city":"Buffalo","hometown_state":"NY"},{"name":"Javian Jones-Priest","year":2027,"position":"RB","stars":null,"rating_247":89.0,"committed_to":"Virginia Tech","lat":31.4757,"lng":-99.3312,"hometown_city":"Arlington","hometown_state":"TX"},{"name":"Jayshon Gibson","year":2027,"position":"RB","stars":null,"rating_247":88.0,"committed_to":"UCLA","lat":31.4757,"lng":-99.3312,"hometown_city":"North Richland Hills","hometown_state":"TX"},{"name":"Wayne Shanks Jr.","year":2027,"position":"RB","stars":null,"rating_247":88.0,"committed_to":"Arizona","lat":31.4757,"lng":-99.3312,"hometown_city":"Houston","hometown_state":"TX"},{"name":"Tristan Willis","year":2027,"position":"RB","stars":null,"rating_247":88.0,"committed_to":"Georgia Tech","lat":31.4757,"lng":-99.3312,"hometown_city":"Houston","hometown_state":"TX"},{"name":"Jeremiah Dent","year":2027,"position":"RB","stars":null,"rating_247":88.0,"committed_to":"Arkansas","lat":34.8938,"lng":-92.4426,"hometown_city":"Marion","hometown_state":"AR"},{"name":"Victor Scott","year":2027,"position":"RB","stars":null,"rating_247":87.0,"committed_to":"North Texas","lat":31.4757,"lng":-99.3312,"hometown_city":"Lancaster","hometown_state":"TX"},{"name":"Devine Duhon","year":2027,"position":"RB","stars":null,"rating_247":87.0,"committed_to":null,"lat":31.0689,"lng":-91.9968,"hometown_city":"Jeanerette","hometown_state":"LA"},{"name":"Correll Buckhalter Jr.","year":2027,"position":"RB","stars":null,"rating_247":87.0,"committed_to":"Kansas State","lat":31.4757,"lng":-99.3312,"hometown_city":"Argyle","hometown_state":"TX"},{"name":"Kylan Bobo","year":2027,"position":"RB","stars":null,"rating_247":87.0,"committed_to":null,"lat":32.7364,"lng":-89.6678,"hometown_city":"Tupelo","hometown_state":"MS"},{"name":"Antwon Sanders","year":2027,"position":"RB","stars":null,"rating_247":86.0,"committed_to":"California","lat":31.4757,"lng":-99.3312,"hometown_city":"Houston","hometown_state":"TX"},{"name":"Jakoby Dixon","year":2027,"position":"RB","stars":null,"rating_247":86.0,"committed_to":"Oklahoma","lat":31.4757,"lng":-99.3312,"hometown_city":"Brenham","hometown_state":"TX"},{"name":"Carter Wallace","year":2027,"position":"RB","stars":null,"rating_247":85.0,"committed_to":"Arkansas State","lat":34.8938,"lng":-92.4426,"hometown_city":"Jonesboro","hometown_state":"AR"},{"name":"Kingston Mays","year":2027,"position":"RB","stars":null,"rating_247":84.0,"committed_to":null,"lat":32.7364,"lng":-89.6678,"hometown_city":"Brandon","hometown_state":"MS"},{"name":"Curtis Zeno Jr.","year":2027,"position":"RB","stars":null,"rating_247":82.0,"committed_to":null,"lat":31.4757,"lng":-99.3312,"hometown_city":"Katy","hometown_state":"TX"},{"name":"Brandon Smith Jr.","year":2027,"position":"RB","stars":null,"rating_247":null,"committed_to":null,"lat":31.4757,"lng":-99.3312,"hometown_city":"Richmond","hometown_state":"TX"},{"name":"Jordan Smith","year":2027,"position":"RB","stars":null,"rating_247":null,"committed_to":"Texas-San Antonio","lat":31.4757,"lng":-99.3312,"hometown_city":"Waxahachie","hometown_state":"TX"},{"name":"Ja'Marlon Mooring","year":2027,"position":"RB","stars":null,"rating_247":null,"committed_to":null,"lat":31.4757,"lng":-99.3312,"hometown_city":"College Station","hometown_state":"TX"},{"name":"Yogi Martin Jr.","year":2027,"position":"RB","stars":null,"rating_247":null,"committed_to":null,"lat":31.4757,"lng":-99.3312,"hometown_city":"Cypress","hometown_state":"TX"},{"name":"Cameron Grady","year":2027,"position":"RB","stars":null,"rating_247":null,"committed_to":null,"lat":31.4757,"lng":-99.3312,"hometown_city":"San Antonio","hometown_state":"TX"},{"name":"Cordai Woodard","year":2027,"position":"RB","stars":null,"rating_247":null,"committed_to":null,"lat":31.4757,"lng":-99.3312,"hometown_city":"Forney","hometown_state":"TX"},{"name":"Kamari Smith","year":2027,"position":"RB","stars":null,"rating_247":null,"committed_to":null,"lat":28.6305,"lng":-82.4497,"hometown_city":"Lake Wales","hometown_state":"FL"},{"name":"Juelz Carter","year":2027,"position":"RB","stars":null,"rating_247":null,"committed_to":null,"lat":31.4757,"lng":-99.3312,"hometown_city":"Anna","hometown_state":"TX"},{"name":"Julian Baker","year":2027,"position":"RB","stars":null,"rating_247":null,"committed_to":"Kent State","lat":40.2862,"lng":-82.7937,"hometown_city":"Washington Court House","hometown_state":"OH"},{"name":"Jordyn Kees","year":2027,"position":"RB","stars":null,"rating_247":null,"committed_to":null,"lat":32.7364,"lng":-89.6678,"hometown_city":"Brookhaven","hometown_state":"MS"},{"name":"Jordan Smith","year":2027,"position":"RB","stars":null,"rating_247":null,"committed_to":"Texas-San Antonio","lat":31.4757,"lng":-99.3312,"hometown_city":"Waxahachie","hometown_state":"TX"},{"name":"Kash Schwab","year":2027,"position":"RB","stars":null,"rating_247":null,"committed_to":"Nevada, Las Vegas","lat":31.4757,"lng":-99.3312,"hometown_city":"Cypress","hometown_state":"TX"},{"name":"Alvin Mosley","year":2027,"position":"WR","stars":null,"rating_247":92.0,"committed_to":null,"lat":31.4757,"lng":-99.3312,"hometown_city":"Rosharon","hometown_state":"TX"},{"name":"Briceson Thrower Jr.","year":2027,"position":"WR","stars":null,"rating_247":91.0,"committed_to":"Texas","lat":31.4757,"lng":-99.3312,"hometown_city":"Forney","hometown_state":"TX"},{"name":"Tre Moore","year":2027,"position":"WR","stars":null,"rating_247":90.0,"committed_to":"Washington","lat":31.4757,"lng":-99.3312,"hometown_city":"Pflugerville","hometown_state":"TX"},{"name":"Trenton Yancey","year":2027,"position":"WR","stars":null,"rating_247":90.0,"committed_to":"Purdue","lat":31.4757,"lng":-99.3312,"hometown_city":"Duncanville","hometown_state":"TX"},{"name":"Ty Johnson","year":2027,"position":"WR","stars":null,"rating_247":90.0,"committed_to":null,"lat":37.1841,"lng":-119.4696,"hometown_city":"Irvine","hometown_state":"CA"},{"name":"Trey Haralson","year":2027,"position":"WR","stars":null,"rating_247":89.0,"committed_to":"SMU","lat":31.4757,"lng":-99.3312,"hometown_city":"Tyler","hometown_state":"TX"},{"name":"Davion Vanderbilt","year":2027,"position":"WR","stars":null,"rating_247":89.0,"committed_to":"Maryland","lat":31.4757,"lng":-99.3312,"hometown_city":"Channelview","hometown_state":"TX"},{"name":"Miguel Whitley","year":2027,"position":"WR","stars":null,"rating_247":88.0,"committed_to":"Mississippi","lat":31.0689,"lng":-91.9968,"hometown_city":"New Orleans","hometown_state":"LA"},{"name":"Javon Vital","year":2027,"position":"WR","stars":null,"rating_247":88.0,"committed_to":"Southern California","lat":31.0689,"lng":-91.9968,"hometown_city":"Lake Charles","hometown_state":"LA"},{"name":"Gary Burney Jr.","year":2027,"position":"WR","stars":null,"rating_247":88.0,"committed_to":"Houston","lat":31.0689,"lng":-91.9968,"hometown_city":"Bossier City","hometown_state":"LA"},{"name":"Tycen Johnson","year":2027,"position":"WR","stars":null,"rating_247":88.0,"committed_to":"Arizona State","lat":37.1841,"lng":-119.4696,"hometown_city":"Temecula","hometown_state":"CA"},{"name":"Kobe Haynes","year":2027,"position":"WR","stars":null,"rating_247":88.0,"committed_to":null,"lat":31.4757,"lng":-99.3312,"hometown_city":"Whitney","hometown_state":"TX"},{"name":"Kyron Brown","year":2027,"position":"WR","stars":null,"rating_247":88.0,"committed_to":null,"lat":31.4757,"lng":-99.3312,"hometown_city":"Amarillo","hometown_state":"TX"},{"name":"Hunter Haug","year":2027,"position":"WR","stars":null,"rating_247":88.0,"committed_to":null,"lat":31.4757,"lng":-99.3312,"hometown_city":"Spring Branch","hometown_state":"TX"},{"name":"Landon Williams","year":2027,"position":"WR","stars":null,"rating_247":87.0,"committed_to":null,"lat":31.4757,"lng":-99.3312,"hometown_city":"Fulshear","hometown_state":"TX"},{"name":"Brody Knowles","year":2027,"position":"WR","stars":null,"rating_247":87.0,"committed_to":null,"lat":31.4757,"lng":-99.3312,"hometown_city":"Southlake","hometown_state":"TX"},{"name":"Donovan McNabb Jr.","year":2027,"position":"WR","stars":null,"rating_247":87.0,"committed_to":null,"lat":34.2744,"lng":-111.6602,"hometown_city":"Phoenix","hometown_state":"AZ"},{"name":"Ray'Quan Williams","year":2027,"position":"WR","stars":null,"rating_247":87.0,"committed_to":"Tulane","lat":31.0689,"lng":-91.9968,"hometown_city":"New Orleans","hometown_state":"LA"},{"name":"Bryson Thompson","year":2027,"position":"WR","stars":null,"rating_247":87.0,"committed_to":"Iowa State","lat":31.4757,"lng":-99.3312,"hometown_city":"San Antonio","hometown_state":"TX"},{"name":"Brian Manuel Jr.","year":2027,"position":"WR","stars":null,"rating_247":87.0,"committed_to":"Texas State","lat":31.4757,"lng":-99.3312,"hometown_city":"Humble","hometown_state":"TX"},{"name":"Maliek Brown","year":2027,"position":"WR","stars":null,"rating_247":87.0,"committed_to":"Kansas","lat":31.4757,"lng":-99.3312,"hometown_city":"Tyler","hometown_state":"TX"},{"name":"Braylon Fisher","year":2027,"position":"WR","stars":null,"rating_247":86.0,"committed_to":null,"lat":31.4757,"lng":-99.3312,"hometown_city":"Columbus","hometown_state":"TX"},{"name":"Ryan Taylor","year":2027,"position":"WR","stars":null,"rating_247":86.0,"committed_to":"Texas-San Antonio","lat":31.4757,"lng":-99.3312,"hometown_city":"Harker Heights","hometown_state":"TX"},{"name":"Aden Starling","year":2027,"position":"WR","stars":null,"rating_247":86.0,"committed_to":null,"lat":31.4757,"lng":-99.3312,"hometown_city":"Pearland","hometown_state":"TX"},{"name":"Kevin Ferrygood","year":2027,"position":"WR","stars":null,"rating_247":86.0,"committed_to":"Minnesota","lat":31.4757,"lng":-99.3312,"hometown_city":"Cypress","hometown_state":"TX"},{"name":"Julian Cromartie","year":2027,"position":"WR","stars":null,"rating_247":86.0,"committed_to":"Clemson","lat":31.4757,"lng":-99.3312,"hometown_city":"The Woodlands","hometown_state":"TX"},{"name":"Jordan Simmons","year":2027,"position":"WR","stars":null,"rating_247":86.0,"committed_to":null,"lat":31.4757,"lng":-99.3312,"hometown_city":"Houston","hometown_state":"TX"},{"name":"Braylon Lane","year":2027,"position":"WR","stars":null,"rating_247":86.0,"committed_to":"Houston","lat":31.4757,"lng":-99.3312,"hometown_city":"Houston","hometown_state":"TX"},{"name":"Alex Fontenot","year":2027,"position":"WR","stars":null,"rating_247":86.0,"committed_to":"Pittsburgh","lat":31.0689,"lng":-91.9968,"hometown_city":"Alexandria","hometown_state":"LA"},{"name":"Blake Gunter","year":2027,"position":"WR","stars":null,"rating_247":86.0,"committed_to":"California","lat":31.4757,"lng":-99.3312,"hometown_city":"Southlake","hometown_state":"TX"},{"name":"Trysten Shaw","year":2027,"position":"WR","stars":null,"rating_247":86.0,"committed_to":"Tulsa","lat":31.4757,"lng":-99.3312,"hometown_city":"Arlington","hometown_state":"TX"},{"name":"Ake O'Neal","year":2027,"position":"WR","stars":null,"rating_247":85.0,"committed_to":null,"lat":31.4757,"lng":-99.3312,"hometown_city":"Argyle","hometown_state":"TX"},{"name":"Bryston Price","year":2027,"position":"WR","stars":null,"rating_247":84.0,"committed_to":null,"lat":31.4757,"lng":-99.3312,"hometown_city":"Carthage","hometown_state":"TX"},{"name":"Tre Brown","year":2027,"position":"WR","stars":null,"rating_247":null,"committed_to":null,"lat":31.4757,"lng":-99.3312,"hometown_city":"Humble","hometown_state":"TX"},{"name":"Jordan Frohock","year":2027,"position":"WR","stars":null,"rating_247":null,"committed_to":null,"lat":31.4757,"lng":-99.3312,"hometown_city":"Pflugerville","hometown_state":"TX"},{"name":"Morris Walters","year":2027,"position":"WR","stars":null,"rating_247":null,"committed_to":null,"lat":31.0689,"lng":-91.9968,"hometown_city":"Jeanerette","hometown_state":"LA"},{"name":"BJ Walker","year":2027,"position":"WR","stars":null,"rating_247":null,"committed_to":null,"lat":31.4757,"lng":-99.3312,"hometown_city":"Palestine","hometown_state":"TX"},{"name":"Derrick Martin","year":2027,"position":"WR","stars":null,"rating_247":null,"committed_to":null,"lat":31.4757,"lng":-99.3312,"hometown_city":"Lewisville","hometown_state":"TX"},{"name":"Audric Williams","year":2027,"position":"WR","stars":null,"rating_247":null,"committed_to":null,"lat":31.4757,"lng":-99.3312,"hometown_city":"Pflugerville","hometown_state":"TX"},{"name":"La'Damian Defreeze","year":2027,"position":"WR","stars":null,"rating_247":null,"committed_to":null,"lat":31.4757,"lng":-99.3312,"hometown_city":"Houston","hometown_state":"TX"},{"name":"Brandon Richards","year":2027,"position":"WR","stars":null,"rating_247":null,"committed_to":null,"lat":31.4757,"lng":-99.3312,"hometown_city":"Port Arthur","hometown_state":"TX"},{"name":"Aubrey Johnson","year":2027,"position":"WR","stars":null,"rating_247":null,"committed_to":"Florida Atlantic","lat":31.4757,"lng":-99.3312,"hometown_city":"Houston","hometown_state":"TX"},{"name":"Suhaib Ramseur","year":2027,"position":"WR","stars":null,"rating_247":null,"committed_to":"Florida Atlantic","lat":31.4757,"lng":-99.3312,"hometown_city":"Missouri City","hometown_state":"TX"},{"name":"Zion Harness","year":2027,"position":"WR","stars":null,"rating_247":null,"committed_to":null,"lat":31.4757,"lng":-99.3312,"hometown_city":"Temple","hometown_state":"TX"},{"name":"Braylon Deal","year":2027,"position":"WR","stars":null,"rating_247":null,"committed_to":null,"lat":31.4757,"lng":-99.3312,"hometown_city":"Garland","hometown_state":"TX"},{"name":"Curt Ellis","year":2027,"position":"WR","stars":null,"rating_247":null,"committed_to":null,"lat":28.6305,"lng":-82.4497,"hometown_city":"Blountstown","hometown_state":"FL"},{"name":"Damaris Richardson","year":2027,"position":"WR","stars":null,"rating_247":null,"committed_to":null,"lat":31.4757,"lng":-99.3312,"hometown_city":"Houston","hometown_state":"TX"},{"name":"Amarian Moore","year":2027,"position":"WR","stars":null,"rating_247":null,"committed_to":null,"lat":31.4757,"lng":-99.3312,"hometown_city":"College Station","hometown_state":"TX"},{"name":"Maxwell Nichols","year":2027,"position":"WR","stars":null,"rating_247":null,"committed_to":null,"lat":31.4757,"lng":-99.3312,"hometown_city":"Arlington","hometown_state":"TX"},{"name":"Darnell Jackson Jr.","year":2027,"position":"WR","stars":null,"rating_247":null,"committed_to":null,"lat":31.4757,"lng":-99.3312,"hometown_city":"Spring","hometown_state":"TX"},{"name":"Braylon Caston","year":2027,"position":"WR","stars":null,"rating_247":null,"committed_to":null,"lat":31.4757,"lng":-99.3312,"hometown_city":"Cedar Hill","hometown_state":"TX"},{"name":"Lovell Neal","year":2027,"position":"WR","stars":null,"rating_247":null,"committed_to":"Colorado State","lat":31.4757,"lng":-99.3312,"hometown_city":"Dallas","hometown_state":"TX"},{"name":"Jalijah Rutledge","year":2027,"position":"WR","stars":null,"rating_247":null,"committed_to":null,"lat":32.7794,"lng":-86.8287,"hometown_city":"Moody","hometown_state":"AL"},{"name":"Dylan Medlock","year":2027,"position":"WR","stars":null,"rating_247":null,"committed_to":"Texas-San Antonio","lat":31.4757,"lng":-99.3312,"hometown_city":"Robinson","hometown_state":"TX"},{"name":"Ahmad Hudson","year":2027,"position":"TE","stars":null,"rating_247":98.0,"committed_to":"Louisiana State","lat":31.0689,"lng":-91.9968,"hometown_city":"Ruston","hometown_state":"LA"},{"name":"Jeramie Cooper","year":2027,"position":"TE","stars":null,"rating_247":86.0,"committed_to":null,"lat":31.4757,"lng":-99.3312,"hometown_city":"Fort Worth","hometown_state":"TX"},{"name":"Ryker Reynolds","year":2027,"position":"TE","stars":null,"rating_247":84.0,"committed_to":"Pittsburgh","lat":31.4757,"lng":-99.3312,"hometown_city":"La Porte","hometown_state":"TX"},{"name":"Elijah Collum","year":2027,"position":"TE","stars":null,"rating_247":null,"committed_to":null,"lat":34.8938,"lng":-92.4426,"hometown_city":"Conway","hometown_state":"AR"},{"name":"Gavin Mandrell","year":2027,"position":"TE","stars":null,"rating_247":null,"committed_to":null,"lat":31.4757,"lng":-99.3312,"hometown_city":"Denison","hometown_state":"TX"},{"name":"Jaxon Rawls","year":2027,"position":"TE","stars":null,"rating_247":null,"committed_to":null,"lat":34.8938,"lng":-92.4426,"hometown_city":"Monticello","hometown_state":"AR"},{"name":"Wyatt Harry","year":2027,"position":"TE","stars":null,"rating_247":null,"committed_to":null,"lat":31.4757,"lng":-99.3312,"hometown_city":"Melissa","hometown_state":"TX"},{"name":"Ismael Camara","year":2027,"position":"OT","stars":null,"rating_247":98.0,"committed_to":null,"lat":31.4757,"lng":-99.3312,"hometown_city":"Gilmer","hometown_state":"TX"},{"name":"Kennedy Brown","year":2027,"position":"OT","stars":null,"rating_247":94.0,"committed_to":"Texas A&M","lat":31.4757,"lng":-99.3312,"hometown_city":"Kingwood","hometown_state":"TX"},{"name":"Kaeden Scott","year":2027,"position":"OT","stars":null,"rating_247":93.0,"committed_to":"Texas A&M","lat":31.4757,"lng":-99.3312,"hometown_city":"San Antonio","hometown_state":"TX"},{"name":"DeMarrion Johnson","year":2027,"position":"OT","stars":null,"rating_247":93.0,"committed_to":"Texas A&M","lat":31.4757,"lng":-99.3312,"hometown_city":"Tyler","hometown_state":"TX"},{"name":"Mason Joshua","year":2027,"position":"OT","stars":null,"rating_247":89.0,"committed_to":null,"lat":31.4757,"lng":-99.3312,"hometown_city":"Forney","hometown_state":"TX"},{"name":"Qua Ford","year":2027,"position":"OT","stars":null,"rating_247":88.0,"committed_to":"SMU","lat":31.4757,"lng":-99.3312,"hometown_city":"Texarkana","hometown_state":"TX"},{"name":"Conner Rutherford","year":2027,"position":"OT","stars":null,"rating_247":88.0,"committed_to":"North Carolina State","lat":40.2862,"lng":-82.7937,"hometown_city":"Chillicothe","hometown_state":"OH"},{"name":"Luke Wilson","year":2027,"position":"OT","stars":null,"rating_247":87.0,"committed_to":"Oklahoma","lat":31.4757,"lng":-99.3312,"hometown_city":"Southlake","hometown_state":"TX"},{"name":"Ty Greene","year":2027,"position":"OT","stars":null,"rating_247":86.0,"committed_to":"Texas Christian","lat":31.4757,"lng":-99.3312,"hometown_city":"Houston","hometown_state":"TX"},{"name":"Sonny Mullen","year":2027,"position":"OT","stars":null,"rating_247":86.0,"committed_to":"Oklahoma State","lat":31.4757,"lng":-99.3312,"hometown_city":"Troy","hometown_state":"TX"},{"name":"Colton Steed","year":2027,"position":"OT","stars":null,"rating_247":null,"committed_to":null,"lat":31.4757,"lng":-99.3312,"hometown_city":"Round Rock","hometown_state":"TX"},{"name":"Jackson Shaw","year":2027,"position":"OT","stars":null,"rating_247":null,"committed_to":"Tulane","lat":31.0689,"lng":-91.9968,"hometown_city":"Baton Rouge","hometown_state":"LA"},{"name":"Brandon Hebert","year":2027,"position":"OT","stars":null,"rating_247":null,"committed_to":null,"lat":31.4757,"lng":-99.3312,"hometown_city":"Houston","hometown_state":"TX"},{"name":"Adarius Hines","year":2027,"position":"OT","stars":null,"rating_247":null,"committed_to":null,"lat":31.4757,"lng":-99.3312,"hometown_city":"Georgetown","hometown_state":"TX"},{"name":"Grant Gonzales","year":2027,"position":"OT","stars":null,"rating_247":null,"committed_to":null,"lat":31.4757,"lng":-99.3312,"hometown_city":"Waxahachie","hometown_state":"TX"},{"name":"Brandon Stewart","year":2027,"position":"OT","stars":null,"rating_247":null,"committed_to":null,"lat":31.4757,"lng":-99.3312,"hometown_city":"San Antonio","hometown_state":"TX"},{"name":"Simon Johnson-Watson","year":2027,"position":"OT","stars":null,"rating_247":null,"committed_to":null,"lat":31.4757,"lng":-99.3312,"hometown_city":"Austin","hometown_state":"TX"},{"name":"Miylen Colley","year":2027,"position":"OT","stars":null,"rating_247":null,"committed_to":null,"lat":31.4757,"lng":-99.3312,"hometown_city":"Houston","hometown_state":"TX"},{"name":"Antonio Berry","year":2027,"position":"IOL","stars":null,"rating_247":91.0,"committed_to":null,"lat":32.7364,"lng":-89.6678,"hometown_city":"Tupelo","hometown_state":"MS"},{"name":"Keyon Hemphill-Woods","year":2027,"position":"IOL","stars":null,"rating_247":89.0,"committed_to":"Texas","lat":31.4757,"lng":-99.3312,"hometown_city":"Columbus","hometown_state":"TX"},{"name":"Caleb Unger","year":2027,"position":"IOL","stars":null,"rating_247":89.0,"committed_to":"Mississippi State","lat":32.7364,"lng":-89.6678,"hometown_city":"Madison","hometown_state":"MS"},{"name":"Aidan Ray","year":2027,"position":"IOL","stars":null,"rating_247":87.0,"committed_to":null,"lat":31.4757,"lng":-99.3312,"hometown_city":"Plano","hometown_state":"TX"},{"name":"Stephan Hicks Jr.","year":2027,"position":"IOL","stars":null,"rating_247":87.0,"committed_to":null,"lat":31.4757,"lng":-99.3312,"hometown_city":"Cibolo","hometown_state":"TX"},{"name":"Tristan Dare","year":2027,"position":"IOL","stars":null,"rating_247":87.0,"committed_to":"Missouri","lat":31.4757,"lng":-99.3312,"hometown_city":"Southlake","hometown_state":"TX"},{"name":"Nico Ramos","year":2027,"position":"IOL","stars":null,"rating_247":86.0,"committed_to":"Syracuse","lat":28.6305,"lng":-82.4497,"hometown_city":"Plantation","hometown_state":"FL"},{"name":"Jackson Cook","year":2027,"position":"IOL","stars":null,"rating_247":86.0,"committed_to":"Texas","lat":31.4757,"lng":-99.3312,"hometown_city":"Austin","hometown_state":"TX"},{"name":"Will Endicott","year":2027,"position":"IOL","stars":null,"rating_247":86.0,"committed_to":"South Carolina","lat":31.4757,"lng":-99.3312,"hometown_city":"Prosper","hometown_state":"TX"},{"name":"Jaxon Lawler","year":2027,"position":"IOL","stars":null,"rating_247":86.0,"committed_to":null,"lat":31.4757,"lng":-99.3312,"hometown_city":"Amarillo","hometown_state":"TX"},{"name":"Kelvin Eiwo","year":2027,"position":"IOL","stars":null,"rating_247":85.0,"committed_to":"Kansas State","lat":31.4757,"lng":-99.3312,"hometown_city":"The Colony","hometown_state":"TX"},{"name":"Jordan Carraway","year":2027,"position":"IOL","stars":null,"rating_247":84.0,"committed_to":null,"lat":31.4757,"lng":-99.3312,"hometown_city":"Forney","hometown_state":"TX"},{"name":"Carsten Campbell","year":2027,"position":"IOL","stars":null,"rating_247":84.0,"committed_to":"Fresno State","lat":37.1841,"lng":-119.4696,"hometown_city":"Bakersfield","hometown_state":"CA"},{"name":"Aiden Williams","year":2027,"position":"IOL","stars":null,"rating_247":83.0,"committed_to":"Texas State","lat":31.4757,"lng":-99.3312,"hometown_city":"Duncanville","hometown_state":"TX"},{"name":"Chase Allen","year":2027,"position":"IOL","stars":null,"rating_247":83.0,"committed_to":"Baylor","lat":31.4757,"lng":-99.3312,"hometown_city":"Cypress","hometown_state":"TX"},{"name":"Ty MontsDeOca","year":2027,"position":"IOL","stars":null,"rating_247":null,"committed_to":null,"lat":28.6305,"lng":-82.4497,"hometown_city":"Fort Meade","hometown_state":"FL"},{"name":"Barrett Bray","year":2027,"position":"IOL","stars":null,"rating_247":null,"committed_to":"Toledo","lat":31.4757,"lng":-99.3312,"hometown_city":"Fort Worth","hometown_state":"TX"},{"name":"Mark Moreno","year":2027,"position":"IOL","stars":null,"rating_247":null,"committed_to":null,"lat":31.4757,"lng":-99.3312,"hometown_city":"Round Rock","hometown_state":"TX"},{"name":"Ethan Boyd","year":2027,"position":"IOL","stars":null,"rating_247":null,"committed_to":"Texas-San Antonio","lat":31.4757,"lng":-99.3312,"hometown_city":"San Angelo","hometown_state":"TX"},{"name":"Devin Girtmon","year":2027,"position":"IOL","stars":null,"rating_247":null,"committed_to":null,"lat":31.4757,"lng":-99.3312,"hometown_city":"The Colony","hometown_state":"TX"},{"name":"Jayin Talib","year":2027,"position":"IOL","stars":null,"rating_247":null,"committed_to":null,"lat":31.4757,"lng":-99.3312,"hometown_city":"Allen","hometown_state":"TX"},{"name":"Abdus Kone","year":2027,"position":"IOL","stars":null,"rating_247":null,"committed_to":"Maryland","lat":31.4757,"lng":-99.3312,"hometown_city":"Houston","hometown_state":"TX"},{"name":"Jackson Koeppel","year":2027,"position":"IOL","stars":null,"rating_247":null,"committed_to":"Rice","lat":31.4757,"lng":-99.3312,"hometown_city":"Austin","hometown_state":"TX"},{"name":"Righteous Spencer","year":2027,"position":"IOL","stars":null,"rating_247":null,"committed_to":null,"lat":31.4757,"lng":-99.3312,"hometown_city":"Fulshear","hometown_state":"TX"},{"name":"Kingston Tupuola","year":2027,"position":"IOL","stars":null,"rating_247":null,"committed_to":null,"lat":31.4757,"lng":-99.3312,"hometown_city":"Conroe","hometown_state":"TX"},{"name":"Markell Smith","year":2027,"position":"IOL","stars":null,"rating_247":null,"committed_to":null,"lat":31.4757,"lng":-99.3312,"hometown_city":"Mesquite","hometown_state":"TX"},{"name":"Dominick Lee","year":2027,"position":"IOL","stars":null,"rating_247":null,"committed_to":null,"lat":31.4757,"lng":-99.3312,"hometown_city":"Pearland","hometown_state":"TX"},{"name":"Kaden McCarty","year":2027,"position":"Edge","stars":null,"rating_247":90.0,"committed_to":"Texas A&M","lat":31.4757,"lng":-99.3312,"hometown_city":"Houston","hometown_state":"TX"},{"name":"David Parson","year":2027,"position":"Edge","stars":null,"rating_247":89.0,"committed_to":null,"lat":32.6415,"lng":-83.4426,"hometown_city":"Douglasville","hometown_state":"GA"},{"name":"Drake Carroll","year":2027,"position":"Edge","stars":null,"rating_247":88.0,"committed_to":"Texas Christian","lat":31.4757,"lng":-99.3312,"hometown_city":"San Antonio","hometown_state":"TX"},{"name":"Bryson Phoenix","year":2027,"position":"Edge","stars":null,"rating_247":87.0,"committed_to":"Texas State","lat":31.0689,"lng":-91.9968,"hometown_city":"Alexandria","hometown_state":"LA"},{"name":"Alexander Coey","year":2027,"position":"Edge","stars":null,"rating_247":87.0,"committed_to":null,"lat":31.4757,"lng":-99.3312,"hometown_city":"Conroe","hometown_state":"TX"},{"name":"Jeron Allen II","year":2027,"position":"Edge","stars":null,"rating_247":86.0,"committed_to":null,"lat":31.4757,"lng":-99.3312,"hometown_city":"Cedar Hill","hometown_state":"TX"},{"name":"Elijah Wright","year":2027,"position":"Edge","stars":null,"rating_247":86.0,"committed_to":"Wake Forest","lat":31.4757,"lng":-99.3312,"hometown_city":"Fulshear","hometown_state":"TX"},{"name":"Cadriann Olds","year":2027,"position":"Edge","stars":null,"rating_247":86.0,"committed_to":"Baylor","lat":35.5889,"lng":-97.4943,"hometown_city":"Tulsa","hometown_state":"OK"},{"name":"Drew Sapp","year":2027,"position":"Edge","stars":null,"rating_247":85.0,"committed_to":null,"lat":28.6305,"lng":-82.4497,"hometown_city":"Lakeland","hometown_state":"FL"},{"name":"Cael Thigpen","year":2027,"position":"Edge","stars":null,"rating_247":84.0,"committed_to":"Houston","lat":31.4757,"lng":-99.3312,"hometown_city":"Houston","hometown_state":"TX"},{"name":"James Harris Jr.","year":2027,"position":"Edge","stars":null,"rating_247":84.0,"committed_to":null,"lat":31.4757,"lng":-99.3312,"hometown_city":"Houston","hometown_state":"TX"},{"name":"Phillip Jones Jr.","year":2027,"position":"Edge","stars":null,"rating_247":null,"committed_to":null,"lat":28.6305,"lng":-82.4497,"hometown_city":"Miami","hometown_state":"FL"},{"name":"Caden Watson","year":2027,"position":"Edge","stars":null,"rating_247":null,"committed_to":null,"lat":31.4757,"lng":-99.3312,"hometown_city":"Pearland","hometown_state":"TX"},