{"2026":[{"name":"Teddy Jarrard","year":2026,"position":"QB","stars":4,"rating_247":89.0,"committed_to":"Notre Dame","lat":34.0234337,"lng":-84.6154897,"hometown_city":"Kennesaw","hometown_state":"GA"},{"name":"Gavin Sidwar","year":2026,"position":"QB","stars":3,"rating_247":89.0,"committed_to":"Missouri","lat":40.0853435,"lng":-75.19402070907555,"hometown_city":"Wyndmoor","hometown_state":"PA"},{"name":"Stephen Cannon","year":2026,"position":"QB","stars":3,"rating_247":88.0,"committed_to":"Texas Tech","lat":32.0809263,"lng":-81.0911768,"hometown_city":"Savannah","hometown_state":"GA"},{"name":"Terry Walker III","year":2026,"position":"QB","stars":3,"rating_247":88.0,"committed_to":"Duke","lat":39.9555928,"lng":-86.0138729,"hometown_city":"Fishers","hometown_state":"IN"},{"name":"Derek Zammit","year":2026,"position":"QB","stars":4,"rating_247":88.0,"committed_to":"Washington","lat":40.9491723,"lng":-74.2376802,"hometown_city":"Wayne","hometown_state":"NJ"},{"name":"Ryan Hopkins","year":2026,"position":"QB","stars":3,"rating_247":87.0,"committed_to":"Wisconsin","lat":33.7494951,"lng":-117.8732213,"hometown_city":"Santa Ana","hometown_state":"CA"},{"name":"Tre Guerra","year":2026,"position":"QB","stars":null,"rating_247":86.0,"committed_to":"Coastal Carolina","lat":31.4757,"lng":-99.3312,"hometown_city":"Tyler","hometown_state":"TX"},{"name":"Brody Dawyot","year":2026,"position":"QB","stars":null,"rating_247":85.0,"committed_to":"Charlotte","lat":37.5215,"lng":-78.8537,"hometown_city":"Salem","hometown_state":"VA"},{"name":"Ely Hamrick","year":2026,"position":"QB","stars":3,"rating_247":84.0,"committed_to":"Virginia","lat":35.6009498,"lng":-82.5540161,"hometown_city":"Asheville","hometown_state":"NC"},{"name":"EJ Crowell","year":2026,"position":"RB","stars":null,"rating_247":98.0,"committed_to":"Alabama","lat":32.7794,"lng":-86.8287,"hometown_city":"Jackson","hometown_state":"AL"},{"name":"Savion Hiter","year":2026,"position":"RB","stars":5,"rating_247":98.0,"committed_to":"Michigan","lat":38.010695,"lng":-77.9086068,"hometown_city":"Mineral","hometown_state":"VA"},{"name":"Jonaz Walton","year":2026,"position":"RB","stars":4,"rating_247":93.0,"committed_to":"Notre Dame","lat":33.5801103,"lng":-85.0766113,"hometown_city":"Carrollton","hometown_state":"GA"},{"name":"Henry Ohlinger","year":2026,"position":"RB","stars":4,"rating_247":88.0,"committed_to":"Indiana","lat":39.9622601,"lng":-83.0007065,"hometown_city":"Columbus","hometown_state":"OH"},{"name":"CJ Givers","year":2026,"position":"RB","stars":3,"rating_247":88.0,"committed_to":"Duke","lat":34.02332,"lng":-84.360022,"hometown_city":"Roswell","hometown_state":"GA"},{"name":"Chase Enlow","year":2026,"position":"RB","stars":3,"rating_247":87.0,"committed_to":"Buffalo","lat":40.3492744,"lng":-74.6592958,"hometown_city":"Princeton","hometown_state":"NJ"},{"name":"Jayvian Tanelus","year":2026,"position":"RB","stars":3,"rating_247":86.0,"committed_to":"Duke","lat":26.1421976,"lng":-81.7942944,"hometown_city":"Naples","hometown_state":"FL"},{"name":"Jayson Franklin","year":2026,"position":"RB","stars":3,"rating_247":86.0,"committed_to":"South Florida","lat":35.0525759,"lng":-78.878292,"hometown_city":"Fayetteville","hometown_state":"NC"},{"name":"Najee Calhoun","year":2026,"position":"RB","stars":3,"rating_247":85.0,"committed_to":"Harvard","lat":40.9543943,"lng":-74.0308504,"hometown_city":"Oradell","hometown_state":"NJ"},{"name":"Delvecchio Alston II","year":2026,"position":"RB","stars":null,"rating_247":85.0,"committed_to":"Kentucky","lat":32.7794,"lng":-86.8287,"hometown_city":"Trussville","hometown_state":"AL"},{"name":"Travis Johnson","year":2026,"position":"WR","stars":4,"rating_247":94.0,"committed_to":"Michigan","lat":36.7183708,"lng":-76.2466798,"hometown_city":"Chesapeake","hometown_state":"VA"},{"name":"Connor Salmin","year":2026,"position":"WR","stars":4,"rating_247":92.0,"committed_to":"Clemson","lat":39.017936,"lng":-77.2094542,"hometown_city":"Potomac","hometown_state":"MD"},{"name":"Chris Tangelo","year":2026,"position":"WR","stars":4,"rating_247":91.0,"committed_to":"Vanderbilt","lat":39.1731621,"lng":-77.2716502,"hometown_city":"Germantown","hometown_state":"MD"},{"name":"Bubba Frazier","year":2026,"position":"WR","stars":4,"rating_247":90.0,"committed_to":"Notre Dame","lat":32.0809263,"lng":-81.0911768,"hometown_city":"Savannah","hometown_state":"GA"},{"name":"Dyzier Carter","year":2026,"position":"WR","stars":4,"rating_247":90.0,"committed_to":"Rutgers","lat":38.010695,"lng":-77.9086068,"hometown_city":"Mineral","hometown_state":"VA"},{"name":"Dylan Cope","year":2026,"position":"WR","stars":3,"rating_247":88.0,"committed_to":"Virginia","lat":33.626629,"lng":-86.5549335251678,"hometown_city":"Trussville","hometown_state":"AL"},{"name":"Brady Marchese","year":2026,"position":"WR","stars":4,"rating_247":88.0,"committed_to":"Auburn","lat":34.1650972,"lng":-84.7999383,"hometown_city":"Cartersville","hometown_state":"GA"},{"name":"Josiah Teasley","year":2026,"position":"WR","stars":3,"rating_247":88.0,"committed_to":"Maryland","lat":38.7890522,"lng":-77.1870368,"hometown_city":"Springfield","hometown_state":"VA"},{"name":"Daylen Sharper","year":2026,"position":"WR","stars":3,"rating_247":88.0,"committed_to":"Stanford","lat":33.4484367,"lng":-112.0741417,"hometown_city":"Phoenix","hometown_state":"AZ"},{"name":"Xavier Stinson","year":2026,"position":"WR","stars":3,"rating_247":87.0,"committed_to":"Iowa","lat":27.6387163,"lng":-80.3975399,"hometown_city":"Vero Beach","hometown_state":"FL"},{"name":"Isaiah Harris","year":2026,"position":"WR","stars":3,"rating_247":85.0,"committed_to":"Virginia","lat":42.1667072,"lng":-83.7816075,"hometown_city":"Saline","hometown_state":"MI"},{"name":"Jack Rhodes","year":2026,"position":"WR","stars":3,"rating_247":85.0,"committed_to":"Virginia","lat":33.4709714,"lng":-81.9748429,"hometown_city":"Augusta","hometown_state":"GA"},{"name":"Brandon Brown Jr.","year":2026,"position":"WR","stars":3,"rating_247":85.0,"committed_to":"Colorado State","lat":31.1171441,"lng":-97.727796,"hometown_city":"Killeen","hometown_state":"TX"},{"name":"Brayden Fogle","year":2026,"position":"TE","stars":4,"rating_247":90.0,"committed_to":"Georgia","lat":40.75839,"lng":-82.5154471,"hometown_city":"Mansfield","hometown_state":"OH"},{"name":"Tex Vaughn","year":2026,"position":"TE","stars":null,"rating_247":88.0,"committed_to":"North Carolina State","lat":35.5557,"lng":-79.3877,"hometown_city":"Kings Mountain","hometown_state":"NC"},{"name":"PJ MacFarlane","year":2026,"position":"TE","stars":3,"rating_247":87.0,"committed_to":"Indiana","lat":39.5150576,"lng":-84.3982763,"hometown_city":"Middletown","hometown_state":"OH"},{"name":"Cooper McCutchan","year":2026,"position":"TE","stars":3,"rating_247":86.0,"committed_to":"Purdue","lat":39.1014537,"lng":-84.5124602,"hometown_city":"Cincinnati","hometown_state":"OH"},{"name":"Luke Hutchinson","year":2026,"position":"TE","stars":3,"rating_247":86.0,"committed_to":"Mississippi State","lat":36.1622296,"lng":-86.7743531,"hometown_city":"Nashville","hometown_state":"TN"},{"name":"Kamari Blair","year":2026,"position":"OT","stars":4,"rating_247":95.0,"committed_to":"Tennessee","lat":36.5277607,"lng":-87.3588703,"hometown_city":"Clarksville","hometown_state":"TN"},{"name":"Marky Walbridge","year":2026,"position":"OT","stars":4,"rating_247":93.0,"committed_to":"Michigan","lat":42.283431,"lng":-71.2328329,"hometown_city":"Needham","hometown_state":"MA"},{"name":"Carter Scruggs","year":2026,"position":"OT","stars":4,"rating_247":90.0,"committed_to":"Clemson","lat":39.1154496,"lng":-77.5645446,"hometown_city":"Leesburg","hometown_state":"VA"},{"name":"Maddox Cochrane","year":2026,"position":"OT","stars":3,"rating_247":87.0,"committed_to":"Virginia Tech","lat":37.5385087,"lng":-77.43428,"hometown_city":"Richmond","hometown_state":"VA"},{"name":"Casey Thomann","year":2026,"position":"OT","stars":3,"rating_247":87.0,"committed_to":"Illinois","lat":38.7296538,"lng":-88.0846891,"hometown_city":"Olney","hometown_state":"IL"},{"name":"Landry Brede","year":2026,"position":"OT","stars":3,"rating_247":87.0,"committed_to":"Ohio State","lat":41.6661573,"lng":-81.339552,"hometown_city":"Mentor","hometown_state":"OH"},{"name":"Michael Gildea","year":2026,"position":"OT","stars":3,"rating_247":85.0,"committed_to":"Virginia","lat":40.3492744,"lng":-74.6592958,"hometown_city":"Princeton","hometown_state":"NJ"},{"name":"Bear McWhorter","year":2026,"position":"OT","stars":null,"rating_247":85.0,"committed_to":"Auburn","lat":32.6415,"lng":-83.4426,"hometown_city":"White","hometown_state":"GA"},{"name":"Brady Sakowitz","year":2026,"position":"OT","stars":3,"rating_247":85.0,"committed_to":"North Carolina State","lat":37.5385087,"lng":-77.43428,"hometown_city":"Richmond","hometown_state":"VA"},{"name":"Gene Riordan","year":2026,"position":"IOL","stars":4,"rating_247":90.0,"committed_to":"Iowa","lat":41.794528,"lng":-87.92761808245767,"hometown_city":"Hinsdale","hometown_state":"IL"},{"name":"Anthony Hall","year":2026,"position":"IOL","stars":3,"rating_247":88.0,"committed_to":"North Carolina","lat":42.3317642,"lng":-71.1211635,"hometown_city":"Brookline","hometown_state":"MA"},{"name":"Ed Baker","year":2026,"position":"IOL","stars":null,"rating_247":88.0,"committed_to":"Tennessee","lat":39.055,"lng":-76.7909,"hometown_city":"Baltimore","hometown_state":"MD"},{"name":"Ace Hamilton","year":2026,"position":"IOL","stars":null,"rating_247":87.0,"committed_to":"Michigan","lat":38.9101,"lng":-77.0147,"hometown_city":"Washington","hometown_state":"DC"},{"name":"Marek Jin","year":2026,"position":"IOL","stars":4,"rating_247":86.0,"committed_to":"Boston College","lat":42.981477,"lng":-70.9478343,"hometown_city":"Exeter","hometown_state":"NH"},{"name":"Kaden Scherer","year":2026,"position":"IOL","stars":3,"rating_247":86.0,"committed_to":"Texas","lat":30.671598,"lng":-97.65500660120435,"hometown_city":"Georgetown","hometown_state":"TX"},{"name":"Dylan Biehl","year":2026,"position":"IOL","stars":3,"rating_247":86.0,"committed_to":"Virginia","lat":34.0514898,"lng":-84.0712997,"hometown_city":"Suwanee","hometown_state":"GA"},{"name":"Luke Hatfield","year":2026,"position":"IOL","stars":3,"rating_247":86.0,"committed_to":"Virginia","lat":38.8121398,"lng":-77.6368038,"hometown_city":"Haymarket","hometown_state":"VA"},{"name":"Rodney Dunham","year":2026,"position":"Edge","stars":5,"rating_247":98.0,"committed_to":"Notre Dame","lat":35.2272,"lng":-80.843083,"hometown_city":"Charlotte","hometown_state":"NC"},{"name":"Carter Meadows","year":2026,"position":"Edge","stars":5,"rating_247":98.0,"committed_to":"Michigan","lat":38.8949855,"lng":-77.0365708,"hometown_city":"Washington","hometown_state":"DC"},{"name":"Dre Quinn","year":2026,"position":"Edge","stars":4,"rating_247":91.0,"committed_to":"Ohio State","lat":34.1206564,"lng":-84.0043513,"hometown_city":"Buford","hometown_state":"GA"},{"name":"Micah Nickerson","year":2026,"position":"Edge","stars":4,"rating_247":91.0,"committed_to":"Mississippi State","lat":31.1432328,"lng":-90.4587081,"hometown_city":"Magnolia","hometown_state":"MS"},{"name":"Mason Leak","year":2026,"position":"Edge","stars":4,"rating_247":90.0,"committed_to":"Boston College","lat":41.8098209,"lng":-72.8306541,"hometown_city":"Avon","hometown_state":"CT"},{"name":"Ashton Blatt","year":2026,"position":"Edge","stars":3,"rating_247":89.0,"committed_to":"North Carolina","lat":40.4416941,"lng":-79.9900861,"hometown_city":"Pittsburgh","hometown_state":"PA"},{"name":"Jace McCallum","year":2026,"position":"Edge","stars":3,"rating_247":89.0,"committed_to":"Vanderbilt","lat":35.3262523,"lng":-80.6446563,"hometown_city":"Harrisburg","hometown_state":"NC"},{"name":"Max Meier","year":2026,"position":"Edge","stars":3,"rating_247":88.0,"committed_to":"Stanford","lat":34.0536909,"lng":-118.2427666,"hometown_city":"Los Angeles","hometown_state":"CA"},{"name":"Chris Carbin","year":2026,"position":"Edge","stars":3,"rating_247":88.0,"committed_to":"Florida State","lat":33.8595492,"lng":-84.683824,"hometown_city":"Powder Springs","hometown_state":"GA"},{"name":"Sefa Sackey","year":2026,"position":"Edge","stars":3,"rating_247":88.0,"committed_to":"Wake Forest","lat":39.1014537,"lng":-84.5124602,"hometown_city":"Cincinnati","hometown_state":"OH"},{"name":"JR Hardrick","year":2026,"position":"Edge","stars":3,"rating_247":86.0,"committed_to":"Clemson","lat":35.0122635,"lng":-85.7058445,"hometown_city":"South Pittsburg","hometown_state":"TN"},{"name":"Kamren Johnson","year":2026,"position":"Edge","stars":3,"rating_247":85.0,"committed_to":"Virginia Tech","lat":36.8529841,"lng":-75.9774183,"hometown_city":"Virginia Beach","hometown_state":"VA"},{"name":"Darius Gray","year":2026,"position":"DL","stars":4,"rating_247":98.0,"committed_to":"South Carolina","lat":37.5385087,"lng":-77.43428,"hometown_city":"Richmond","hometown_state":"VA"},{"name":"Carter Gooden","year":2026,"position":"DL","stars":4,"rating_247":96.0,"committed_to":"Tennessee","lat":41.7001043,"lng":-70.7628129,"hometown_city":"Marion","hometown_state":"MA"},{"name":"Keshawn Stancil","year":2026,"position":"DL","stars":4,"rating_247":95.0,"committed_to":"Miami","lat":35.650711,"lng":-78.4563914,"hometown_city":"Clayton","hometown_state":"NC"},{"name":"Noah Clark","year":2026,"position":"DL","stars":4,"rating_247":94.0,"committed_to":"South Carolina","lat":35.996653,"lng":-78.9018053,"hometown_city":"Durham","hometown_state":"NC"},{"name":"Damari Simeon","year":2026,"position":"DL","stars":4,"rating_247":90.0,"committed_to":"Ohio State","lat":39.4917828,"lng":-74.8707243,"hometown_city":"Richland","hometown_state":"NJ"},{"name":"JaMarcus Whyce","year":2026,"position":"DL","stars":3,"rating_247":88.0,"committed_to":"Maryland","lat":39.7589478,"lng":-84.1916069,"hometown_city":"Dayton","hometown_state":"OH"},{"name":"Daniel Howard","year":2026,"position":"DL","stars":3,"rating_247":88.0,"committed_to":"Iowa State","lat":41.8755616,"lng":-87.6244212,"hometown_city":"Chicago","hometown_state":"IL"},{"name":"King Liggins","year":2026,"position":"DL","stars":3,"rating_247":87.0,"committed_to":"Illinois","lat":41.8755616,"lng":-87.6244212,"hometown_city":"Chicago","hometown_state":"IL"},{"name":"T-Ron Richardson Jr.","year":2026,"position":"DL","stars":null,"rating_247":87.0,"committed_to":"Virginia Tech","lat":37.5215,"lng":-78.8537,"hometown_city":"Hopewell","hometown_state":"VA"},{"name":"Marcus Almada","year":2026,"position":"DL","stars":3,"rating_247":87.0,"committed_to":"UCLA","lat":41.7001043,"lng":-70.7628129,"hometown_city":"Marion","hometown_state":"MA"},{"name":"Bull Richardson","year":2026,"position":"DL","stars":null,"rating_247":87.0,"committed_to":"Virginia","lat":37.5215,"lng":-78.8537,"hometown_city":"Richmond","hometown_state":"VA"},{"name":"Elijah Golden","year":2026,"position":"LB","stars":4,"rating_247":92.0,"committed_to":"Notre Dame","lat":27.3364347,"lng":-82.5306527,"hometown_city":"Sarasota","hometown_state":"FL"},{"name":"Ja'Dyn Williams","year":2026,"position":"LB","stars":4,"rating_247":91.0,"committed_to":"Indiana","lat":40.7967244,"lng":-81.5215093,"hometown_city":"Massillon","hometown_state":"OH"},{"name":"Nick Abrams II","year":2026,"position":"LB","stars":4,"rating_247":90.0,"committed_to":"Georgia","lat":39.4010753,"lng":-76.796299,"hometown_city":"Owings Mills","hometown_state":"MD"},{"name":"JJ Bush","year":2026,"position":"LB","stars":4,"rating_247":90.0,"committed_to":"Missouri","lat":30.547295,"lng":-88.18020367595204,"hometown_city":"Theodore","hometown_state":"AL"},{"name":"Derek Uran","year":2026,"position":"LB","stars":3,"rating_247":90.0,"committed_to":"Virginia","lat":39.1014537,"lng":-84.5124602,"hometown_city":"Cincinnati","hometown_state":"OH"},{"name":"Justin Edwards","year":2026,"position":"LB","stars":3,"rating_247":89.0,"committed_to":"Miami","lat":28.5421109,"lng":-81.3790304,"hometown_city":"Orlando","hometown_state":"FL"},{"name":"Isaiah Simmons","year":2026,"position":"LB","stars":4,"rating_247":89.0,"committed_to":"Pittsburgh","lat":36.8462923,"lng":-76.2929252,"hometown_city":"Norfolk","hometown_state":"VA"},{"name":"Kedric Golston II","year":2026,"position":"LB","stars":4,"rating_247":89.0,"committed_to":"Tennessee","lat":39.0437192,"lng":-77.4874899,"hometown_city":"Ashburn","hometown_state":"VA"},{"name":"Tyson Harley","year":2026,"position":"LB","stars":4,"rating_247":89.0,"committed_to":"Virginia Tech","lat":38.8949855,"lng":-77.0365708,"hometown_city":"Washington","hometown_state":"DC"},{"name":"Ja'Michael Garrett","year":2026,"position":"LB","stars":null,"rating_247":88.0,"committed_to":"Mississippi","lat":31.0689,"lng":-91.9968,"hometown_city":"Baton Rouge","hometown_state":"LA"},{"name":"Aden Reeder","year":2026,"position":"LB","stars":3,"rating_247":88.0,"committed_to":"Michigan","lat":39.1014537,"lng":-84.5124602,"hometown_city":"Cincinnati","hometown_state":"OH"},{"name":"Mathieu Lamah","year":2026,"position":"LB","stars":3,"rating_247":87.0,"committed_to":"Virginia Tech","lat":38.6984987,"lng":-77.5800445,"hometown_city":"Nokesville","hometown_state":"VA"},{"name":"Ellis Alloway","year":2026,"position":"LB","stars":3,"rating_247":86.0,"committed_to":"Liberty","lat":30.4057552,"lng":-86.618842,"hometown_city":"Fort Walton Beach","hometown_state":"FL"},{"name":"Dallas Brannon","year":2026,"position":"LB","stars":3,"rating_247":85.0,"committed_to":"Virginia","lat":35.2272,"lng":-80.843083,"hometown_city":"Charlotte","hometown_state":"NC"},{"name":"Caleb Gordon","year":2026,"position":"LB","stars":3,"rating_247":85.0,"committed_to":"North Carolina State","lat":35.2622158,"lng":-81.1838794,"hometown_city":"Gastonia","hometown_state":"NC"},{"name":"Khary Adams","year":2026,"position":"CB","stars":5,"rating_247":97.0,"committed_to":"Notre Dame","lat":39.4018552,"lng":-76.602388,"hometown_city":"Towson","hometown_state":"MD"},{"name":"Jay Timmons","year":2026,"position":"CB","stars":4,"rating_247":97.0,"committed_to":"Ohio State","lat":40.6300671,"lng":-79.9695004,"hometown_city":"Gibsonia","hometown_state":"PA"},{"name":"Kosci Barnes","year":2026,"position":"CB","stars":4,"rating_247":94.0,"committed_to":"South Carolina","lat":36.0726355,"lng":-79.7919754,"hometown_city":"Greensboro","hometown_state":"NC"},{"name":"Sean Johnson","year":2026,"position":"CB","stars":3,"rating_247":89.0,"committed_to":"Maryland","lat":39.1278864,"lng":-76.6869128,"hometown_city":"Severn","hometown_state":"MD"},{"name":"Zaevion Cleveland","year":2026,"position":"CB","stars":3,"rating_247":89.0,"committed_to":"Virginia Tech","lat":36.8529841,"lng":-75.9774183,"hometown_city":"Virginia Beach","hometown_state":"VA"},{"name":"Chase Geter","year":2026,"position":"CB","stars":3,"rating_247":88.0,"committed_to":"Syracuse","lat":39.0437192,"lng":-77.4874899,"hometown_city":"Ashburn","hometown_state":"VA"},{"name":"Alex Dunn","year":2026,"position":"CB","stars":3,"rating_247":88.0,"committed_to":"Virginia","lat":37.2768113,"lng":-79.1008543,"hometown_city":"Rustburg","hometown_state":"VA"},{"name":"Jaziel Hart","year":2026,"position":"CB","stars":3,"rating_247":87.0,"committed_to":"North Carolina","lat":37.270973,"lng":-79.9414313,"hometown_city":"Roanoke","hometown_state":"VA"},{"name":"Jamyan Theodore","year":2026,"position":"CB","stars":3,"rating_247":87.0,"committed_to":"Tennessee","lat":35.0457219,"lng":-85.3094883,"hometown_city":"Chattanooga","hometown_state":"TN"},{"name":"Jayden Covil","year":2026,"position":"CB","stars":3,"rating_247":87.0,"committed_to":"Virginia","lat":36.7183708,"lng":-76.2466798,"hometown_city":"Chesapeake","hometown_state":"VA"},{"name":"Jordyn Best","year":2026,"position":"CB","stars":3,"rating_247":87.0,"committed_to":"North Carolina State","lat":34.0007493,"lng":-81.0343313,"hometown_city":"Columbia","hometown_state":"SC"},{"name":"Prince Jean","year":2026,"position":"CB","stars":3,"rating_247":86.0,"committed_to":"Kentucky","lat":30.8327022,"lng":-83.2784851,"hometown_city":"Valdosta","hometown_state":"GA"},{"name":"Kris Brunson","year":2026,"position":"CB","stars":3,"rating_247":86.0,"committed_to":"Louisville","lat":33.857328,"lng":-84.0199108,"hometown_city":"Snellville","hometown_state":"GA"},{"name":"Jeremiah Favorite","year":2026,"position":"CB","stars":3,"rating_247":86.0,"committed_to":"Michigan State","lat":35.04136,"lng":-81.97882024148419,"hometown_city":"Boiling Springs","hometown_state":"SC"},{"name":"Syncere Berry","year":2026,"position":"CB","stars":3,"rating_247":84.0,"committed_to":"Appalachian State","lat":33.7490987,"lng":-84.3901849,"hometown_city":"Atlanta","hometown_state":"GA"},{"name":"Jett Washington","year":2026,"position":"S","stars":4,"rating_247":98.0,"committed_to":"Oregon","lat":36.1672559,"lng":-115.1485163,"hometown_city":"Las Vegas","hometown_state":"NV"},{"name":"Polo Anderson","year":2026,"position":"S","stars":null,"rating_247":93.0,"committed_to":"Clemson","lat":33.9169,"lng":-80.8964,"hometown_city":"Roebuck","hometown_state":"SC"},{"name":"Blake Stewart","year":2026,"position":"S","stars":3,"rating_247":90.0,"committed_to":"Georgia","lat":33.7490987,"lng":-84.3901849,"hometown_city":"Atlanta","hometown_state":"GA"},{"name":"Andre Clarke Jr.","year":2026,"position":"S","stars":4,"rating_247":90.0,"committed_to":"Kentucky","lat":37.5385087,"lng":-77.43428,"hometown_city":"Richmond","hometown_state":"VA"},{"name":"Jordan Vann","year":2026,"position":"S","stars":3,"rating_247":88.0,"committed_to":"Louisville","lat":39.5150576,"lng":-84.3982763,"hometown_city":"Middletown","hometown_state":"OH"},{"name":"Zaiden McDonald","year":2026,"position":"S","stars":3,"rating_247":88.0,"committed_to":"Stanford","lat":40.735657,"lng":-74.1723667,"hometown_city":"Newark","hometown_state":"NJ"},{"name":"Brayden Rouse","year":2026,"position":"ATH","stars":4,"rating_247":96.0,"committed_to":"Tennessee","lat":33.9528472,"lng":-84.5496148,"hometown_city":"Marietta","hometown_state":"GA"},{"name":"Damon Ferguson","year":2026,"position":"ATH","stars":4,"rating_247":93.0,"committed_to":"Pittsburgh","lat":39.2908816,"lng":-76.610759,"hometown_city":"Baltimore","hometown_state":"MD"},{"name":"Tyren Hornes","year":2026,"position":"ATH","stars":4,"rating_247":93.0,"committed_to":"UCF","lat":27.3364347,"lng":-82.5306527,"hometown_city":"Sarasota","hometown_state":"FL"},{"name":"Sequel Patterson","year":2026,"position":"ATH","stars":4,"rating_247":91.0,"committed_to":"South Carolina","lat":35.0073697,"lng":-80.9450759,"hometown_city":"Fort Mill","hometown_state":"SC"},{"name":"Amare' Gough","year":2026,"position":"ATH","stars":null,"rating_247":90.0,"committed_to":"Syracuse","lat":37.5215,"lng":-78.8537,"hometown_city":"Richmond","hometown_state":"VA"},{"name":"Zahir Cobb","year":2026,"position":"ATH","stars":3,"rating_247":88.0,"committed_to":"Maryland","lat":38.8949855,"lng":-77.0365708,"hometown_city":"Washington","hometown_state":"DC"},{"name":"DaMari Carter","year":2026,"position":"ATH","stars":3,"rating_247":87.0,"committed_to":"Virginia","lat":37.5385087,"lng":-77.43428,"hometown_city":"Richmond","hometown_state":"VA"},{"name":"Kaj Baker","year":2026,"position":"ATH","stars":3,"rating_247":86.0,"committed_to":"UCF","lat":25.7742658,"lng":-80.1936589,"hometown_city":"Miami","hometown_state":"FL"},{"name":"Jae'Oyn Williams","year":2026,"position":"ATH","stars":3,"rating_247":86.0,"committed_to":"Virginia","lat":39.2908816,"lng":-76.610759,"hometown_city":"Baltimore","hometown_state":"MD"},{"name":"KD Cotton","year":2026,"position":"ATH","stars":3,"rating_247":86.0,"committed_to":"Duke","lat":35.1170873,"lng":-80.723718,"hometown_city":"Matthews","hometown_state":"NC"},{"name":"Elijah Moss-Williams","year":2026,"position":"ATH","stars":3,"rating_247":84.0,"committed_to":"James Madison","lat":36.8462923,"lng":-76.2929252,"hometown_city":"Norfolk","hometown_state":"VA"}],"2027":[{"name":"Peter Bourque","year":2027,"position":"QB","stars":null,"rating_247":94.0,"committed_to":"Virginia Tech","lat":42.2596,"lng":-71.8083,"hometown_city":"Marion","hometown_state":"MA"},{"name":"Keegan Croucher","year":2027,"position":"QB","stars":null,"rating_247":91.0,"committed_to":"Mississippi","lat":35.858,"lng":-86.3505,"hometown_city":"Chattanooga","hometown_state":"TN"},{"name":"Braylen Warren","year":2027,"position":"QB","stars":null,"rating_247":90.0,"committed_to":"Missouri","lat":41.5378,"lng":-99.7951,"hometown_city":"Omaha","hometown_state":"NE"},{"name":"Lonnie Andrews III","year":2027,"position":"QB","stars":null,"rating_247":86.0,"committed_to":"Virginia","lat":37.5215,"lng":-78.8537,"hometown_city":"Chesapeake","hometown_state":"VA"},{"name":"Derrick Baker","year":2027,"position":"QB","stars":null,"rating_247":86.0,"committed_to":"Tennessee","lat":32.6415,"lng":-83.4426,"hometown_city":"Alpharetta","hometown_state":"GA"},{"name":"Kevin Parker","year":2027,"position":"QB","stars":null,"rating_247":83.0,"committed_to":null,"lat":37.5215,"lng":-78.8537,"hometown_city":"Newport News","hometown_state":"VA"},{"name":"Franklin Richardson","year":2027,"position":"QB","stars":null,"rating_247":null,"committed_to":null,"lat":33.9169,"lng":-80.8964,"hometown_city":"Sumter","hometown_state":"SC"},{"name":"Gary Walker","year":2027,"position":"RB","stars":null,"rating_247":91.0,"committed_to":"Clemson","lat":32.6415,"lng":-83.4426,"hometown_city":"Fairburn","hometown_state":"GA"},{"name":"Amir Brown","year":2027,"position":"RB","stars":null,"rating_247":88.0,"committed_to":"Nebraska","lat":35.5557,"lng":-79.3877,"hometown_city":"Rolesville","hometown_state":"NC"},{"name":"Kelvin Morrison","year":2027,"position":"RB","stars":null,"rating_247":88.0,"committed_to":"Virginia Tech","lat":40.8781,"lng":-77.7996,"hometown_city":"Hermitage","hometown_state":"PA"},{"name":"Chukwuma Odoh","year":2027,"position":"RB","stars":null,"rating_247":88.0,"committed_to":"Penn State","lat":40.1907,"lng":-74.6728,"hometown_city":"Paramus","hometown_state":"NJ"},{"name":"Xavier Bala","year":2027,"position":"RB","stars":null,"rating_247":87.0,"committed_to":"Boston College","lat":42.9538,"lng":-75.5268,"hometown_city":"Long Island City","hometown_state":"NY"},{"name":"Christian Freeman","year":2027,"position":"RB","stars":null,"rating_247":86.0,"committed_to":"North Carolina State","lat":35.5557,"lng":-79.3877,"hometown_city":"Raleigh","hometown_state":"NC"},{"name":"Ar'mand Stevens","year":2027,"position":"RB","stars":null,"rating_247":null,"committed_to":null,"lat":37.5215,"lng":-78.8537,"hometown_city":"Springfield","hometown_state":"VA"},{"name":"Steven Alexis","year":2027,"position":"RB","stars":null,"rating_247":null,"committed_to":"Colorado","lat":28.6305,"lng":-82.4497,"hometown_city":"St. Petersburg","hometown_state":"FL"},{"name":"Khalil Taylor","year":2027,"position":"WR","stars":null,"rating_247":92.0,"committed_to":null,"lat":40.8781,"lng":-77.7996,"hometown_city":"Gibsonia","hometown_state":"PA"},{"name":"Sean Green","year":2027,"position":"WR","stars":null,"rating_247":90.0,"committed_to":"Florida State","lat":32.6415,"lng":-83.4426,"hometown_city":"Kingsland","hometown_state":"GA"},{"name":"Matthew Gregory","year":2027,"position":"WR","stars":null,"rating_247":90.0,"committed_to":null,"lat":40.8781,"lng":-77.7996,"hometown_city":"Pottstown","hometown_state":"PA"},{"name":"Demarcus Brown","year":2027,"position":"WR","stars":null,"rating_247":89.0,"committed_to":"Virginia Tech","lat":37.5215,"lng":-78.8537,"hometown_city":"Roanoke","hometown_state":"VA"},{"name":"Iveon Lewis","year":2027,"position":"WR","stars":null,"rating_247":89.0,"committed_to":"Kentucky","lat":37.5215,"lng":-78.8537,"hometown_city":"Richmond","hometown_state":"VA"},{"name":"Brylan Oduor","year":2027,"position":"WR","stars":null,"rating_247":89.0,"committed_to":"Auburn","lat":35.858,"lng":-86.3505,"hometown_city":"Murfreesboro","hometown_state":"TN"},{"name":"Chanin Harris","year":2027,"position":"WR","stars":null,"rating_247":89.0,"committed_to":"Syracuse","lat":33.9169,"lng":-80.8964,"hometown_city":"Duncan","hometown_state":"SC"},{"name":"Anthony Roberts","year":2027,"position":"WR","stars":null,"rating_247":88.0,"committed_to":"Virginia Tech","lat":35.5557,"lng":-79.3877,"hometown_city":"Rolesville","hometown_state":"NC"},{"name":"Isaiah Alvarez","year":2027,"position":"WR","stars":null,"rating_247":88.0,"committed_to":null,"lat":40.1907,"lng":-74.6728,"hometown_city":"Ramsey","hometown_state":"NJ"},{"name":"Bryan Porter","year":2027,"position":"WR","stars":null,"rating_247":88.0,"committed_to":null,"lat":40.1907,"lng":-74.6728,"hometown_city":"Oradell","hometown_state":"NJ"},{"name":"Keland Shelton Jr.","year":2027,"position":"WR","stars":null,"rating_247":88.0,"committed_to":"Wake Forest","lat":35.5557,"lng":-79.3877,"hometown_city":"Charlotte","hometown_state":"NC"},{"name":"Tajeh Watson","year":2027,"position":"WR","stars":null,"rating_247":87.0,"committed_to":null,"lat":33.9169,"lng":-80.8964,"hometown_city":"Anderson","hometown_state":"SC"},{"name":"Markus Lee","year":2027,"position":"WR","stars":null,"rating_247":87.0,"committed_to":null,"lat":37.5215,"lng":-78.8537,"hometown_city":"Richmond","hometown_state":"VA"},{"name":"Landon Hicks","year":2027,"position":"WR","stars":null,"rating_247":85.0,"committed_to":"Virginia","lat":37.5215,"lng":-78.8537,"hometown_city":"Richmond","hometown_state":"VA"},{"name":"Parker Newman","year":2027,"position":"TE","stars":null,"rating_247":90.0,"committed_to":"Duke","lat":35.858,"lng":-86.3505,"hometown_city":"Sevierville","hometown_state":"TN"},{"name":"Sean Currie","year":2027,"position":"TE","stars":null,"rating_247":89.0,"committed_to":"Penn State","lat":40.1907,"lng":-74.6728,"hometown_city":"Lawrenceville","hometown_state":"NJ"},{"name":"Sam Faniel","year":2027,"position":"TE","stars":null,"rating_247":89.0,"committed_to":"Virginia Tech","lat":37.5215,"lng":-78.8537,"hometown_city":"Richmond","hometown_state":"VA"},{"name":"Colton Johnson","year":2027,"position":"TE","stars":null,"rating_247":88.0,"committed_to":null,"lat":35.858,"lng":-86.3505,"hometown_city":"Baxter","hometown_state":"TN"},{"name":"Grant Haviland","year":2027,"position":"TE","stars":null,"rating_247":88.0,"committed_to":"Vanderbilt","lat":32.6415,"lng":-83.4426,"hometown_city":"Alpharetta","hometown_state":"GA"},{"name":"DeShaun Thomas","year":2027,"position":"TE","stars":null,"rating_247":87.0,"committed_to":"Pittsburgh","lat":28.6305,"lng":-82.4497,"hometown_city":"Merritt Island","hometown_state":"FL"},{"name":"Mason Hall","year":2027,"position":"TE","stars":null,"rating_247":86.0,"committed_to":"Virginia","lat":32.6415,"lng":-83.4426,"hometown_city":"Watkinsville","hometown_state":"GA"},{"name":"Oluwasemilore Olubobola","year":2027,"position":"OT","stars":null,"rating_247":98.0,"committed_to":"Notre Dame","lat":40.1907,"lng":-74.6728,"hometown_city":"Jersey City","hometown_state":"NJ"},{"name":"Layton von Brandt","year":2027,"position":"OT","stars":null,"rating_247":92.0,"committed_to":"Auburn","lat":38.9896,"lng":-75.505,"hometown_city":"Middletown","hometown_state":"DE"},{"name":"Elijah Hutcheson","year":2027,"position":"OT","stars":null,"rating_247":91.0,"committed_to":"Florida","lat":37.5215,"lng":-78.8537,"hometown_city":"Roanoke","hometown_state":"VA"},{"name":"Nate Carson","year":2027,"position":"OT","stars":null,"rating_247":90.0,"committed_to":null,"lat":33.9169,"lng":-80.8964,"hometown_city":"Columbia","hometown_state":"SC"},{"name":"Jimmy Kalis","year":2027,"position":"OT","stars":null,"rating_247":90.0,"committed_to":"Ohio State","lat":40.8781,"lng":-77.7996,"hometown_city":"Pittsburgh","hometown_state":"PA"},{"name":"Davis Seaman","year":2027,"position":"OT","stars":null,"rating_247":90.0,"committed_to":"Ohio State","lat":40.2862,"lng":-82.7937,"hometown_city":"Columbus","hometown_state":"OH"},{"name":"Carter Jones","year":2027,"position":"OT","stars":null,"rating_247":90.0,"committed_to":"Clemson","lat":37.5215,"lng":-78.8537,"hometown_city":"Poquoson","hometown_state":"VA"},{"name":"Junior Saunders","year":2027,"position":"OT","stars":null,"rating_247":90.0,"committed_to":"Virginia Tech","lat":37.5215,"lng":-78.8537,"hometown_city":"Woodberry Forest","hometown_state":"VA"},{"name":"Q'Mari Hudson","year":2027,"position":"OT","stars":null,"rating_247":89.0,"committed_to":null,"lat":37.5215,"lng":-78.8537,"hometown_city":"Chesapeake","hometown_state":"VA"},{"name":"Reed Gerken","year":2027,"position":"OT","stars":null,"rating_247":88.0,"committed_to":"Kentucky","lat":40.2862,"lng":-82.7937,"hometown_city":"Perrysburg","hometown_state":"OH"},{"name":"Brody McNeel","year":2027,"position":"OT","stars":null,"rating_247":88.0,"committed_to":"Ohio State","lat":37.5215,"lng":-78.8537,"hometown_city":"Richmond","hometown_state":"VA"},{"name":"Hudson Ingalsbe","year":2027,"position":"OT","stars":null,"rating_247":88.0,"committed_to":null,"lat":32.7794,"lng":-86.8287,"hometown_city":"Anniston","hometown_state":"AL"},{"name":"Gavin Milton","year":2027,"position":"OT","stars":null,"rating_247":88.0,"committed_to":"Duke","lat":35.5557,"lng":-79.3877,"hometown_city":"Greensboro","hometown_state":"NC"},{"name":"Conner Rutherford","year":2027,"position":"OT","stars":null,"rating_247":88.0,"committed_to":"North Carolina State","lat":40.2862,"lng":-82.7937,"hometown_city":"Chillicothe","hometown_state":"OH"},{"name":"Ty Johnson","year":2027,"position":"OT","stars":null,"rating_247":88.0,"committed_to":"Georgia","lat":33.9169,"lng":-80.8964,"hometown_city":"Mount Pleasant","hometown_state":"SC"},{"name":"Teagan Parizek","year":2027,"position":"OT","stars":null,"rating_247":87.0,"committed_to":"Arkansas","lat":35.858,"lng":-86.3505,"hometown_city":"Hendersonville","hometown_state":"TN"},{"name":"Tyler Graham","year":2027,"position":"OT","stars":null,"rating_247":87.0,"committed_to":"Duke","lat":40.8781,"lng":-77.7996,"hometown_city":"Malvern","hometown_state":"PA"},{"name":"Lual Aleu","year":2027,"position":"OT","stars":null,"rating_247":86.0,"committed_to":"Missouri","lat":40.2862,"lng":-82.7937,"hometown_city":"Cincinnati","hometown_state":"OH"},{"name":"Sidney Rouleau","year":2027,"position":"OT","stars":null,"rating_247":86.0,"committed_to":"Michigan","lat":31.4757,"lng":-99.3312,"hometown_city":"Bullard","hometown_state":"TX"},{"name":"Rance Brown","year":2027,"position":"OT","stars":null,"rating_247":86.0,"committed_to":"Auburn","lat":35.858,"lng":-86.3505,"hometown_city":"Brentwood","hometown_state":"TN"},{"name":"Stafford Willis","year":2027,"position":"OT","stars":null,"rating_247":86.0,"committed_to":null,"lat":32.7794,"lng":-86.8287,"hometown_city":"Arab","hometown_state":"AL"},{"name":"Drew Aagesen","year":2027,"position":"OT","stars":null,"rating_247":86.0,"committed_to":"Iowa State","lat":44.3467,"lng":-85.4102,"hometown_city":"Goodrich","hometown_state":"MI"},{"name":"Moreno Fisher","year":2027,"position":"OT","stars":null,"rating_247":86.0,"committed_to":"Virginia","lat":35.5557,"lng":-79.3877,"hometown_city":"Cornelius","hometown_state":"NC"},{"name":"Jordan Agbanoma","year":2027,"position":"IOL","stars":null,"rating_247":91.0,"committed_to":"Nebraska","lat":32.6415,"lng":-83.4426,"hometown_city":"Loganville","hometown_state":"GA"},{"name":"Elijah Morrison","year":2027,"position":"IOL","stars":null,"rating_247":89.0,"committed_to":"Clemson","lat":32.6415,"lng":-83.4426,"hometown_city":"Dacula","hometown_state":"GA"},{"name":"KD Jones","year":2027,"position":"IOL","stars":null,"rating_247":88.0,"committed_to":"Nebraska","lat":32.6415,"lng":-83.4426,"hometown_city":"Loganville","hometown_state":"GA"},{"name":"Shavezz Dixon","year":2027,"position":"IOL","stars":null,"rating_247":87.0,"committed_to":"North Carolina","lat":32.6415,"lng":-83.4426,"hometown_city":"Leesburg","hometown_state":"GA"},{"name":"Nicholas Schurman","year":2027,"position":"IOL","stars":null,"rating_247":87.0,"committed_to":null,"lat":39.8942,"lng":-86.2816,"hometown_city":"Westfield","hometown_state":"IN"},{"name":"Brady Hull","year":2027,"position":"IOL","stars":null,"rating_247":86.0,"committed_to":"Kentucky","lat":37.5347,"lng":-85.3021,"hometown_city":"Somerset","hometown_state":"KY"},{"name":"Anthony Sweeney","year":2027,"position":"Edge","stars":null,"rating_247":98.0,"committed_to":"Texas Tech","lat":39.055,"lng":-76.7909,"hometown_city":"Baltimore","hometown_state":"MD"},{"name":"Abraham Sesay","year":2027,"position":"Edge","stars":null,"rating_247":98.0,"committed_to":null,"lat":40.8781,"lng":-77.7996,"hometown_city":"Exton","hometown_state":"PA"},{"name":"Chris Whitehead","year":2027,"position":"Edge","stars":null,"rating_247":94.0,"committed_to":null,"lat":37.5215,"lng":-78.8537,"hometown_city":"Chesterfield","hometown_state":"VA"},{"name":"Isaac McNeil","year":2027,"position":"Edge","stars":null,"rating_247":94.0,"committed_to":"Auburn","lat":32.7794,"lng":-86.8287,"hometown_city":"Mobile","hometown_state":"AL"},{"name":"Jackson Vaughn","year":2027,"position":"Edge","stars":null,"rating_247":92.0,"committed_to":"Notre Dame","lat":40.1907,"lng":-74.6728,"hometown_city":"Oradell","hometown_state":"NJ"},{"name":"Jaxon Holly","year":2027,"position":"Edge","stars":null,"rating_247":88.0,"committed_to":null,"lat":32.6415,"lng":-83.4426,"hometown_city":"Roswell","hometown_state":"GA"},{"name":"Adriel Rojas","year":2027,"position":"Edge","stars":null,"rating_247":88.0,"committed_to":"Duke","lat":32.6415,"lng":-83.4426,"hometown_city":"Cumming","hometown_state":"GA"},{"name":"Alex Johnson","year":2027,"position":"Edge","stars":null,"rating_247":88.0,"committed_to":"Boston College","lat":33.9169,"lng":-80.8964,"hometown_city":"Fort Mill","hometown_state":"SC"},{"name":"Lawrence Kanneh","year":2027,"position":"Edge","stars":null,"rating_247":87.0,"committed_to":"Michigan State","lat":40.2862,"lng":-82.7937,"hometown_city":"Columbus","hometown_state":"OH"},{"name":"Camden Chalkley","year":2027,"position":"Edge","stars":null,"rating_247":87.0,"committed_to":"Virginia","lat":37.5215,"lng":-78.8537,"hometown_city":"Midlothian","hometown_state":"VA"},{"name":"Braylon Otis","year":2027,"position":"Edge","stars":null,"rating_247":87.0,"committed_to":"Syracuse","lat":28.6305,"lng":-82.4497,"hometown_city":"Orlando","hometown_state":"FL"},{"name":"Esa Wittingburg","year":2027,"position":"Edge","stars":null,"rating_247":87.0,"committed_to":null,"lat":40.1907,"lng":-74.6728,"hometown_city":"East Orange","hometown_state":"NJ"},{"name":"Cam Aime","year":2027,"position":"Edge","stars":null,"rating_247":87.0,"committed_to":"Pittsburgh","lat":40.1907,"lng":-74.6728,"hometown_city":"Montvale","hometown_state":"NJ"},{"name":"Andy Stedem","year":2027,"position":"Edge","stars":null,"rating_247":null,"committed_to":null,"lat":41.6219,"lng":-72.7273,"hometown_city":"Avon","hometown_state":"CT"},{"name":"David Folorunsho","year":2027,"position":"DL","stars":null,"rating_247":94.0,"committed_to":"Notre Dame","lat":40.0417,"lng":-89.1965,"hometown_city":"Chicago","hometown_state":"IL"},{"name":"Stanley Montgomery","year":2027,"position":"DL","stars":null,"rating_247":94.0,"committed_to":"Penn State","lat":40.8781,"lng":-77.7996,"hometown_city":"Philadelphia","hometown_state":"PA"},{"name":"Elijah Guertin","year":2027,"position":"DL","stars":null,"rating_247":90.0,"committed_to":null,"lat":41.6762,"lng":-71.5562,"hometown_city":"Warwick","hometown_state":"RI"},{"name":"Kaiden Robinson-Vickers","year":2027,"position":"DL","stars":null,"rating_247":88.0,"committed_to":null,"lat":28.6305,"lng":-82.4497,"hometown_city":"Hawthorne","hometown_state":"FL"},{"name":"Joseph Graves","year":2027,"position":"DL","stars":null,"rating_247":87.0,"committed_to":null,"lat":28.6305,"lng":-82.4497,"hometown_city":"Bradenton","hometown_state":"FL"},{"name":"Errol Demontagnac","year":2027,"position":"DL","stars":null,"rating_247":86.0,"committed_to":"Nebraska","lat":28.6305,"lng":-82.4497,"hometown_city":"Seffner","hometown_state":"FL"},{"name":"Gene Jones","year":2027,"position":"DL","stars":null,"rating_247":86.0,"committed_to":"Virginia","lat":37.5215,"lng":-78.8537,"hometown_city":"Hampton","hometown_state":"VA"},{"name":"Noah Glover","year":2027,"position":"LB","stars":null,"rating_247":90.0,"committed_to":"Miami","lat":37.5215,"lng":-78.8537,"hometown_city":"Haymarket","hometown_state":"VA"},{"name":"Drew Williams","year":2027,"position":"LB","stars":null,"rating_247":88.0,"committed_to":"Kentucky","lat":32.6415,"lng":-83.4426,"hometown_city":"Canton","hometown_state":"GA"},{"name":"Braylon Williams","year":2027,"position":"LB","stars":null,"rating_247":88.0,"committed_to":"SMU","lat":31.4757,"lng":-99.3312,"hometown_city":"Arlington","hometown_state":"TX"},{"name":"Josiah Pouncy","year":2027,"position":"LB","stars":null,"rating_247":88.0,"committed_to":"Louisville","lat":40.2862,"lng":-82.7937,"hometown_city":"Cincinnati","hometown_state":"OH"},{"name":"Theo Wilson","year":2027,"position":"LB","stars":null,"rating_247":88.0,"committed_to":null,"lat":28.6305,"lng":-82.4497,"hometown_city":"Seffner","hometown_state":"FL"},{"name":"Tyson Washington","year":2027,"position":"LB","stars":null,"rating_247":87.0,"committed_to":null,"lat":37.5215,"lng":-78.8537,"hometown_city":"Springfield","hometown_state":"VA"},{"name":"Noah Renes","year":2027,"position":"LB","stars":null,"rating_247":86.0,"committed_to":null,"lat":28.6305,"lng":-82.4497,"hometown_city":"Niceville","hometown_state":"FL"},{"name":"Jack Baker","year":2027,"position":"LB","stars":null,"rating_247":86.0,"committed_to":"Duke","lat":40.1907,"lng":-74.6728,"hometown_city":"Toms River","hometown_state":"NJ"},{"name":"Xavier Hasan","year":2027,"position":"CB","stars":null,"rating_247":94.0,"committed_to":"Notre Dame","lat":35.5557,"lng":-79.3877,"hometown_city":"Raleigh","hometown_state":"NC"},{"name":"Joshua Dobson","year":2027,"position":"CB","stars":null,"rating_247":94.0,"committed_to":null,"lat":35.5557,"lng":-79.3877,"hometown_city":"Cornelius","hometown_state":"NC"},{"name":"Evan Via","year":2027,"position":"CB","stars":null,"rating_247":90.0,"committed_to":"Stanford","lat":38.3566,"lng":-92.458,"hometown_city":"St. Louis","hometown_state":"MO"},{"name":"Kenaz Sullivan","year":2027,"position":"CB","stars":null,"rating_247":90.0,"committed_to":null,"lat":37.5215,"lng":-78.8537,"hometown_city":"Springfield","hometown_state":"VA"},{"name":"Austin Barrett","year":2027,"position":"CB","stars":null,"rating_247":89.0,"committed_to":"Virginia Tech","lat":40.1907,"lng":-74.6728,"hometown_city":"Paramus","hometown_state":"NJ"},{"name":"Bryce Woods","year":2027,"position":"CB","stars":null,"rating_247":88.0,"committed_to":"Virginia Tech","lat":32.6415,"lng":-83.4426,"hometown_city":"College Park","hometown_state":"GA"},{"name":"Bryce Woods","year":2027,"position":"CB","stars":null,"rating_247":88.0,"committed_to":"Virginia Tech","lat":32.6415,"lng":-83.4426,"hometown_city":"College Park","hometown_state":"GA"},{"name":"Nash Johnson III","year":2027,"position":"CB","stars":null,"rating_247":88.0,"committed_to":"Auburn","lat":32.6415,"lng":-83.4426,"hometown_city":"Powder Springs","hometown_state":"GA"},{"name":"Carl Jones Jr.","year":2027,"position":"CB","stars":null,"rating_247":87.0,"committed_to":null,"lat":28.6305,"lng":-82.4497,"hometown_city":"Tampa","hometown_state":"FL"},{"name":"Sa Rex","year":2027,"position":"CB","stars":null,"rating_247":86.0,"committed_to":null,"lat":37.5215,"lng":-78.8537,"hometown_city":"Richmond","hometown_state":"VA"},{"name":"Semajay Robinson","year":2027,"position":"CB","stars":null,"rating_247":86.0,"committed_to":"Virginia","lat":28.6305,"lng":-82.4497,"hometown_city":"Fort Lauderdale","hometown_state":"FL"},{"name":"Jaylen Scott","year":2027,"position":"S","stars":null,"rating_247":90.0,"committed_to":"Oklahoma","lat":32.7794,"lng":-86.8287,"hometown_city":"Mobile","hometown_state":"AL"},{"name":"Zayvon Miller","year":2027,"position":"S","stars":null,"rating_247":87.0,"committed_to":"Virginia","lat":37.5215,"lng":-78.8537,"hometown_city":"Richmond","hometown_state":"VA"},{"name":"Derek Fisher","year":2027,"position":"S","stars":null,"rating_247":87.0,"committed_to":"Virginia","lat":37.5215,"lng":-78.8537,"hometown_city":"Hampton","hometown_state":"VA"},{"name":"Aroson Randle Jr.","year":2027,"position":"ATH","stars":null,"rating_247":94.0,"committed_to":"Miami","lat":35.5557,"lng":-79.3877,"hometown_city":"Garner","hometown_state":"NC"},{"name":"AJ Tillman Jr.","year":2027,"position":"ATH","stars":null,"rating_247":92.0,"committed_to":"Louisville","lat":32.6415,"lng":-83.4426,"hometown_city":"Lithonia","hometown_state":"GA"},{"name":"Marcus Turpin","year":2027,"position":"ATH","stars":null,"rating_247":89.0,"committed_to":null,"lat":39.055,"lng":-76.7909,"hometown_city":"Baltimore","hometown_state":"MD"},{"name":"Cade Cooper","year":2027,"position":"ATH","stars":null,"rating_247":88.0,"committed_to":"Louisiana State","lat":40.8781,"lng":-77.7996,"hometown_city":"Malvern","hometown_state":"PA"},{"name":"Semaj Dozier","year":2027,"position":"ATH","stars":null,"rating_247":88.0,"committed_to":"Virginia Tech","lat":40.1907,"lng":-74.6728,"hometown_city":"Pleasantville","hometown_state":"NJ"},{"name":"Matt Williams","year":2027,"position":"ATH","stars":null,"rating_247":88.0,"committed_to":"Vanderbilt","lat":37.5215,"lng":-78.8537,"hometown_city":"Norfolk","hometown_state":"VA"},{"name":"James Westervelt","year":2027,"position":"ATH","stars":null,"rating_247":85.0,"committed_to":"Virginia","lat":39.055,"lng":-76.7909,"hometown_city":"Bel Air","hometown_state":"MD"},{"name":"Gabriel Goroyan","year":2027,"position":"K","stars":null,"rating_247":null,"committed_to":null,"lat":37.1841,"lng":-119.4696,"hometown_city":"Westlake Village","hometown_state":"CA"}],"2028":[{"name":"Lukas Prock","year":2028,"position":"QB","stars":null,"rating_247":90.0,"committed_to":null,"lat":40.1907,"lng":-74.6728,"hometown_city":"Princeton","hometown_state":"NJ"},{"name":"Graham Simpson","year":2028,"position":"QB","stars":null,"rating_247":89.0,"committed_to":null,"lat":35.858,"lng":-86.3505,"hometown_city":"Martin","hometown_state":"TN"},{"name":"James Armstrong","year":2028,"position":"QB","stars":null,"rating_247":89.0,"committed_to":null,"lat":40.8781,"lng":-77.7996,"hometown_city":"Aliquippa","hometown_state":"PA"},{"name":"Trey Tagliaferri","year":2028,"position":"QB","stars":null,"rating_247":89.0,"committed_to":null,"lat":40.1907,"lng":-74.6728,"hometown_city":"Oradell","hometown_state":"NJ"},{"name":"Jerome LaRue","year":2028,"position":"RB","stars":null,"rating_247":89.0,"committed_to":"Maryland","lat":40.8781,"lng":-77.7996,"hometown_city":"York","hometown_state":"PA"},{"name":"Braylon Clark","year":2028,"position":"WR","stars":null,"rating_247":91.0,"committed_to":null,"lat":35.5557,"lng":-79.3877,"hometown_city":"Charlotte","hometown_state":"NC"},{"name":"Jeramy Laster Jr.","year":2028,"position":"WR","stars":null,"rating_247":90.0,"committed_to":null,"lat":35.858,"lng":-86.3505,"hometown_city":"Hendersonville","hometown_state":"TN"},{"name":"Quincy Gilmer","year":2028,"position":"WR","stars":null,"rating_247":90.0,"committed_to":null,"lat":28.6305,"lng":-82.4497,"hometown_city":"Bradenton","hometown_state":"FL"},{"name":"JC Wessel","year":2028,"position":"TE","stars":null,"rating_247":90.0,"committed_to":null,"lat":28.6305,"lng":-82.4497,"hometown_city":"Jacksonville","hometown_state":"FL"},{"name":"Bennett Conyers","year":2028,"position":"TE","stars":null,"rating_247":null,"committed_to":null,"lat":35.858,"lng":-86.3505,"hometown_city":"Nashville","hometown_state":"TN"},{"name":"Isaiah Whitehead","year":2028,"position":"OT","stars":null,"rating_247":87.0,"committed_to":null,"lat":37.5215,"lng":-78.8537,"hometown_city":"Chesterfield","hometown_state":"VA"},{"name":"Daven Reed","year":2028,"position":"IOL","stars":null,"rating_247":89.0,"committed_to":null,"lat":37.5215,"lng":-78.8537,"hometown_city":"Roanoke","hometown_state":"VA"},{"name":"Asher Ghioto","year":2028,"position":"Edge","stars":null,"rating_247":94.0,"committed_to":null,"lat":28.6305,"lng":-82.4497,"hometown_city":"Jacksonville","hometown_state":"FL"},{"name":"Arthur Jones","year":2028,"position":"Edge","stars":null,"rating_247":90.0,"committed_to":null,"lat":42.9538,"lng":-75.5268,"hometown_city":"Syracuse","hometown_state":"NY"},{"name":"Jeremiah Figaro","year":2028,"position":"Edge","stars":null,"rating_247":90.0,"committed_to":null,"lat":42.2596,"lng":-71.8083,"hometown_city":"Brookline","hometown_state":"MA"},{"name":"Tervon Glass","year":2028,"position":"DL","stars":null,"rating_247":null,"committed_to":null,"lat":37.5215,"lng":-78.8537,"hometown_city":"Danville","hometown_state":"VA"},{"name":"Jay Schell","year":2028,"position":"LB","stars":null,"rating_247":90.0,"committed_to":null,"lat":32.6415,"lng":-83.4426,"hometown_city":"Rabun Gap","hometown_state":"GA"},{"name":"Langston Pridgeon","year":2028,"position":"CB","stars":null,"rating_247":90.0,"committed_to":null,"lat":39.055,"lng":-76.7909,"hometown_city":"Hyattsville","hometown_state":"MD"},{"name":"Dale Perry","year":2028,"position":"CB","stars":null,"rating_247":89.0,"committed_to":null,"lat":32.6415,"lng":-83.4426,"hometown_city":"Fairburn","hometown_state":"GA"},{"name":"Ryan Drakeford","year":2028,"position":"CB","stars":null,"rating_247":88.0,"committed_to":null,"lat":39.055,"lng":-76.7909,"hometown_city":"Gaithersburg","hometown_state":"MD"},{"name":"Kinnard Mahomes","year":2028,"position":"CB","stars":null,"rating_247":88.0,"committed_to":null,"lat":39.055,"lng":-76.7909,"hometown_city":"Baltimore","hometown_state":"MD"},{"name":"Justin Antenor","year":2028,"position":"CB","stars":null,"rating_247":null,"committed_to":null,"lat":28.6305,"lng":-82.4497,"hometown_city":"Fort Lauderdale","hometown_state":"FL"},{"name":"Kaden Golston","year":2028,"position":"S","stars":null,"rating_247":89.0,"committed_to":null,"lat":37.5215,"lng":-78.8537,"hometown_city":"Ashburn","hometown_state":"VA"},{"name":"Jamarion Davis","year":2028,"position":"S","stars":null,"rating_247":null,"committed_to":null,"lat":28.6305,"lng":-82.4497,"hometown_city":"Havana","hometown_state":"FL"},{"name":"Keith Nolen Jr.","year":2028,"position":"ATH","stars":null,"rating_247":88.0,"committed_to":null,"lat":37.5215,"lng":-78.8537,"hometown_city":"Ashburn","hometown_state":"VA"},{"name":"Geo McKnight","year":2028,"position":"ATH","stars":null,"rating_247":null,"committed_to":null,"lat":40.2862,"lng":-82.7937,"hometown_city":"Pickerington","hometown_state":"OH"}]}