[{"id":"Air Force","name":"Air Force","abbreviation":"AF","conference":"Mountain West","lat":38.9969701,"lng":-104.8436165,"slug_247":"air-force"},{"id":"Akron","name":"Akron","abbreviation":"AKR","conference":"Mid-American","lat":41.0725534,"lng":-81.5083408,"slug_247":"akron"},{"id":"Alabama","name":"Alabama","abbreviation":"ALA","conference":"SEC","lat":33.2082752,"lng":-87.5503836,"slug_247":"alabama"},{"id":"App State","name":"App State","abbreviation":"APP","conference":"Sun Belt","lat":36.2114267,"lng":-81.6854278,"slug_247":"app-state"},{"id":"Arizona","name":"Arizona","abbreviation":"ARIZ","conference":"Big 12","lat":32.2288054,"lng":-110.9488677,"slug_247":"arizona"},{"id":"Arizona State","name":"Arizona State","abbreviation":"ASU","conference":"Big 12","lat":33.4264471,"lng":-111.9325005,"slug_247":"arizona-state"},{"id":"Arkansas","name":"Arkansas","abbreviation":"ARK","conference":"SEC","lat":36.0680662,"lng":-94.1789534,"slug_247":"arkansas"},{"id":"Arkansas State","name":"Arkansas State","abbreviation":"ARST","conference":"Sun Belt","lat":35.8488977,"lng":-90.6677436,"slug_247":"arkansas-state"},{"id":"Army","name":"Army","abbreviation":"ARMY","conference":"American Athletic","lat":41.3874924,"lng":-73.9640891,"slug_247":"army"},{"id":"Auburn","name":"Auburn","abbreviation":"AUB","conference":"SEC","lat":32.6025532,"lng":-85.4897479,"slug_247":"auburn"},{"id":"BYU","name":"BYU","abbreviation":"BYU","conference":"Big 12","lat":40.2575347,"lng":-111.6545247,"slug_247":"byu"},{"id":"Ball State","name":"Ball State","abbreviation":"BALL","conference":"Mid-American","lat":40.2159422,"lng":-85.4161148,"slug_247":"ball-state"},{"id":"Baylor","name":"Baylor","abbreviation":"BAY","conference":"Big 12","lat":31.5582015,"lng":-97.1156702,"slug_247":"baylor"},{"id":"Boise State","name":"Boise State","abbreviation":"BOIS","conference":"Pac-12","lat":43.6028839,"lng":-116.1958882,"slug_247":"boise-state"},{"id":"Boston College","name":"Boston College","abbreviation":"BC","conference":"ACC","lat":42.335104,"lng":-71.1664413,"slug_247":"boston-college"},{"id":"Bowling Green","name":"Bowling Green","abbreviation":"BGSU","conference":"Mid-American","lat":41.3780114,"lng":-83.6225,"slug_247":"bowling-green"},{"id":"Buffalo","name":"Buffalo","abbreviation":"BUF","conference":"Mid-American","lat":42.9991334,"lng":-78.7775113,"slug_247":"buffalo"},{"id":"California","name":"California","abbreviation":"CAL","conference":"ACC","lat":37.8710434,"lng":-122.2507729,"slug_247":"california"},{"id":"Central Michigan","name":"Central Michigan","abbreviation":"CMU","conference":"Mid-American","lat":43.5777313,"lng":-84.7709904,"slug_247":"central-michigan"},{"id":"Charlotte","name":"Charlotte","abbreviation":"CLT","conference":"American Athletic","lat":35.3105033,"lng":-80.7401194,"slug_247":"charlotte"},{"id":"Cincinnati","name":"Cincinnati","abbreviation":"CIN","conference":"Big 12","lat":39.1312495,"lng":-84.5161913,"slug_247":"cincinnati"},{"id":"Clemson","name":"Clemson","abbreviation":"CLEM","conference":"ACC","lat":34.6787737,"lng":-82.8432428,"slug_247":"clemson"},{"id":"Coastal Carolina","name":"Coastal Carolina","abbreviation":"CCU","conference":"Sun Belt","lat":33.7928506,"lng":-79.0166946,"slug_247":"coastal-carolina"},{"id":"Colorado","name":"Colorado","abbreviation":"COLO","conference":"Big 12","lat":40.0094746,"lng":-105.266905,"slug_247":"colorado"},{"id":"Colorado State","name":"Colorado State","abbreviation":"CSU","conference":"Pac-12","lat":40.570015,"lng":-105.088435,"slug_247":"colorado-state"},{"id":"Delaware","name":"Delaware","abbreviation":"DEL","conference":"Conference USA","lat":39.6617428,"lng":-75.7488224,"slug_247":"delaware"},{"id":"Duke","name":"Duke","abbreviation":"DUKE","conference":"ACC","lat":35.9953688,"lng":-78.9417564,"slug_247":"duke"},{"id":"East Carolina","name":"East Carolina","abbreviation":"ECU","conference":"American Athletic","lat":35.5968486,"lng":-77.364564,"slug_247":"east-carolina"},{"id":"Eastern Michigan","name":"Eastern Michigan","abbreviation":"EMU","conference":"Mid-American","lat":42.256126,"lng":-83.647285,"slug_247":"eastern-michigan"},{"id":"Florida","name":"Florida","abbreviation":"FLA","conference":"SEC","lat":29.6499357,"lng":-82.3485788,"slug_247":"florida"},{"id":"Florida Atlantic","name":"Florida Atlantic","abbreviation":"FAU","conference":"American Athletic","lat":26.3763763,"lng":-80.1015759,"slug_247":"florida-atlantic"},{"id":"Florida International","name":"Florida International","abbreviation":"FIU","conference":"Conference USA","lat":25.7562,"lng":-80.3742,"slug_247":"fiu"},{"id":"Florida State","name":"Florida State","abbreviation":"FSU","conference":"ACC","lat":30.4381692,"lng":-84.3044032,"slug_247":"florida-state"},{"id":"Fresno State","name":"Fresno State","abbreviation":"FRES","conference":"Pac-12","lat":36.8143527,"lng":-119.7580092,"slug_247":"fresno-state"},{"id":"Georgia","name":"Georgia","abbreviation":"UGA","conference":"SEC","lat":33.9498197,"lng":-83.3733813,"slug_247":"georgia"},{"id":"Georgia Southern","name":"Georgia Southern","abbreviation":"GASO","conference":"Sun Belt","lat":32.4122471,"lng":-81.7849296,"slug_247":"georgia-southern"},{"id":"Georgia State","name":"Georgia State","abbreviation":"GAST","conference":"Sun Belt","lat":33.735267,"lng":-84.389949,"slug_247":"georgia-state"},{"id":"Georgia Tech","name":"Georgia Tech","abbreviation":"GT","conference":"ACC","lat":33.7724449,"lng":-84.3928054,"slug_247":"georgia-tech"},{"id":"Hawai'i","name":"Hawai'i","abbreviation":"HAW","conference":"Mountain West","lat":21.294294,"lng":-157.819338,"slug_247":"hawaii"},{"id":"Houston","name":"Houston","abbreviation":"HOU","conference":"Big 12","lat":29.7219885,"lng":-95.3491623,"slug_247":"houston"},{"id":"Illinois","name":"Illinois","abbreviation":"ILL","conference":"Big Ten","lat":40.0993268,"lng":-88.2359569,"slug_247":"illinois"},{"id":"Indiana","name":"Indiana","abbreviation":"IU","conference":"Big Ten","lat":39.1808959,"lng":-86.5256217,"slug_247":"indiana"},{"id":"Iowa","name":"Iowa","abbreviation":"IOWA","conference":"Big Ten","lat":41.6586045,"lng":-91.5510829,"slug_247":"iowa"},{"id":"Iowa State","name":"Iowa State","abbreviation":"ISU","conference":"Big 12","lat":42.0139977,"lng":-93.6357716,"slug_247":"iowa-state"},{"id":"Jacksonville State","name":"Jacksonville State","abbreviation":"JXST","conference":"Conference USA","lat":33.8201052,"lng":-85.76647,"slug_247":"jacksonville-state"},{"id":"James Madison","name":"James Madison","abbreviation":"JMU","conference":"Sun Belt","lat":38.4352919,"lng":-78.8729349,"slug_247":"james-madison"},{"id":"Kansas","name":"Kansas","abbreviation":"KU","conference":"Big 12","lat":38.9629418,"lng":-95.2463686,"slug_247":"kansas"},{"id":"Kansas State","name":"Kansas State","abbreviation":"KSU","conference":"Big 12","lat":39.2020096,"lng":-96.5938395,"slug_247":"kansas-state"},{"id":"Kennesaw State","name":"Kennesaw State","abbreviation":"KENN","conference":"Conference USA","lat":34.0289318,"lng":-84.5676234,"slug_247":"kennesaw-state"},{"id":"Kent State","name":"Kent State","abbreviation":"KENT","conference":"Mid-American","lat":41.1390935,"lng":-81.31346,"slug_247":"kent-state"},{"id":"Kentucky","name":"Kentucky","abbreviation":"UK","conference":"SEC","lat":38.0220905,"lng":-84.5053408,"slug_247":"kentucky"},{"id":"LSU","name":"LSU","abbreviation":"LSU","conference":"SEC","lat":30.412035,"lng":-91.1838163,"slug_247":"lsu"},{"id":"Liberty","name":"Liberty","abbreviation":"LIB","conference":"Conference USA","lat":37.3544305,"lng":-79.1750239,"slug_247":"liberty"},{"id":"Louisiana","name":"Louisiana","abbreviation":"UL","conference":"Sun Belt","lat":30.2158434,"lng":-92.0417371,"slug_247":"louisiana"},{"id":"Louisiana Tech","name":"Louisiana Tech","abbreviation":"LT","conference":"Sun Belt","lat":32.5321487,"lng":-92.6560019,"slug_247":"louisiana-tech"},{"id":"Louisville","name":"Louisville","abbreviation":"LOU","conference":"ACC","lat":38.2057621,"lng":-85.7588141,"slug_247":"louisville"},{"id":"Marshall","name":"Marshall","abbreviation":"MRSH","conference":"Sun Belt","lat":38.4247042,"lng":-82.4214412,"slug_247":"marshall"},{"id":"Maryland","name":"Maryland","abbreviation":"MD","conference":"Big Ten","lat":38.9903332,"lng":-76.9473792,"slug_247":"maryland"},{"id":"Massachusetts","name":"Massachusetts","abbreviation":"MASS","conference":"Mid-American","lat":42.3773244,"lng":-72.5360595,"slug_247":"umass"},{"id":"Memphis","name":"Memphis","abbreviation":"MEM","conference":"American Athletic","lat":35.1209429,"lng":-89.977147,"slug_247":"memphis"},{"id":"Miami","name":"Miami","abbreviation":"MIA","conference":"ACC","lat":25.9579665,"lng":-80.2388604,"slug_247":"miami"},{"id":"Miami (OH)","name":"Miami (OH)","abbreviation":"M-OH","conference":"Mid-American","lat":39.5197009,"lng":-84.7330255,"slug_247":"miami-oh"},{"id":"Michigan","name":"Michigan","abbreviation":"MICH","conference":"Big Ten","lat":42.2658365,"lng":-83.7486956,"slug_247":"michigan"},{"id":"Michigan State","name":"Michigan State","abbreviation":"MSU","conference":"Big Ten","lat":42.7281474,"lng":-84.4848526,"slug_247":"michigan-state"},{"id":"Middle Tennessee","name":"Middle Tennessee","abbreviation":"MTSU","conference":"Conference USA","lat":35.8511463,"lng":-86.3681649,"slug_247":"middle-tennessee"},{"id":"Minnesota","name":"Minnesota","abbreviation":"MINN","conference":"Big Ten","lat":44.976525,"lng":-93.2245462,"slug_247":"minnesota"},{"id":"Mississippi State","name":"Mississippi State","abbreviation":"MSST","conference":"SEC","lat":33.4563403,"lng":-88.7933652,"slug_247":"mississippi-state"},{"id":"Missouri","name":"Missouri","abbreviation":"MIZ","conference":"SEC","lat":38.9358491,"lng":-92.3332009,"slug_247":"missouri"},{"id":"Missouri State","name":"Missouri State","abbreviation":"MOST","conference":"Conference USA","lat":37.1976229,"lng":-93.2798119,"slug_247":"missouri-state"},{"id":"NC State","name":"NC State","abbreviation":"NCSU","conference":"ACC","lat":35.8008001,"lng":-78.7195655,"slug_247":"nc-state"},{"id":"Navy","name":"Navy","abbreviation":"NAVY","conference":"American Athletic","lat":38.9846985,"lng":-76.5076335,"slug_247":"navy"},{"id":"Nebraska","name":"Nebraska","abbreviation":"NEB","conference":"Big Ten","lat":40.820682,"lng":-96.705594,"slug_247":"nebraska"},{"id":"Nevada","name":"Nevada","abbreviation":"NEV","conference":"Mountain West","lat":39.5469459,"lng":-119.8175435,"slug_247":"nevada"},{"id":"New Mexico","name":"New Mexico","abbreviation":"UNM","conference":"Mountain West","lat":35.0669479,"lng":-106.6283225,"slug_247":"new-mexico"},{"id":"New Mexico State","name":"New Mexico State","abbreviation":"NMSU","conference":"Conference USA","lat":32.2796202,"lng":-106.7411148,"slug_247":"new-mexico-state"},{"id":"North Carolina","name":"North Carolina","abbreviation":"UNC","conference":"ACC","lat":35.9069294,"lng":-79.0478889,"slug_247":"north-carolina"},{"id":"North Dakota State","name":"North Dakota State","abbreviation":"NDSU","conference":"Mountain West","lat":46.9029938,"lng":-96.8003251,"slug_247":"north-dakota-state"},{"id":"North Texas","name":"North Texas","abbreviation":"UNT","conference":"American Athletic","lat":33.203899,"lng":-97.159245,"slug_247":"north-texas"},{"id":"Northern Illinois","name":"Northern Illinois","abbreviation":"NIU","conference":"Mountain West","lat":41.9339586,"lng":-88.7778357,"slug_247":"northern-illinois"},{"id":"Northwestern","name":"Northwestern","abbreviation":"NU","conference":"Big Ten","lat":42.0587,"lng":-87.6777,"slug_247":"northwestern"},{"id":"Notre Dame","name":"Notre Dame","abbreviation":"ND","conference":"FBS Independents","lat":41.698378,"lng":-86.2339425,"slug_247":"notre-dame"},{"id":"Ohio","name":"Ohio","abbreviation":"OHIO","conference":"Mid-American","lat":39.3212794,"lng":-82.1034315,"slug_247":"ohio"},{"id":"Ohio State","name":"Ohio State","abbreviation":"OSU","conference":"Big Ten","lat":40.0016447,"lng":-83.0197266,"slug_247":"ohio-state"},{"id":"Oklahoma","name":"Oklahoma","abbreviation":"OU","conference":"SEC","lat":35.2058537,"lng":-97.4423145,"slug_247":"oklahoma"},{"id":"Oklahoma State","name":"Oklahoma State","abbreviation":"OKST","conference":"Big 12","lat":36.125673,"lng":-97.066513,"slug_247":"oklahoma-state"},{"id":"Old Dominion","name":"Old Dominion","abbreviation":"ODU","conference":"Sun Belt","lat":36.8889533,"lng":-76.3049175,"slug_247":"old-dominion"},{"id":"Ole Miss","name":"Ole Miss","abbreviation":"MISS","conference":"SEC","lat":34.3619837,"lng":-89.5342076,"slug_247":"ole-miss"},{"id":"Oregon","name":"Oregon","abbreviation":"ORE","conference":"Big Ten","lat":44.0582712,"lng":-123.0684883,"slug_247":"oregon"},{"id":"Oregon State","name":"Oregon State","abbreviation":"ORST","conference":"Pac-12","lat":44.5594559,"lng":-123.2814341,"slug_247":"oregon-state"},{"id":"Penn State","name":"Penn State","abbreviation":"PSU","conference":"Big Ten","lat":40.8121958,"lng":-77.8561023,"slug_247":"penn-state"},{"id":"Pittsburgh","name":"Pittsburgh","abbreviation":"PITT","conference":"ACC","lat":40.4467648,"lng":-80.0157603,"slug_247":"pittsburgh"},{"id":"Purdue","name":"Purdue","abbreviation":"PUR","conference":"Big Ten","lat":40.4352253,"lng":-86.9186843,"slug_247":"purdue"},{"id":"Rice","name":"Rice","abbreviation":"RICE","conference":"American Athletic","lat":29.7163297,"lng":-95.4093261,"slug_247":"rice"},{"id":"Rutgers","name":"Rutgers","abbreviation":"RUTG","conference":"Big Ten","lat":40.5462553,"lng":-74.4660408,"slug_247":"rutgers"},{"id":"SMU","name":"SMU","abbreviation":"SMU","conference":"ACC","lat":32.8377223,"lng":-96.7827859,"slug_247":"smu"},{"id":"Sacramento State","name":"Sacramento State","abbreviation":"SAC","conference":"Mid-American","lat":38.5556718,"lng":-121.4229607,"slug_247":"sacramento-state"},{"id":"Sam Houston","name":"Sam Houston","abbreviation":"SHSU","conference":"Conference USA","lat":30.713926,"lng":-95.5419802,"slug_247":"sam-houston"},{"id":"San Diego State","name":"San Diego State","abbreviation":"SDSU","conference":"Pac-12","lat":32.784444,"lng":-117.122833,"slug_247":"san-diego-state"},{"id":"San Jos\u00e9 State","name":"San Jos\u00e9 State","abbreviation":"SJSU","conference":"Mountain West","lat":37.3196675,"lng":-121.8682962,"slug_247":"san-jos\u00e9-state"},{"id":"South Alabama","name":"South Alabama","abbreviation":"USA","conference":"Sun Belt","lat":30.6943566,"lng":-88.0430541,"slug_247":"south-alabama"},{"id":"South Carolina","name":"South Carolina","abbreviation":"SC","conference":"SEC","lat":33.9730239,"lng":-81.0191726,"slug_247":"south-carolina"},{"id":"South Florida","name":"South Florida","abbreviation":"USF","conference":"American Athletic","lat":27.9758691,"lng":-82.5033344,"slug_247":"south-florida"},{"id":"Southern Miss","name":"Southern Miss","abbreviation":"USM","conference":"Sun Belt","lat":31.3289321,"lng":-89.3318118,"slug_247":"southern-miss"},{"id":"Stanford","name":"Stanford","abbreviation":"STAN","conference":"ACC","lat":37.4345556,"lng":-122.1611271,"slug_247":"stanford"},{"id":"Syracuse","name":"Syracuse","abbreviation":"SYR","conference":"ACC","lat":43.0362269,"lng":-76.1363161,"slug_247":"syracuse"},{"id":"TCU","name":"TCU","abbreviation":"TCU","conference":"Big 12","lat":32.7096604,"lng":-97.3680835,"slug_247":"tcu"},{"id":"Temple","name":"Temple","abbreviation":"TEM","conference":"American Athletic","lat":39.9007995,"lng":-75.1675414,"slug_247":"temple"},{"id":"Tennessee","name":"Tennessee","abbreviation":"TENN","conference":"SEC","lat":35.9550131,"lng":-83.9250128,"slug_247":"tennessee"},{"id":"Texas","name":"Texas","abbreviation":"TEX","conference":"SEC","lat":30.2836813,"lng":-97.7325345,"slug_247":"texas"},{"id":"Texas A&M","name":"Texas A&M","abbreviation":"TA&M","conference":"SEC","lat":30.6098891,"lng":-96.3403828,"slug_247":"texas-am"},{"id":"Texas State","name":"Texas State","abbreviation":"TXST","conference":"Pac-12","lat":29.8910008,"lng":-97.9255735,"slug_247":"texas-state"},{"id":"Texas Tech","name":"Texas Tech","abbreviation":"TTU","conference":"Big 12","lat":33.5910518,"lng":-101.8728824,"slug_247":"texas-tech"},{"id":"Toledo","name":"Toledo","abbreviation":"TOL","conference":"Mid-American","lat":41.6574777,"lng":-83.6135652,"slug_247":"toledo"},{"id":"Troy","name":"Troy","abbreviation":"TROY","conference":"Sun Belt","lat":31.7995565,"lng":-85.9518328,"slug_247":"troy"},{"id":"Tulane","name":"Tulane","abbreviation":"TULN","conference":"American Athletic","lat":29.944616,"lng":-90.116692,"slug_247":"tulane"},{"id":"Tulsa","name":"Tulsa","abbreviation":"TLSA","conference":"American Athletic","lat":36.1489175,"lng":-95.9437853,"slug_247":"tulsa"},{"id":"UAB","name":"UAB","abbreviation":"UAB","conference":"American Athletic","lat":33.5206824,"lng":-86.8024326,"slug_247":"uab"},{"id":"UCF","name":"UCF","abbreviation":"UCF","conference":"Big 12","lat":28.6079765,"lng":-81.1927233,"slug_247":"ucf"},{"id":"UCLA","name":"UCLA","abbreviation":"UCLA","conference":"Big Ten","lat":34.1613284,"lng":-118.1676462,"slug_247":"ucla"},{"id":"UConn","name":"UConn","abbreviation":"CONN","conference":"FBS Independents","lat":41.7595675,"lng":-72.6187728,"slug_247":"uconn"},{"id":"UL Monroe","name":"UL Monroe","abbreviation":"ULM","conference":"Sun Belt","lat":32.5308089,"lng":-92.0660602,"slug_247":"ul-monroe"},{"id":"UNLV","name":"UNLV","abbreviation":"UNLV","conference":"Mountain West","lat":36.1672559,"lng":-115.1485163,"slug_247":"unlv"},{"id":"USC","name":"USC","abbreviation":"USC","conference":"Big Ten","lat":34.014167,"lng":-118.287778,"slug_247":"usc"},{"id":"UTEP","name":"UTEP","abbreviation":"UTEP","conference":"Mountain West","lat":31.7733353,"lng":-106.507957,"slug_247":"utep"},{"id":"UTSA","name":"UTSA","abbreviation":"UTSA","conference":"American Athletic","lat":29.4169834,"lng":-98.4788143,"slug_247":"utsa"},{"id":"Utah","name":"Utah","abbreviation":"UTAH","conference":"Big 12","lat":40.7599724,"lng":-111.8488255,"slug_247":"utah"},{"id":"Utah State","name":"Utah State","abbreviation":"USU","conference":"Pac-12","lat":41.7517394,"lng":-111.8116007,"slug_247":"utah-state"},{"id":"Vanderbilt","name":"Vanderbilt","abbreviation":"VAN","conference":"SEC","lat":36.1440455,"lng":-86.8088942,"slug_247":"vanderbilt"},{"id":"Virginia","name":"Virginia","abbreviation":"UVA","conference":"ACC","lat":38.0311801,"lng":-78.5137897,"slug_247":"virginia"},{"id":"Virginia Tech","name":"Virginia Tech","abbreviation":"VT","conference":"ACC","lat":37.2199873,"lng":-80.4180643,"slug_247":"virginia-tech"},{"id":"Wake Forest","name":"Wake Forest","abbreviation":"WAKE","conference":"ACC","lat":36.1305507,"lng":-80.2545851,"slug_247":"wake-forest"},{"id":"Washington","name":"Washington","abbreviation":"WASH","conference":"Big Ten","lat":47.6503235,"lng":-122.3015746,"slug_247":"washington"},{"id":"Washington State","name":"Washington State","abbreviation":"WSU","conference":"Pac-12","lat":46.731831,"lng":-117.1604991,"slug_247":"washington-state"},{"id":"West Virginia","name":"West Virginia","abbreviation":"WVU","conference":"Big 12","lat":39.6502744,"lng":-79.9551873,"slug_247":"west-virginia"},{"id":"Western Kentucky","name":"Western Kentucky","abbreviation":"WKU","conference":"Conference USA","lat":36.9847901,"lng":-86.4594041,"slug_247":"western-kentucky"},{"id":"Western Michigan","name":"Western Michigan","abbreviation":"WMU","conference":"Mid-American","lat":42.2860064,"lng":-85.6007573,"slug_247":"western-michigan"},{"id":"Wisconsin","name":"Wisconsin","abbreviation":"WIS","conference":"Big Ten","lat":43.06994,"lng":-89.4126943,"slug_247":"wisconsin"},{"id":"Wyoming","name":"Wyoming","abbreviation":"WYO","conference":"Mountain West","lat":41.31161,"lng":-105.5681384,"slug_247":"wyoming"}]